[{"formatted_address":"Jl. Paelangkuta, Watonea, Kec. Katobu, Kabupaten Muna, Sulawesi Tenggara 93614, Indonesia","name":"NES_inn HOTEL","photos":"[{'height': 4160, 'html_attributions': ['<a href=\"https:\/\/maps.google.com\/maps\/contrib\/110276126713091545663\">A Google User<\/a>'], 'photo_reference': 'AUGGfZkxGzN95w1ItlCVXprkOAZbQWmiYLchL5jRVW8fWTkVzH_drmn6LtHqBcvejfdjY9TNmBlwr1sHbJGeE35BBYVPe6y4suKWp7xBAEGznM0waOXRhUYuXEpXQjx6kwgvtPLrEDinB9L1iQRdA4SGttsfZcUirIS6UVYEvHFyzbv2rc0l', 'width': 6240}]","place_id":"ChIJ78J6u1U1oi0RP03Go-mt7Xw","rating":4.4,"types":"['lodging', 'point_of_interest', 'establishment']","user_ratings_total":232,"lat":-4.8227413,"lng":122.7200858},{"formatted_address":"Jl. Kantolalo Jl. By Pass Raha No.10, Kabupaten Muna, Sulawesi Tenggara 93611, Indonesia","name":"DJ Hotel","photos":"[{'height': 3297, 'html_attributions': ['<a href=\"https:\/\/maps.google.com\/maps\/contrib\/115641973092260549116\">Muh Puddu A Mansur<\/a>'], 'photo_reference': 'AUGGfZlXCEzd7SXQIcI1qowDdhdzDAr7UEzlTnsjrUVi4heG4KK5NHoP_FOpqhnYLTaw7d7J7yUJFO6tLZwCeyswMlTYZFS0tkCE1JYMy6ijGlOWSnmhjh2koTUBXatZEnuOzPHGP_JbfLbLMsm1DavpEnAANAxo9PhLU6dmkoIlocWp6Fo0', 'width': 8384}]","place_id":"ChIJISMQB_rLoy0R8D7Onki80uU","rating":4.8,"types":"['lodging', 'point_of_interest', 'establishment']","user_ratings_total":98,"lat":-4.8434231,"lng":122.7257284},{"formatted_address":"5PCG+QX3, Jl. Wamponiki 1, Butung-Butung, Kec. Katobu, Kabupaten Muna, Sulawesi Tenggara 93611, Indonesia","name":"Hotel Mutiara","photos":"[{'height': 1952, 'html_attributions': ['<a href=\"https:\/\/maps.google.com\/maps\/contrib\/107637489831080104914\">A Google User<\/a>'], 'photo_reference': 'AUGGfZk24x21KAo_EzBsgLmEz44DqwkMESnDj5o6SGFI_nx0o3l5ASBMNw3qF4KFDQ4VX8NgELSI2DsPKziU5MN5CifJOzUBokUJbhtVZ_EjflLwfsxZ2wO9CeYIaaa2M9A6qEFvfWcY7YYpNoX6DnNqh0FJvGo82uA5R7MOuSNYwUAi46OX', 'width': 4160}]","place_id":"ChIJ6VaIua3Koy0Rs8GoXjo5Agg","rating":4.0,"types":"['lodging', 'point_of_interest', 'establishment']","user_ratings_total":121,"lat":-4.8281002,"lng":122.7274246},{"formatted_address":"Jalan Jenderal Sudirman No.5, Raha, Katobu, Raha I, Kec. Katobu, Kabupaten Muna, Sulawesi Tenggara 93611, Indonesia","name":"Alia Hotel","photos":"[{'height': 4000, 'html_attributions': ['<a href=\"https:\/\/maps.google.com\/maps\/contrib\/117181888238980039256\">Bayu Arsenius<\/a>'], 'photo_reference': 'AUGGfZm9J1LU1XPd8urdXkXxbtTGvPOe9_8j76L19BePVoCJFHnd-bo5b2BUmtj9uX32OA3X55C384l9A16v6Z6fEcNBPlI2CKTA7Dwy9tZees3Rk0my8ugww0atsndHxydWvIoi-n_imdv9kPm2fR6NqAbygRqqsYbs69SC-rN1oR4loWAO', 'width': 3000}]","place_id":"ChIJzfsvy4HKoy0RsMANEyoL61Q","rating":3.9,"types":"['lodging', 'point_of_interest', 'establishment']","user_ratings_total":160,"lat":-4.8422604,"lng":122.7254314},{"formatted_address":"6C3P+292, Jl. Poros, Tiworo, Kec. Tiworo Kepulauan, Kabupaten Muna, Sulawesi Tenggara 93653, Indonesia","name":"Tiworo","photos":null,"place_id":"ChIJdbwQCgBVoi0Rzy4D6dB9Dqg","rating":5.0,"types":"['lodging', 'point_of_interest', 'establishment']","user_ratings_total":1,"lat":-4.797941,"lng":122.4366849},{"formatted_address":"6C5M+X88, Jalan Ring Road Kambara - Guali, Tiworo, Kecamatan TIKEP, Indonesia","name":"DIAN HOTEL","photos":null,"place_id":"ChIJwx-CFgBVoi0RR8d2wDX4qo4","rating":0.0,"types":"['lodging', 'point_of_interest', 'establishment']","user_ratings_total":0,"lat":-4.7900782,"lng":122.4333176},{"formatted_address":"Barat, Tiworo Kepulauan, Muna Regency, South East Sulawesi 93653, Indonesia","name":"HOTEL AMALYAH Muna Barat","photos":"[{'height': 3000, 'html_attributions': ['<a href=\"https:\/\/maps.google.com\/maps\/contrib\/104537708634464668271\">A Google User<\/a>'], 'photo_reference': 'AUGGfZkZjobdsRWrfidg0mrLCIG-E4ddk7huvH63B7pFOwdE__-_472LtE8Ie8rK66r0fjtLEkMrNJa8BhEOOq50wUtsVHSlgUwhcZg5rYrtJcbbHeJ8HdNwSnu0I3uhXhPJ94ejLv7e1cslDNmYbJ2PQZNHVOcualglmxNQ4rXZKxPwTVtl', 'width': 4000}]","place_id":"ChIJedUauvFVoi0RR88s8MKBQh0","rating":5.0,"types":"['supermarket', 'grocery_or_supermarket', 'lodging', 'food', 'point_of_interest', 'store', 'establishment']","user_ratings_total":18,"lat":-4.7928125,"lng":122.4316875},{"formatted_address":"4GPX+P7Q, Latugho, Lawa, Muna Regency, South East Sulawesi, Indonesia","name":"Home teler","photos":null,"place_id":"ChIJzT-VcQCzoy0RYgrmg-fLs2U","rating":0.0,"types":"['lodging', 'point_of_interest', 'establishment']","user_ratings_total":0,"lat":-4.862916,"lng":122.5483935},{"formatted_address":"Mekar Jaya, Central Tiworo, Muna Regency, South East Sulawesi 93653, Indonesia","name":"Hotel Dina, Kabupaten Muna Barat, Kecamatan Tiworo Tengah","photos":"[{'height': 2608, 'html_attributions': ['<a href=\"https:\/\/maps.google.com\/maps\/contrib\/100104253881683024440\">A Google User<\/a>'], 'photo_reference': 'AUGGfZkS0eeoIgnKzh0h6QLSpEXFhHwuyWJ3uYzsm5kxNlQRYMt0_fvevHCrnGQiEtYswy8GOPRD9OmrcUUmMeskIsDm77aaRW8TA2Rf48xs4UM_eaBdkRZsTxjq30CAnoHqdtPF02AHNaHgSvcex45uoJraKhXmTkVsQIHrQ4cHblDNet_u', 'width': 4624}]","place_id":"ChIJEUA_AXhVoi0R1llsz7Ktu4o","rating":4.2,"types":"['lodging', 'point_of_interest', 'establishment']","user_ratings_total":41,"lat":-4.8184902,"lng":122.4010422},{"formatted_address":"7FWH+P4, Katela, Muna Regency, South East Sulawesi, Indonesia","name":"Home Ulyaa","photos":null,"place_id":"ChIJKYf2FwBRoi0RhJmbyNo5IDE","rating":0.0,"types":"['lodging', 'point_of_interest', 'establishment']","user_ratings_total":0,"lat":-4.7032292,"lng":122.4778722},{"formatted_address":"597R+579, Mekar Jaya, Central Tiworo, Muna Regency, South East Sulawesi, Indonesia","name":"Hotel Karisma Anggrek Jingga","photos":null,"place_id":"ChIJL00MRYFVoi0RI_-MZiDSHDc","rating":0.0,"types":"['lodging', 'point_of_interest', 'establishment']","user_ratings_total":0,"lat":-4.8370768,"lng":122.3907273},{"formatted_address":"Suka Damai, Central Tiworo, Laworo, South East Sulawesi 93654, Indonesia","name":"RH GROUP","photos":"[{'height': 1600, 'html_attributions': ['<a href=\"https:\/\/maps.google.com\/maps\/contrib\/101055819843538309686\">A Google User<\/a>'], 'photo_reference': 'AUGGfZnSLQU8sHsfBNObE190CpkCqskl7hOp4NXCw1TiTyEUeEDi5sc0CX6nbwyLve61lTbheCx3EO36civkR43Nq8KcyIJ_Uokzi1P-0D0ref2NF4alFaV_spD6TE3u7TgHNNoJQ4MEWa5iP_nWnHmXRVU8r8tTNKWPIKblQdopoo0bccyr', 'width': 1200}]","place_id":"ChIJ47abySJVoi0RF6Mp0ye0070","rating":0.0,"types":"['lodging', 'point_of_interest', 'establishment']","user_ratings_total":0,"lat":-4.8066761,"lng":122.4035335},{"formatted_address":"Dekat lahorio, Lupia, Sulawesi Tenggara 93611, Indonesia","name":"Penginapan matantonga","photos":"[{'height': 1080, 'html_attributions': ['<a href=\"https:\/\/maps.google.com\/maps\/contrib\/106485716612808501865\">A Google User<\/a>'], 'photo_reference': 'AUGGfZm5g5cYLRLes3Jhmn5af29B3UUV43Ld3zRQqL5fr4fH9-xQAEyUAy2-xmDsK26lOuCy4yl5h769McnflhJzhkm-voJQTNACmZYIdkiOCtdgFaFlrjd0smyLDE6gStLUvX4prj8fbBuv-6VErzGNp7LaXqA1v-tLZ9jHA7vX0jjzq3R1', 'width': 1920}]","place_id":"ChIJy-k62smvoy0RwURwecbEprg","rating":2.6,"types":"['lodging', 'point_of_interest', 'establishment']","user_ratings_total":5,"lat":-4.9644207,"lng":122.4952401},{"formatted_address":"3G22+Q2R, Unnamed Road, Kafoo-Foo, Kontu Kowuna, Muna Regency, South East Sulawesi 93652, Indonesia","name":"La Ode Husein","photos":null,"place_id":"ChIJ_fq3Gpqvoy0Ruwcu_3RkA_o","rating":5.0,"types":"['lodging', 'point_of_interest', 'establishment']","user_ratings_total":1,"lat":-4.9480074,"lng":122.5000104},{"formatted_address":"2FMM+62J, Rangka, Lendeo, Muna Regency, South East Sulawesi 93652, Indonesia","name":"Rumah Risky","photos":null,"place_id":"ChIJawONGACvoy0RoHBUxokCfTo","rating":0.0,"types":"['lodging', 'point_of_interest', 'establishment']","user_ratings_total":0,"lat":-4.9674251,"lng":122.4824723},{"formatted_address":"5M8M+264, Labaha, Watopute, Muna Regency, South East Sulawesi 93656, Indonesia","name":"AKIB HOTEL","photos":null,"place_id":"ChIJm1sSkXC1oy0RVziKbCye6Fc","rating":5.0,"types":"['lodging', 'point_of_interest', 'establishment']","user_ratings_total":1,"lat":-4.834993,"lng":122.6830662},{"formatted_address":"4MFQ+987, Kondongia, Lohia, Muna Regency, South East Sulawesi 93658, Indonesia","name":"Hotel Ryan FARLIN","photos":null,"place_id":"ChIJ-z0yZrm1oy0RxuhSxvLMsgc","rating":3.0,"types":"['lodging', 'point_of_interest', 'establishment']","user_ratings_total":2,"lat":-4.876593,"lng":122.6882918},{"formatted_address":"4MMG+P8V, Masalili, Kontunaga, Muna Regency, South East Sulawesi 93658, Indonesia","name":"Rumahnya Lajia","photos":"[{'height': 1476, 'html_attributions': ['<a href=\"https:\/\/maps.google.com\/maps\/contrib\/117903213992381643712\">Mudha Labora<\/a>'], 'photo_reference': 'AUGGfZlupmZFOfXXmgoQJZayw3NoSbtsJWBf8PNNN3Flfj3zz_7fUaPHQ2B2iNUVId7Wc8S2XCu1-jFY8sLZlpktJkeKER7urroc9AhTUnY0bPwgN_b9mCeg66vh4plH7_BaHLO63yukbnMBN8UoOn1hvpwJNgfXDHyNIQtXG6t4O7ShDCHA', 'width': 3280}]","place_id":"ChIJdcMWh421oy0Rak1lDr95nt8","rating":0.0,"types":"['lodging', 'point_of_interest', 'establishment']","user_ratings_total":0,"lat":-4.865757,"lng":122.676988},{"formatted_address":"5M7M+X3F, Labaha, Watopute, Muna Regency, South East Sulawesi 93656, Indonesia","name":"SAFARUNI HOTEL","photos":null,"place_id":"ChIJfwojIgu1oy0RuGzesjkXp-M","rating":5.0,"types":"['lodging', 'point_of_interest', 'establishment']","user_ratings_total":2,"lat":-4.8350468,"lng":122.6826669},{"formatted_address":"5JVV+3VP, Dana, Watopute, Muna Regency, South East Sulawesi, Indonesia","name":"R2","photos":null,"place_id":"ChIJQ0mI369Loi0Rs8xmLhk1mCA","rating":0.0,"types":"['lodging', 'point_of_interest', 'establishment']","user_ratings_total":0,"lat":-4.8072789,"lng":122.6447001},{"formatted_address":"5M8J+8V5, Labaha, Watopute, Muna Regency, South East Sulawesi 93656, Indonesia","name":"UI HOTEL","photos":null,"place_id":"ChIJbdX8FlC1oy0RJpgvbSNd06c","rating":5.0,"types":"['lodging', 'point_of_interest', 'establishment']","user_ratings_total":1,"lat":-4.8342546,"lng":122.6821874},{"formatted_address":"4MGQ+4RF, Bolo, Lohia, Muna Regency, South East Sulawesi 93658, Indonesia","name":"HOTEL UNTUNG","photos":null,"place_id":"ChIJCVz1i7u1oy0RQUd_DZD8JZI","rating":0.0,"types":"['lodging', 'point_of_interest', 'establishment']","user_ratings_total":0,"lat":-4.8746838,"lng":122.6895471},{"formatted_address":"4MGQ+774, Bolo, Lohia, Muna Regency, South East Sulawesi 93658, Indonesia","name":"rumah perkumpulan","photos":null,"place_id":"ChIJFbuOEgC1oy0RWJKhbppWyys","rating":5.0,"types":"['lodging', 'point_of_interest', 'establishment']","user_ratings_total":1,"lat":-4.8743487,"lng":122.6881849},{"formatted_address":"XFPW+GRP, Kontumere, Kabawo, Muna Regency, South East Sulawesi 93661, Indonesia","name":"Rumah Randi","photos":null,"place_id":"ChIJvcSvufqloy0RDgkpXHTDaSU","rating":0.0,"types":"['lodging', 'point_of_interest', 'establishment']","user_ratings_total":0,"lat":-5.0139396,"lng":122.4967002},{"formatted_address":"4PQ8+HC8, Ghonsume, Duruka, Muna Regency, South East Sulawesi 93616, Indonesia","name":"La Iko House","photos":"[{'height': 4160, 'html_attributions': ['<a href=\"https:\/\/maps.google.com\/maps\/contrib\/116703770870649021592\">A Google User<\/a>'], 'photo_reference': 'AUGGfZlCZEb788_YE_RreLUkio4n-CVuspDPISi3TI2D1dxpU5zJ0lbAWCixBsDoCVw_QVQYQSWg9dPQlnE4csga81WtobwYqINL-LA08__NfHDpf_yz5yulYC4g07OYmKtDY9DSDtP2G8UM4VZTdyVcoUEMoGZcXQiPGXyb4vp0JBplaOQw', 'width': 3120}]","place_id":"ChIJkQ8I-iS1oy0RW0e5mJGr1l8","rating":0.0,"types":"['lodging', 'point_of_interest', 'establishment']","user_ratings_total":0,"lat":-4.8611224,"lng":122.7160835},{"formatted_address":"XFPX+X8C, Lamaeo, Kabawo, Muna Regency, South East Sulawesi 93661, Indonesia","name":"Home ILHAM","photos":null,"place_id":"ChIJJ-F7P1iloy0R0JYf3QliM4w","rating":5.0,"types":"['lodging', 'point_of_interest', 'establishment']","user_ratings_total":2,"lat":-5.0120055,"lng":122.4987455},{"formatted_address":"XFQX+GH4, Kontumere, Kabawo, Muna Regency, South East Sulawesi 93664, Indonesia","name":"Rumah gali","photos":null,"place_id":"ChIJvSwvePOloy0RpvLGPYvm7ws","rating":0.0,"types":"['lodging', 'point_of_interest', 'establishment']","user_ratings_total":0,"lat":-5.0110686,"lng":122.4987481},{"formatted_address":"5M7J+RR9, Labaha, Watopute, Muna Regency, South East Sulawesi 93656, Indonesia","name":"\u0637\u0627\u0628\u0621","photos":null,"place_id":"ChIJv39aFvG1oy0RLXJ1EqNUQfY","rating":0.0,"types":"['lodging', 'point_of_interest', 'establishment']","user_ratings_total":0,"lat":-4.8354958,"lng":122.6821364},{"formatted_address":"XFWR+684, Jalan poros, Bente, Kec. Kabawo, Kabupaten Muna, Sulawesi Tenggara, Indonesia","name":"Rumah abdi","photos":null,"place_id":"ChIJB7npk62loy0Rq1PkxZtL6pk","rating":0.0,"types":"['lodging', 'point_of_interest', 'establishment']","user_ratings_total":0,"lat":-5.0044912,"lng":122.4907916},{"formatted_address":"XFWR+M5W, Kontumere, Kabawo, Muna Regency, South East Sulawesi 93661, Indonesia","name":"Rumah fathir","photos":null,"place_id":"ChIJpQ3kao-loy0RV2HGz-72xFM","rating":5.0,"types":"['lodging', 'point_of_interest', 'establishment']","user_ratings_total":1,"lat":-5.0043075,"lng":122.4903884},{"formatted_address":"5M4M+34M, Labaha, Watopute, Muna Regency, South East Sulawesi 93656, Indonesia","name":"ANTO FAMILY","photos":null,"place_id":"ChIJEbVCZje1oy0RooSmHjvTcKs","rating":4.8,"types":"['lodging', 'point_of_interest', 'establishment']","user_ratings_total":4,"lat":-4.8447919,"lng":122.6827827},{"formatted_address":"Desa, Suka Damai, Tiworo Tengah, muna barat, Sulawesi Tenggara 93653, Indonesia","name":"Kos nursyabila","photos":"[{'height': 3120, 'html_attributions': ['<a href=\"https:\/\/maps.google.com\/maps\/contrib\/103989658278416312319\">A Google User<\/a>'], 'photo_reference': 'AUGGfZldvAfB9EKzR1lRBBmffpM675FAH79FF7A96zzGFGIqS2r0tyByLEGxmmzukZ-BF-vS5KaT7GnoDWU8aufXrs2rrnfUuZNwQaDyCnYvBlfOEaF-sM7bYbl89iWVN-J3af2DhvUojr3wb0_PSZnGvNY3Y9zGM4OaDHRp9Lcd7_fhOaFn', 'width': 4160}]","place_id":"ChIJY638yaBVoi0R_qSwMnRQ7sk","rating":4.6,"types":"['lodging', 'point_of_interest', 'establishment']","user_ratings_total":17,"lat":-4.8085322,"lng":122.4040186},{"formatted_address":"XFVR+28X Mata Air Oe bhalano, Jl. Mangga Besar, Kontumere, Kec. Kabawo, Kabupaten Muna, Sulawesi Tenggara 93661, Indonesia","name":"Rumah ahmad","photos":null,"place_id":"ChIJ9y6Meouloy0RRHTYg7uVlBo","rating":0.0,"types":"['lodging', 'point_of_interest', 'establishment']","user_ratings_total":0,"lat":-5.0074025,"lng":122.4914875},{"formatted_address":"5M5P+QQG, Labaha, Watopute, Muna Regency, South East Sulawesi 93656, Indonesia","name":"Ffff","photos":null,"place_id":"ChIJk9fL4P-1oy0Rbz8zDHwkeK4","rating":1.0,"types":"['lodging', 'point_of_interest', 'establishment']","user_ratings_total":1,"lat":-4.8405474,"lng":122.6869524},{"formatted_address":"3C59+MH, Wakobulu Agung, Kabangka, Muna Regency, South East Sulawesi, Indonesia","name":"Rumah inda","photos":"[{'height': 3264, 'html_attributions': ['<a href=\"https:\/\/maps.google.com\/maps\/contrib\/116512666182685940476\">A Google User<\/a>'], 'photo_reference': 'AUGGfZnMo5_21Q-xUYc_Yk8itw1bEZk3_WS-IP4QtSRdn_EGbdfn9iTgWdsrzx9daLkRINtqxcTJp1vLdKhq_9duQSdvIX8Mtq6Bh75fpGD2caSaNa_rSJr6qx-AKx7rKHFYWe1hA6ph8FqeXEsokRrKFEz7Mtu1efl6gDtCDuf9pYIMOxz3', 'width': 2448}]","place_id":"ChIJbS6icACpoy0R6PXa0MHs5Iw","rating":5.0,"types":"['lodging', 'point_of_interest', 'establishment']","user_ratings_total":1,"lat":-4.9408563,"lng":122.4189716},{"formatted_address":"XFRX+FWW, Lamaeo, Kabawo, Muna Regency, South East Sulawesi 93661, Indonesia","name":"Home Bahrul","photos":null,"place_id":"ChIJVQasm_-loy0RfxkmC3ylC60","rating":0.0,"types":"['lodging', 'point_of_interest', 'establishment']","user_ratings_total":0,"lat":-5.0088876,"lng":122.5009689},{"formatted_address":"4MFV+8FG, Jl. Poros Waara, Kondongia, Kec. Lohia, Kabupaten Muna, Sulawesi Tenggara 93658, Indonesia","name":"Hotel Asuan","photos":"[{'height': 4608, 'html_attributions': ['<a href=\"https:\/\/maps.google.com\/maps\/contrib\/117917363569351102020\">A Google User<\/a>'], 'photo_reference': 'AUGGfZnHb7OraIMEaPjmy8YPBaMONYLFR3r6btT1rfyKLHnBjvESPSGlZTGgwlykd8viCXMqNR1CLpGP4p8VeO2IpwQcUmwDL-jbxawDaYe0EqPUSI5sbHFe2lje32cRaH8Jpvq19I1jXjubKf6Vo-o3-R7Q3sjjLKYdcUObtEp5aug3tEBU', 'width': 2128}]","place_id":"ChIJPzJTAtO1oy0Rt5QI7Jv7r54","rating":0.0,"types":"['lodging', 'point_of_interest', 'establishment']","user_ratings_total":0,"lat":-4.8766821,"lng":122.6937107},{"formatted_address":"XFGW+MR8, Wantiworo, Kabawo, Muna Regency, South East Sulawesi 93661, Indonesia","name":"Rumah nenek Ashar","photos":null,"place_id":"ChIJm0hLdG6loy0RqDcKAjM0MGA","rating":0.0,"types":"['lodging', 'point_of_interest', 'establishment']","user_ratings_total":0,"lat":-5.0235253,"lng":122.497421},{"formatted_address":"XF2W+M8W, Unnamed Road, Laiba, Kec. Parigi, Kabupaten Muna, Sulawesi Tenggara 93661, Indonesia","name":"Hotel Tata","photos":"[{'height': 4032, 'html_attributions': ['<a href=\"https:\/\/maps.google.com\/maps\/contrib\/100649626628446269171\">A Google User<\/a>'], 'photo_reference': 'AUGGfZkmLT25ZcyblTvj9Pgxh-_tPK5efJdYsRfBLwaqwkBuZ6SNpvRwQAO8k52Xwc30TNUNFI2hQHPSrcwChHmCRkry5c7M6TSyHOMO1xbUj1RzbqY-Ph2mmNMmreD4aVvfcdWCFQswIMCkuZeg8V1_9o9eSWDP1APBxEyA3XlAyTDqVETM', 'width': 3024}]","place_id":"ChIJGcRWD7eloy0RetI51tpCo_k","rating":4.4,"types":"['lodging', 'point_of_interest', 'establishment']","user_ratings_total":9,"lat":-5.0482594,"lng":122.4958207},{"formatted_address":"5M5P+2H6, Labaha, Watopute, Muna Regency, South East Sulawesi 93656, Indonesia","name":"Foto Copy Tiga Cahaya","photos":null,"place_id":"ChIJsXvVuVm1oy0RPc_7bQgmbHo","rating":0.0,"types":"['lodging', 'point_of_interest', 'establishment']","user_ratings_total":0,"lat":-4.842482,"lng":122.6864711},{"formatted_address":"4PR7+5GF, Ghonsume, Duruka, Muna Regency, South East Sulawesi, Indonesia","name":"Rumah Tommy (Areah Teknik)","photos":null,"place_id":"ChIJPbaYWAC1oy0RxiwbhgBJMXc","rating":5.0,"types":"['lodging', 'point_of_interest', 'establishment']","user_ratings_total":1,"lat":-4.8595599,"lng":122.7138089},{"formatted_address":"69XF+C8G, Tondasi, North Tiworo, Muna Regency, South East Sulawesi 93653, Indonesia","name":"Penginapan dan rm aroma tiworo","photos":"[{'height': 960, 'html_attributions': ['<a href=\"https:\/\/maps.google.com\/maps\/contrib\/117821590677206380956\">A Google User<\/a>'], 'photo_reference': 'AUGGfZkY0n6epv8rvMm7ecmXol3Z3BwtFryjQmM801y2HBxxlT9_SOz0dOCJQMqjwDeXSFWYPRM0d2gd7brSupKRAYRjd3pSr3YC8zhwzHsnXmjjF7C9Z8R29FqJcMxtDdnDHrZZV2O2YzrErEcSWl7W3hy1YIthG5womJ9pj6G1pYTWkKO5', 'width': 720}]","place_id":"ChIJx1PXiaJXoi0RWz1gL7HldnA","rating":4.8,"types":"['lodging', 'point_of_interest', 'establishment']","user_ratings_total":6,"lat":-4.7513983,"lng":122.3732295},{"formatted_address":"XFQX+GH4, Kontumere, Kabawo, Muna Regency, South East Sulawesi 93664, Indonesia","name":"Rumah uman","photos":null,"place_id":"ChIJE4NqkKGloy0R4oO8n1ODFw0","rating":0.0,"types":"['lodging', 'point_of_interest', 'establishment']","user_ratings_total":0,"lat":-5.0111948,"lng":122.4986598},{"formatted_address":"Jalan Jend. Soedirman No.36, Kontumere, Kec. Kabawo, Kabupaten Muna, Sulawesi Tenggara 93661, Indonesia","name":"Wisma","photos":"[{'height': 3984, 'html_attributions': ['<a href=\"https:\/\/maps.google.com\/maps\/contrib\/115811286006374999920\">A Google User<\/a>'], 'photo_reference': 'AUGGfZn561pmlWeWUTQzV15Er8KeeP__khpw4fyVXWSk0WOmisjTaNYDA8GQGxDDBe0rtv0j7ahfBAuanA94oArp1m7xA51GOO53PDv4xdxcktHQfImJydRYjwHPJEzMK6Y-iq6rb5G8APm6i9W-pk1gv5tzvW4M1QrQSESlYcmMNgfkFWCb', 'width': 1840}]","place_id":"ChIJDeDJa8Wloy0Rd-BrQKb4XXk","rating":0.0,"types":"['lodging', 'point_of_interest', 'establishment']","user_ratings_total":0,"lat":-5.0169685,"lng":122.4973395},{"formatted_address":"XFQX+GH4, Kontumere, Kabawo, Muna Regency, South East Sulawesi 93664, Indonesia","name":"Rumah bujang","photos":null,"place_id":"ChIJ_6D94KWloy0R6awDytGdxlA","rating":0.0,"types":"['lodging', 'point_of_interest', 'establishment']","user_ratings_total":0,"lat":-5.0112564,"lng":122.4990014},{"formatted_address":"2F4M+VCV, Bente, Kabawo, Muna Regency, South East Sulawesi 93661, Indonesia","name":"RUMAH asis","photos":null,"place_id":"ChIJtWSo94Kloy0RWxc2MZBJl48","rating":1.0,"types":"['lodging', 'point_of_interest', 'establishment']","user_ratings_total":1,"lat":-4.9935591,"lng":122.4840873},{"formatted_address":"6PX6+RXX, Labunti, Lasalepa, Muna Regency, South East Sulawesi, Indonesia","name":"Kuburan umum desa labunti","photos":null,"place_id":"ChIJXbc6BABJoi0RkrKfECC2e4E","rating":0.0,"types":"['lodging', 'point_of_interest', 'establishment']","user_ratings_total":0,"lat":-4.7503852,"lng":122.7124903},{"formatted_address":"XFWR+77R, jalan poros, Bente, Kec. Kabawo, Kabupaten Muna, Sulawesi Tenggara, Indonesia","name":"Rumah Anjar\/Tika","photos":null,"place_id":"ChIJCQyxmoGloy0R7wvYIhQuLqY","rating":0.0,"types":"['lodging', 'point_of_interest', 'establishment']","user_ratings_total":0,"lat":-5.0042714,"lng":122.4906318},{"formatted_address":"2C2C+53, Wansugi, Kabangka, Muna Regency, South East Sulawesi, Indonesia","name":"Fathul home","photos":null,"place_id":"ChIJkTHZd6-noy0R_2zRTviBq78","rating":0.0,"types":"['lodging', 'point_of_interest', 'establishment']","user_ratings_total":0,"lat":-4.9996075,"lng":122.4201892},{"formatted_address":"VJX6+M97, Lamorende, Tongkuno, Muna Regency, South East Sulawesi 93662, Indonesia","name":"Pantai Topa","photos":"[{'height': 3264, 'html_attributions': ['<a href=\"https:\/\/maps.google.com\/maps\/contrib\/112521786921941779267\">A Google User<\/a>'], 'photo_reference': 'AUGGfZn2DDAmtvcuYeEnmz3llAEBm6lYep1U9DMCZmajnCQPRNGEYgrEoAh5DXYQ_0IySFrUGCtU1j38aGqyrAoISXHqZC07Ux1k43R4GeL8XgQF5R4KDWWh6mtSoYC0sDMWP1L03bzJijFbRfxhGbyRNYAHAth7czLI81OQeCZ0OFEBXZvh', 'width': 4928}]","place_id":"ChIJ0wMah-m9oy0RvpIPeouBYxg","rating":4.3,"types":"['lodging', 'point_of_interest', 'establishment']","user_ratings_total":10,"lat":-5.1008318,"lng":122.6109222},{"formatted_address":"Jl. Tangkalawa No. 13, Lakudo Buton Tengah, Wongko Lakudo, Baubau, Kabupaten Buton, Sulawesi Tenggara 93763, Indonesia","name":"Mulya Wisma","photos":null,"place_id":"ChIJi8_eVouFoy0Rz5Ue8XoTzSQ","rating":3.8,"types":"['lodging', 'point_of_interest', 'establishment']","user_ratings_total":4,"lat":-5.3189168,"lng":122.5313996},{"formatted_address":"88 Main St, Wasaga Beach, ON L9Z 2K9, Canada","name":"Saga Resort","photos":"[{'height': 2891, 'html_attributions': ['<a href=\"https:\/\/maps.google.com\/maps\/contrib\/109235094759793645655\">Hans Reijn<\/a>'], 'photo_reference': 'AUGGfZk9SAFb2HlQc4hq9-zIUq1PduTRTqtZA0sUDT2njKI6PRv5PJWYu3Ne_-YUoCpyHpsbhDI3JQNbyRncqWJhYzCkeem8MHmrc6JuLavvgQMkKlkwO8rygjMoh9z9OtVhFFBRxoS-G9Nxx3NCorVVpeTRyDMXIKqkTg4WZGiTV0zd9hQv', 'width': 4552}]","place_id":"ChIJo2jTF3mBKogRmvMvVcWNKnM","rating":4.3,"types":"['lodging', 'point_of_interest', 'establishment']","user_ratings_total":332,"lat":44.5223752,"lng":-80.0159817},{"formatted_address":"734 Shore Ln, Wasaga Beach, ON L9Z 2C7, Canada","name":"Bayfront Beach Resort","photos":"[{'height': 1080, 'html_attributions': ['<a href=\"https:\/\/maps.google.com\/maps\/contrib\/109080488369212351363\">Anna Szilv\u00e1si<\/a>'], 'photo_reference': 'AUGGfZlZh526L5QFsPFn1WBe44kfioEjB0hx56m5ln_yHHPEanxzf0esEZNOa3qXu6WUwBIP1VhrhmDKpZ_6poORFUQQq56Zc6dBaA75j8eune38djoJ4SVcHP-XASGmSuZGFUIWgCBCAi17ZdJmhwkUj8JpAvNUyzyVdo0lZHP9Sw94K-rr', 'width': 1920}]","place_id":"ChIJ_atfRyuHKogRXEKXDOZ-wuU","rating":4.4,"types":"['lodging', 'point_of_interest', 'establishment']","user_ratings_total":68,"lat":44.4915388,"lng":-80.0577188},{"formatted_address":"8743 Beachwood Rd, Wasaga Beach, ON L9Z 2G5, Canada","name":"Wasaga Motel Inn","photos":"[{'height': 3024, 'html_attributions': ['<a href=\"https:\/\/maps.google.com\/maps\/contrib\/118181753232643499832\">A Google User<\/a>'], 'photo_reference': 'AUGGfZklhx-UAo5DZQI8eYNdG6rmft4ECZdVyY6h5lCxFHVdF4TbgM_CMJeVVVWHH1C2ceQwSvBtK2C_48HJVQEG2LZlsC3LH9kCYWnvxrg81SLtkCVHtKv0n7mEdoFdNCLyLyubHl53hCuD0v0Zv3-F6IBF1DvTmwfZdq6Wd_nEfiMh3t0O', 'width': 4032}]","place_id":"ChIJDw2dx5l9KogRDN51LO7Je2A","rating":4.5,"types":"['lodging', 'point_of_interest', 'establishment']","user_ratings_total":321,"lat":44.4675173,"lng":-80.1167783},{"formatted_address":"159 Main St, Wasaga Beach, ON L9Z 2L3, Canada","name":"Wasaga Beach Inn And Cottages","photos":"[{'height': 1536, 'html_attributions': ['<a href=\"https:\/\/maps.google.com\/maps\/contrib\/100165878605778890197\">Loretta Steffler<\/a>'], 'photo_reference': 'AUGGfZlyPzPvOzt8el0xlmekqZkFnln7xmA5pxbrlZsIOcu3R2M4weO0WPKs1gUGRNtZnvxuJfQ81Zp3GFZv0GaidcDYMILvhAkKMGzhKEY2SDm-WJPSWtMWdyAB_jlGbaGQtPnIPGV4ZWlGTfSvvn4_hRD9p4DlzePr4W0nA_VBonsDXsOo', 'width': 2048}]","place_id":"ChIJ145QAn-BKogRx31s3FoLF90","rating":4.0,"types":"['lodging', 'point_of_interest', 'establishment']","user_ratings_total":137,"lat":44.5231535,"lng":-80.0125055},{"formatted_address":"130 Mosley St, Wasaga Beach, ON L9Z 2K1, Canada","name":"Beachfront at Wasaga Motel and Cottages","photos":"[{'height': 1836, 'html_attributions': ['<a href=\"https:\/\/maps.google.com\/maps\/contrib\/104798994759684111475\">A Google User<\/a>'], 'photo_reference': 'AUGGfZkllqSR1fNVoOi2BDgZFRXOoHgr3FlgL3YobP5he5p8v94_5DIO96-5SdVke_NyEeGozaTM_DbgnbjO1XsVYnRGnPNADjpf-1e7hGzT4h1nyvM6BK68BADEAbxXD8m_K2sxLqXkkgO8FP99K0wiZ4kdaj40H7N0QZgbi4GUeibK1YnL', 'width': 3264}]","place_id":"ChIJERVmOhcWK4gRC_HjhrReCEE","rating":3.0,"types":"['lodging', 'point_of_interest', 'establishment']","user_ratings_total":164,"lat":44.5200892,"lng":-80.0217925}]