[{"formatted_address":"Fagudu, Sanana, Kepulauan Sula Regency, North Maluku, Indonesia","name":"Beliga Hotel","photos":"[{'height': 2592, 'html_attributions': ['<a href=\"https:\/\/maps.google.com\/maps\/contrib\/114154522929631736086\">Annisa Shanda<\/a>'], 'photo_reference': 'AUGGfZktLSbS5GuBxadoMA9NwF50-a5qNdb1cN1cQYqKuMFIYQuhvNeuib60RkDF8t7uWUtHHeiZtcdCSKI4ZyocorUX4ywylCZbgIhIfbNrPQQ1eTkSXAl_XUC9qIthFgyGhhFu4s-0DjiGoibKWpmw2SM2tK8o45Bcs4gDKZpQmBJFx9FB', 'width': 4608}]","place_id":"ChIJJ3_6iXWscC0ROY4gpE-RM3s","rating":3.5,"types":"['lodging', 'point_of_interest', 'establishment']","user_ratings_total":103.0,"lat":-2.0556792,"lng":125.9769147},{"formatted_address":"WXVC+W33, Waibau, Sanana, Kepulauan Sula Regency, North Maluku, Indonesia","name":"Rizaldy","photos":null,"place_id":"ChIJ3w-P4pqrcC0RPz4m9fj9IZo","rating":0.0,"types":"['lodging', 'point_of_interest', 'establishment']","user_ratings_total":0.0,"lat":-2.0552444,"lng":125.9701986},{"formatted_address":"XXW8+6V5, Pohea, Sanana Utara, Kepulauan Sula Regency, North Maluku, Indonesia","name":"Rumahnya Baim","photos":null,"place_id":"ChIJyz9tT2arcC0R7Kkt1uXVwwA","rating":0.0,"types":"['lodging', 'point_of_interest', 'establishment']","user_ratings_total":0.0,"lat":-2.0051305,"lng":125.9674199},{"formatted_address":"WXVJ+V6J, Mangon, Sanana, Kepulauan Sula Regency, North Maluku, Indonesia","name":"Mangon","photos":null,"place_id":"ChIJ58YiwXyrcC0RWjX-Z8rvtBU","rating":0.0,"types":"['lodging', 'point_of_interest', 'establishment']","user_ratings_total":0.0,"lat":-2.0553091,"lng":125.9805316},{"formatted_address":"WXRJ+C3J, Fagudu, Sanana, Kepulauan Sula Regency, North Maluku, Indonesia","name":"Sarni","photos":null,"place_id":"ChIJwVhpf8CtcC0RAeCyNg23-QQ","rating":0.0,"types":"['lodging', 'point_of_interest', 'establishment']","user_ratings_total":0.0,"lat":-2.0588249,"lng":125.9800979},{"formatted_address":"XX2J+XCG, Mangon, Sanana, Kepulauan Sula Regency, North Maluku, Indonesia","name":"Spot Foto Kota Sanana Om Samid","photos":"[{'height': 3036, 'html_attributions': ['<a href=\"https:\/\/maps.google.com\/maps\/contrib\/115516582251182152132\">A Google User<\/a>'], 'photo_reference': 'AUGGfZkl4Ft1dGcn8_9cHHXADlFmJzdZub3lCf-6MjmxDlDzkuz0h_SOijj-a_CQcB8WErPk-eznxfrATiSNHO7xhss9MPmU41hyAnnQkX94_mgk4r8D-MOhWN_Ix5Kwmi__WJGQOxGW1k3N3Cctm_h5Tl0LXtDqdnf0gtcFzlCv4oz7xNPQ', 'width': 3264}]","place_id":"ChIJJZdoayarcC0RXchZ3pOvHzg","rating":0.0,"types":"['lodging', 'point_of_interest', 'establishment']","user_ratings_total":0.0,"lat":-2.0475537,"lng":125.9810729},{"formatted_address":"WX79+VR4, Wai Ipa, Sanana, Kepulauan Sula Regency, North Maluku, Indonesia","name":"Qit Hotel","photos":"[{'height': 3072, 'html_attributions': ['<a href=\"https:\/\/maps.google.com\/maps\/contrib\/100879324468773428483\">A Google User<\/a>'], 'photo_reference': 'AUGGfZlNXfisPAjBAte05ArtDd1jMyppH0sNm1y5gRsTXOFzDBZsjMzlHb6rFJucK-7cLp3ZrB_RWwtE_Hrb1Es_xVLul6BkXkuYi2bcTIolcQfidcUdKmYI1nTsIPMuwaiVG2qZNBGpRPKTlOgj6QF3sw7ekTxzA4uSplrQEzuA_O02BsTP', 'width': 4096}]","place_id":"ChIJ97-4d1KscC0R635VJRPs8Yg","rating":3.6,"types":"['lodging', 'point_of_interest', 'establishment']","user_ratings_total":22.0,"lat":-2.0853552,"lng":125.9695753},{"formatted_address":"WXVJ+R5X, Mangon, Sanana, Kepulauan Sula Regency, North Maluku, Indonesia","name":"Penginapan Desi","photos":"[{'height': 3120, 'html_attributions': ['<a href=\"https:\/\/maps.google.com\/maps\/contrib\/104310050107287479004\">A Google User<\/a>'], 'photo_reference': 'AUGGfZkrleumJYG2olXfdmUYscvv1MYvqUIV2wiqLk_pOUgkI0dAJ_35Wu0LiiurIbn9nhTWql71KvDblkcFyYd2OxhOtNxGxaisPM6bja-6DGOnbigmhS5FfAiSORZNj8nipaI6rYsygepACDKkjZOlTNj-uEH-NQzObV-W7MmnndI5Br8K', 'width': 4160}]","place_id":"ChIJe_cpq4qrcC0Rd1yrEIH2JuM","rating":3.9,"types":"['lodging', 'point_of_interest', 'establishment']","user_ratings_total":17.0,"lat":-2.0553963,"lng":125.9804798},{"formatted_address":"WXRJ+C32, Fagudu, Sanana, Kepulauan Sula Regency, North Maluku, Indonesia","name":"Penginapan Wakatobi 2","photos":"[{'height': 4128, 'html_attributions': ['<a href=\"https:\/\/maps.google.com\/maps\/contrib\/101918991449374977892\">harryfadly umamit<\/a>'], 'photo_reference': 'AUGGfZmup_W5ytexUvrBi3oyglxAvMpwKEMod12OzJP4dZoD7o9ClZ20g2Ziq-0npSUoznSy-53q-esbKxUdBp1EurmfiE4Ej19vX6SZbEuzSKOD57O0tB6m_-I-7utb6sbxY0RkTKSm3ZcmBVV3UWSVM7EUUnEduDPx314x77n-WZkHwg6b', 'width': 3096}]","place_id":"ChIJuZhssXSscC0RVYjcYK27a2Y","rating":4.0,"types":"['lodging', 'point_of_interest', 'establishment']","user_ratings_total":52.0,"lat":-2.0589914,"lng":125.9801681},{"formatted_address":"Jl. Jenderal Besar Soeharto No.0977, Fogi, Kec. Sanana, Kabupaten Kepulauan Sula, Maluku Utara 97795, Indonesia","name":"Kos","photos":null,"place_id":"ChIJw2QcxqetcC0R5sbFxfHLWBw","rating":0.0,"types":"['lodging', 'point_of_interest', 'establishment']","user_ratings_total":0.0,"lat":-2.0701916,"lng":125.9769932},{"formatted_address":"Jl. Soekarno Hatta No.172, Fatce, Kec. Sanana, Kabupaten Kepulauan Sula, Maluku Utara 97795, Indonesia","name":"CENTRO PARK RESIDENCE","photos":"[{'height': 3468, 'html_attributions': ['<a href=\"https:\/\/maps.google.com\/maps\/contrib\/106358422994950340810\">A Google User<\/a>'], 'photo_reference': 'AUGGfZkQtWG8D32EjKQxrFfypBwIYN1ZOmPnF4SJxH9v8E-XngWGCyr5afgv4nZEQ3k7n4-SPo-UlnD_d30JW5pVSTuaAZajKL5s13yOHQnIqBDyGh5DNZhPboskCU4OM1AqQsgeLOfhHaYd5N9YB6mn6S4Mn8dslqsEM-f3b3-9_YA5fMSb', 'width': 4624}]","place_id":"ChIJwYYFbLOtcC0RXWjG_av2VAU","rating":4.5,"types":"['lodging', 'point_of_interest', 'establishment']","user_ratings_total":15.0,"lat":-2.0671538,"lng":125.981584},{"formatted_address":"WXMJ+757, Jl. Jenderal Besar Soeharto, Fatce, Kec. Sanana, Kabupaten Kepulauan Sula, Maluku Utara, Indonesia","name":"KED. FANDI YOIS","photos":null,"place_id":"ChIJQ29N8uutcC0RT4uRLtxP-zY","rating":0.0,"types":"['lodging', 'point_of_interest', 'establishment']","user_ratings_total":0.0,"lat":-2.0668275,"lng":125.9803942},{"formatted_address":"WXHG+3FG, Unnamed Road, Fogi, Kec. Sanana, Kabupaten Kepulauan Sula, Maluku Utara, Indonesia","name":"Namrole Wamosisi","photos":null,"place_id":"ChIJTQeSpZmtcC0RtOv4aKaXJxg","rating":5.0,"types":"['lodging', 'point_of_interest', 'establishment']","user_ratings_total":1.0,"lat":-2.0723016,"lng":125.9762207},{"formatted_address":"WXWH+489, Mangon, Sanana, Kepulauan Sula Regency, North Maluku, Indonesia","name":"Penginapan Widy","photos":"[{'height': 4144, 'html_attributions': ['<a href=\"https:\/\/maps.google.com\/maps\/contrib\/102550504911322776848\">A Google User<\/a>'], 'photo_reference': 'AUGGfZnC1x3Lu4I9w9NdpG3KJl6Tq2GmoBcYcfLm58NjNgpRifx0TnsExgMtSl7gf3Nc1NhApT21AQ31rpecx0JJtU4lcYkoXxw4VoKBDDpvzwX1X52lLB9gyrKBrKNy1-GzOPXP_9FiP1OO113NPbMG0WOunDuCwL-5pHGSw3yV-UotEDec', 'width': 1968}]","place_id":"ChIJvdJmRLarcC0RWiyNDTFaTlw","rating":5.0,"types":"['lodging', 'point_of_interest', 'establishment']","user_ratings_total":2.0,"lat":-2.0547427,"lng":125.9783511},{"formatted_address":"WXMJ+758, Fatce, Sanana, Kepulauan Sula Regency, North Maluku, Indonesia","name":"FATIK JOEX","photos":null,"place_id":"ChIJnx7lCIKtcC0RcXHFwhWcMjU","rating":5.0,"types":"['lodging', 'point_of_interest', 'establishment']","user_ratings_total":1.0,"lat":-2.0668367,"lng":125.9803915},{"formatted_address":"2WCH+VP3, Fukweu, Sanana Utara, Kepulauan Sula Regency, North Maluku, Indonesia","name":"Pondok Cinta","photos":"[{'height': 2448, 'html_attributions': ['<a href=\"https:\/\/maps.google.com\/maps\/contrib\/102214871160232899720\">Nadezha Nadezha<\/a>'], 'photo_reference': 'AUGGfZlBLCCmb-s3dbB_EY1VO-5-zgut-cirx6hK-7gHk50indDs7QaDJ_nNYLPEz9TwTnTrcqtOFFCDhUvDl2xs6ySo-xjaqe9RrVmJQlolvSWxLOqnXqRyGAnnrsH03Oqbjp1X60L7rgWfNZ9BqyzjXZGIJzGK21a-Z7SDmL8o6k-0g2L6', 'width': 2448}]","place_id":"ChIJr1sQSRYAei0R7o8OIt42P6k","rating":4.6,"types":"['lodging', 'point_of_interest', 'establishment']","user_ratings_total":5.0,"lat":-1.9778629,"lng":125.9292864},{"formatted_address":"WXXQ+8F6, Jl. Trans Sula, Mangon, Kec. Sanana, Kabupaten Kepulauan Sula, Maluku Utara, Indonesia","name":"PENGINAPAN KURMI","photos":null,"place_id":"ChIJz8bym6ircC0REMqn9JwTXr4","rating":5.0,"types":"['lodging', 'point_of_interest', 'establishment']","user_ratings_total":1.0,"lat":-2.0517228,"lng":125.9886443},{"formatted_address":"WXRJ+C64 got ila, Kos kosan Basanohi, Fagudu, Kec. Sanana, Kabupaten Kepulauan Sula, Maluku Utara, Indonesia","name":"Kos kosan Basanohi","photos":"[{'height': 540, 'html_attributions': ['<a href=\"https:\/\/maps.google.com\/maps\/contrib\/109921909735558442759\">A Google User<\/a>'], 'photo_reference': 'AUGGfZl-150M_25qKi6HsKe9Y0rnxFRUrA4i0_84Xfz5JEPCJ4yNWEYmMJLPfaovnFCnwvIhmcjvqlJrOmEVTveso67lPiBw55WfEBgV9Fm6t542d9MoUph4fUpqk7o3Z03Dh7kaSMZNe65jFxrRTUYKmCk8Nz5dMvngpV0aYgzFsIJoBGRn', 'width': 720}]","place_id":"ChIJ6UC2rQWtcC0R2MXYf2MEda0","rating":3.0,"types":"['lodging', 'point_of_interest', 'establishment']","user_ratings_total":4.0,"lat":-2.0592605,"lng":125.9806447},{"formatted_address":"WWVX+VM5, Fogi, Sanana, Kepulauan Sula Regency, North Maluku, Indonesia","name":"Fogi","photos":null,"place_id":"ChIJP2DWOACrcC0R2P0e1eOpS7Y","rating":5.0,"types":"['lodging', 'point_of_interest', 'establishment']","user_ratings_total":1.0,"lat":-2.0553643,"lng":125.9492482},{"formatted_address":"Wai Hama, Sanana, Kepulauan Sula Regency, North Maluku 97795, Indonesia","name":"Oemah Kos Molly","photos":"[{'height': 4000, 'html_attributions': ['<a href=\"https:\/\/maps.google.com\/maps\/contrib\/111552775380715855089\">A Google User<\/a>'], 'photo_reference': 'AUGGfZlWiIvND5L1cfEiE8kR-HFBdF_JGBPuH5Khu_snyo2hlXsMUvKUJJNy6W04lAxFmVoHUbljo1GAi5R8P124Sp9SZmS56_CJTxU8I4uiA2mKc3hSiNNrN3r8S0JCWEwgNbtm9nGcHfdCJL1JoAXRCHpDKZDpsTksvTjO3iz29UkfPTV5', 'width': 3000}]","place_id":"ChIJe3YSRgCtcC0Rd2zO65Kl-9w","rating":5.0,"types":"['lodging', 'point_of_interest', 'establishment']","user_ratings_total":1.0,"lat":-2.073154,"lng":125.9723879},{"formatted_address":"WXMJ+4PQ, Fatce, Sanana, Kepulauan Sula Regency, North Maluku, Indonesia","name":"Penginapan Yuki Ona","photos":"[{'height': 3456, 'html_attributions': ['<a href=\"https:\/\/maps.google.com\/maps\/contrib\/102280556290454656846\">Amat Sheva<\/a>'], 'photo_reference': 'AUGGfZm4CPAlk6VHGWYL3Zkmm_kNyjzq4zYmsfY7uxBpdpmoeg63ecIrVX4r8R_41xHZyBQ4gSygKX6JGHfK46qe8tO6P2m39loCeHH7tVKkVf0SH_ryjWJQB8ATPnoojGHQXsiMg9ReJzXRyTxWdCzOoZ-rYd45Bp3qXi0rK4GtlGvd7VM8', 'width': 4608}]","place_id":"ChIJh4BwXROscC0RrYgZm-DA8rg","rating":4.1,"types":"['lodging', 'point_of_interest', 'establishment']","user_ratings_total":57.0,"lat":-2.0671252,"lng":125.9817954},{"formatted_address":"XXV8+PQM, Pohea, Sanana Utara, Kepulauan Sula Regency, North Maluku, Indonesia","name":"Rumah","photos":null,"place_id":"ChIJizyHPZGrcC0R_3u5xqjKjCQ","rating":0.0,"types":"['lodging', 'point_of_interest', 'establishment']","user_ratings_total":0.0,"lat":-2.0066631,"lng":125.9676906},{"formatted_address":"XXR6+CM, Pohea, Sanana Utara, Kepulauan Sula Regency, North Maluku, Indonesia","name":"Ratiiii","photos":null,"place_id":"ChIJm1kJauurcC0R0J43saFz7s8","rating":0.0,"types":"['lodging', 'point_of_interest', 'establishment']","user_ratings_total":0.0,"lat":-2.008951,"lng":125.9617113},{"formatted_address":"WXVJ+3CR, Fagudu, Sanana, Kepulauan Sula Regency, North Maluku, Indonesia","name":"Dermaga Kecil Sanana","photos":"[{'height': 1200, 'html_attributions': ['<a href=\"https:\/\/maps.google.com\/maps\/contrib\/112855107810323209485\">Anis Tandean<\/a>'], 'photo_reference': 'AUGGfZlxbQP8aOkovZs70OIEQtk4bqciXGByNcMF5M0Va1ha_MDAZQwVOWXHtRvIACx8ZV9fqJrmpVxGHNsOPPyLUcNjTlvLIvO8u0nfK8ZdszZUiBxcHHvPtNf2Ur_TYuY0Il7QJAMW3CPySHhT-ypRpKPlBF5LQnF3Np-d96SDZ--n3ZiB', 'width': 1600}]","place_id":"ChIJdXUl1wqscC0R4tVoigfdMq8","rating":5.0,"types":"['lodging', 'point_of_interest', 'establishment']","user_ratings_total":5.0,"lat":-2.0572731,"lng":125.9809957},{"formatted_address":"XXX8+299, Jl. Desa Pohea, Pohea, Kec. Sanana Utara, Kabupaten Kepulauan Sula, Maluku Utara, Indonesia","name":"House Mr. Tasman, S.hut.","photos":"[{'height': 4064, 'html_attributions': ['<a href=\"https:\/\/maps.google.com\/maps\/contrib\/108684801427098516613\">A Google User<\/a>'], 'photo_reference': 'AUGGfZkjPj_ICdDORY7mkFIdr7DNVrElCjSs8Fyk2jFPpAh817OF87N5iKcQp9P3PocqKA7mWO6yLH-_SigV56xOYLsodHS4xHNqH-FMBQjqcLFK4jFPrmodJcfJLX87-DdxBODXvOiJIEHoJX3NQ2h7suPlujhW3ujcFTw4Tm-sNee5AGha', 'width': 3048}]","place_id":"ChIJA81Q4purcC0RpaPQJlfZn4s","rating":5.0,"types":"['lodging', 'point_of_interest', 'establishment']","user_ratings_total":3.0,"lat":-2.0024596,"lng":125.9659743},{"formatted_address":"WXWP+M93, Mangon, Sanana, Kepulauan Sula Regency, North Maluku, Indonesia","name":"SITI HAJAR","photos":null,"place_id":"ChIJvWiVbgyrcC0RsLGiXpzTQiM","rating":0.0,"types":"['lodging', 'point_of_interest', 'establishment']","user_ratings_total":0.0,"lat":-2.0533633,"lng":125.985915},{"formatted_address":"WXRJ+78P, jl.Got-Ila, Fagudu, Kec. Sanana, Kabupaten Kepulauan Sula, Maluku Utara, Indonesia","name":"Penginapan Agung Jaya","photos":"[{'height': 720, 'html_attributions': ['<a href=\"https:\/\/maps.google.com\/maps\/contrib\/102707266689564281961\">Fakhry Burhanuddin<\/a>'], 'photo_reference': 'AUGGfZkjS2-RN67ZTujkc74Y2BLa3pm0JvOzz2I9rFMd5mF5VL3YxucavbRi7mOrzqDZzEG25kwvSHDetlsZVGSk2TWwWZPzwPbxlmJdi_2m_VR-OJ8oFe5V-laZC5aNtwP26L1BSML-nKOeBJaAlWOpvdK188eZje_IYSq509U6oot___dM', 'width': 1280}]","place_id":"ChIJKeTNyfKtcC0RtQkezkdV2T0","rating":4.0,"types":"['lodging', 'point_of_interest', 'establishment']","user_ratings_total":4.0,"lat":-2.0593042,"lng":125.9808351},{"formatted_address":"WXQH+X49, Jl. Al-Khairaat, Fagudu, Kec. Sanana, Kabupaten Kepulauan Sula, Maluku Utara, Indonesia","name":"Guspitari indah","photos":"[{'height': 3264, 'html_attributions': ['<a href=\"https:\/\/maps.google.com\/maps\/contrib\/115301962063441294002\">A Google User<\/a>'], 'photo_reference': 'AUGGfZmfKiKIMDWFX1kFmljGS4J5pHdruEEITOEil8hHxSzAioPg1tSS1YOVJ66wwP3JBGJGhshlgsyOJ_LzPZKLLMAkj5kuFI5ZKt5-lDAJOIQ1leaB2SL5tfsbYBXKx72eyj2rv0gbBMuoxkbyyAhYQtPeCYDPsKxIoG7WiqAakDElJQma', 'width': 2448}]","place_id":"ChIJ63M4ujytcC0RX1G7Izbm5_c","rating":0.0,"types":"['lodging', 'point_of_interest', 'establishment']","user_ratings_total":0.0,"lat":-2.0603388,"lng":125.9782789},{"formatted_address":"WXRJ+949, Jl. Trans Sula, Fagudu, Kec. Sanana, Kabupaten Kepulauan Sula, Maluku Utara, Indonesia","name":"Penginapan Wakatobi 3","photos":"[{'height': 2448, 'html_attributions': ['<a href=\"https:\/\/maps.google.com\/maps\/contrib\/113788011529302182512\">A Google User<\/a>'], 'photo_reference': 'AUGGfZmQpWolB2vWcCG_2iWeWl3G34WdcwI-eHmojhh1qyWPYBmHWVVAgb20dTVD8nop8SSDFKO0lb3PCRBZJXpyDFqCEZ6GF0oo3M4i-ZrtkDkeqNOMgPmL2YUvt6NO2Lt_bHtz09GsLQ-qS4m4xW__R9HJ3NTEMtp1HzAHTRjsStKHtyz9', 'width': 3264}]","place_id":"ChIJ4yDJAEWtcC0RSZSCWPvO-Ok","rating":4.7,"types":"['lodging', 'point_of_interest', 'establishment']","user_ratings_total":6.0,"lat":-2.0590952,"lng":125.9803469},{"formatted_address":"WXWP+RHH, Mangon, Sanana, Kepulauan Sula Regency, North Maluku, Indonesia","name":"MALA FAUJI","photos":null,"place_id":"ChIJg-RPF3KrcC0RWX2yj-EMcxU","rating":0.0,"types":"['lodging', 'point_of_interest', 'establishment']","user_ratings_total":0.0,"lat":-2.0529406,"lng":125.986499},{"formatted_address":"WXQG+XJC, Jl. Al-Khairaat, Fagudu, Kec. Sanana, Kabupaten Kepulauan Sula, Maluku Utara, Indonesia","name":"Megaqueen","photos":null,"place_id":"ChIJQWIrkg6tcC0RHRiRNny_NlQ","rating":0.0,"types":"['lodging', 'point_of_interest', 'establishment']","user_ratings_total":0.0,"lat":-2.0600722,"lng":125.9765235},{"formatted_address":"XX4F+MV5, Samping Puskesmas, Mangon, Kec. Sanana, Kabupaten Kepulauan Sula, Maluku Utara, Indonesia","name":"Kiky Kamarullah Kost","photos":null,"place_id":"ChIJFW9hX4mrcC0RcdqRImvpnXY","rating":5.0,"types":"['lodging', 'point_of_interest', 'establishment']","user_ratings_total":1.0,"lat":-2.043359,"lng":125.9747298},{"formatted_address":"Jl. Dr.Sibarani, Falahu, Kec. Sanana, Kabupaten Kepulauan Sula, Maluku Utara, Indonesia","name":"Kosan Pink","photos":"[{'height': 1280, 'html_attributions': ['<a href=\"https:\/\/maps.google.com\/maps\/contrib\/104690021926112957095\">A Google User<\/a>'], 'photo_reference': 'AUGGfZkzdbRhOnSdhUNsfPe4FYDjdAf283Rp8XDgOilsuY6Yr4nw_7aattcRcLBbu8tBzs1DL5DBexfOE1TwfQRw9exo7fC86NFbVxrFcAAffy8HOILP2qk8TOxBNLDHt-IlZvngmsgctzia7_eqPaW2KBcesztHEKKKlUIAofaXK1nWm8nW', 'width': 960}]","place_id":"ChIJp8f_NyutcC0Rmfb4FSp_Ibo","rating":0.0,"types":"['lodging', 'point_of_interest', 'establishment']","user_ratings_total":0.0,"lat":-2.0633702,"lng":125.9765788},{"formatted_address":"XX8Q+FPR, MAN Gega, Sanana Utara, Kepulauan Sula Regency, North Maluku, Indonesia","name":"KOSAN OZIL","photos":null,"place_id":"ChIJhdnrzACrcC0R7wgb-RVKr2g","rating":5.0,"types":"['lodging', 'point_of_interest', 'establishment']","user_ratings_total":1.0,"lat":-2.032699,"lng":125.9888375},{"formatted_address":"XXR7+P9J, Pohea, Sanana Utara, Kepulauan Sula Regency, North Maluku, Indonesia","name":"Fatma Lehak","photos":null,"place_id":"ChIJ16IsQ-WrcC0RGdsfF3oewZY","rating":0.0,"types":"['lodging', 'point_of_interest', 'establishment']","user_ratings_total":0.0,"lat":-2.0081453,"lng":125.9633939},{"formatted_address":"XXPH+H28, Jl. Desa Pohea, Pohea, Kec. Sanana Utara, Kabupaten Kepulauan Sula, Maluku Utara, Indonesia","name":"GAJEBO ABIL","photos":null,"place_id":"ChIJD8GCeM-rcC0RMnePSvAZpk4","rating":3.0,"types":"['lodging', 'point_of_interest', 'establishment']","user_ratings_total":1.0,"lat":-2.0135742,"lng":125.9775878},{"formatted_address":"XXX8+59, Pohea, Sanana Utara, Kepulauan Sula Regency, North Maluku, Indonesia","name":"Rumah Bpk Nasaruddin","photos":null,"place_id":"ChIJhy5N6uqrcC0R5bi-QxD0XAk","rating":0.0,"types":"['lodging', 'point_of_interest', 'establishment']","user_ratings_total":0.0,"lat":-2.002108,"lng":125.9659062},{"formatted_address":"WXVC+W2X, Waibau, Sanana, Kepulauan Sula Regency, North Maluku, Indonesia","name":"TEMPAT SANTAI CONEMAT","photos":null,"place_id":"ChIJt7ugrsmrcC0RKx4lE90NqWY","rating":0.0,"types":"['lodging', 'point_of_interest', 'establishment']","user_ratings_total":0.0,"lat":-2.055131,"lng":125.9700937},{"formatted_address":"WXPM+Q4W, Fatce, Sanana, Kepulauan Sula Regency, North Maluku, Indonesia","name":"Penginapan Sulawesi","photos":"[{'height': 1040, 'html_attributions': ['<a href=\"https:\/\/maps.google.com\/maps\/contrib\/111895196562066587243\">A Google User<\/a>'], 'photo_reference': 'AUGGfZm8sfr7JXLhl_9FRF0PYuqoxKbvV3l0aKAEQAu-P6hYRaI_O7_MGjRO9Pk7PNTUBZzFBIJ8uZH2vZAvNr-8XlCOv4XWD60SV95jb2V83gpqGmb8THsKZO0JhWeA96pOf2S1JPuil5Sv367XwF7BkCRpNTvT4IHEPZBpQ3zyGzck-VK2', 'width': 780}]","place_id":"ChIJb5t1eg2scC0RLCScKzqmj6Y","rating":4.2,"types":"['lodging', 'point_of_interest', 'establishment']","user_ratings_total":24.0,"lat":-2.0630328,"lng":125.9828773},{"formatted_address":"WXWH+R74, Mangon, Sanana, Kepulauan Sula Regency, North Maluku, Indonesia","name":"Nayumi Kost","photos":null,"place_id":"ChIJ2Tmrkc-rcC0R9Flwq7O9VWs","rating":0.0,"types":"['lodging', 'point_of_interest', 'establishment']","user_ratings_total":0.0,"lat":-2.0529834,"lng":125.9782035},{"formatted_address":"WXW9+GW8, Unnamed Road, Waibau, Kec. Sanana, Kabupaten Kepulauan Sula, Maluku Utara, Indonesia","name":"Andi taky","photos":null,"place_id":"ChIJwVbu9eyrcC0RYakZPTGUdXI","rating":0.0,"types":"['lodging', 'point_of_interest', 'establishment']","user_ratings_total":0.0,"lat":-2.0537289,"lng":125.9698294},{"formatted_address":"WXVC+W43, Waibau, Sanana, Kepulauan Sula Regency, North Maluku, Indonesia","name":"KAMARUDIN LUMBESSY","photos":null,"place_id":"ChIJNxkOqlarcC0R9fErnu9Az9I","rating":0.0,"types":"['lodging', 'point_of_interest', 'establishment']","user_ratings_total":0.0,"lat":-2.055236,"lng":125.9702807},{"formatted_address":"WXWH+XJX, Mangon, Sanana, Kepulauan Sula Regency, North Maluku, Indonesia","name":"Caca Ain Silia","photos":null,"place_id":"ChIJkaonL5arcC0RTKMsNrbmtEk","rating":0.0,"types":"['lodging', 'point_of_interest', 'establishment']","user_ratings_total":0.0,"lat":-2.0524804,"lng":125.9791664},{"formatted_address":"VX54+RVV, Wailau, Sanana, Kepulauan Sula Regency, North Maluku, Indonesia","name":"Rumah rumbawa","photos":null,"place_id":"ChIJWzlkFwCzcC0Rfnd3UWdWo2E","rating":0.0,"types":"['restaurant', 'food', 'point_of_interest', 'establishment']","user_ratings_total":0.0,"lat":-2.1411517,"lng":125.9573706},{"formatted_address":"394J+8JF, Bobong, Taliabu Barat, Taliabu Island Regency, North Maluku, Indonesia","name":"Penginapan syam","photos":"[{'height': 1530, 'html_attributions': ['<a href=\"https:\/\/maps.google.com\/maps\/contrib\/103401627154645750838\">A Google User<\/a>'], 'photo_reference': 'AUGGfZl84BBxvTzNPNLlBYXeeDBhR-yxy0Zx8d5bihd8WJBJYFoMmMtpAvp1iQ8InG6wdew27av67CNFHFjU4G2AzNCS2ebV9hp_gFK8XDtvR4R5xsdqYNIGkEpgW66btgEhmBZylzFVyjENbsz-kOrdBkE3or5mzVjwIibslFnYI_68cy3z', 'width': 2040}]","place_id":"ChIJN4uBxpyvgi0RGhomCWxUAyo","rating":3.8,"types":"['lodging', 'point_of_interest', 'establishment']","user_ratings_total":4.0,"lat":-1.9441753,"lng":124.381543},{"formatted_address":"393M+R36, Jln Kapten Naiman, Bobong, Taliabu Barat, Taliabu Island Regency, North Maluku, Indonesia","name":"Penginapan Ni'mat Mulia","photos":"[{'height': 2448, 'html_attributions': ['<a href=\"https:\/\/maps.google.com\/maps\/contrib\/111439083635905051647\">Rengga Purnomo<\/a>'], 'photo_reference': 'AUGGfZmrjK1hXrcbpDVBO1Wc5mqc-jZk0jChnq2_3X1DCoTVe4tX2nucQJDvyjnWYWFsTd1vL8pJ7o9OqiZn8ECtfchwm4gwx3DNo2suLudnaN0-FUegOCdqn1FB6zkUiZe8W5EbtN7yJuRA3_03Pwa43aCxT1WJ3DLAA9d2L-Yda9DKNga7', 'width': 3264}]","place_id":"ChIJaWuJCJavgi0RU5w86-piUzQ","rating":4.6,"types":"['lodging', 'point_of_interest', 'establishment']","user_ratings_total":16.0,"lat":-1.9454504,"lng":124.3826295},{"formatted_address":"Fangahu, Pulau Taliabu, Maluku Utara 97794, Indonesia","name":"Penginapan SELTA","photos":"[{'height': 3000, 'html_attributions': ['<a href=\"https:\/\/maps.google.com\/maps\/contrib\/118293006866076283708\">A Google User<\/a>'], 'photo_reference': 'AUGGfZlAbYSbbabTt47NFnOcXL6LVaQZ6G0pMzCMqI0JrXJYk7WHOjEi3IU8qK_cbXaN5QFltQ-aAFQlxu9RMvi87OCwptfD09cT8aJWVeGA41FON3kA_l3K0MjPsOLhs066g--Z93yhq0LU4szMljS5FHPdHRPyt4Dvp5DiFzZ-94jfSsuh', 'width': 4000}]","place_id":"ChIJaWy_Pqivgi0R4G8LmXw_EwE","rating":4.7,"types":"['lodging', 'point_of_interest', 'establishment']","user_ratings_total":7.0,"lat":-1.9401422,"lng":124.3782349},{"formatted_address":"394M+HMC, Bobong, Taliabu Barat, Kabupaten Kepulauan Sula, North Maluku, Indonesia","name":"Penginapan Grand House Bobong","photos":"[{'height': 4248, 'html_attributions': ['<a href=\"https:\/\/maps.google.com\/maps\/contrib\/111105505190352704102\">M.rafly Dwitama<\/a>'], 'photo_reference': 'AUGGfZk-Q8amnLVtexfcl9gvqI3hHuwzQwLy0x1fBiFhwjhQFg85RvueMMwwV15GVmEkk4hogM8HEMcdMo1w0cn0qu8dlA3okZVYv_n9rwUd4phM58ryeNm1mGiyUFAiexA4XsIwexcnlJIAw60g-9wlmcONuIyd-mAJTLI-0TGAySMeqPQh', 'width': 5664}]","place_id":"ChIJZzb18WKvgi0RUDEjSRlcjvM","rating":4.4,"types":"['lodging', 'point_of_interest', 'establishment']","user_ratings_total":34.0,"lat":-1.9435712,"lng":124.3841539},{"formatted_address":"5Q4W+XFV, Pencado, Taliabu Selatan, Kabupaten Kepulauan Sula, North Maluku, Indonesia","name":"Andini mutmainnah Hotel","photos":"[{'height': 4000, 'html_attributions': ['<a href=\"https:\/\/maps.google.com\/maps\/contrib\/112826408262821861233\">A Google User<\/a>'], 'photo_reference': 'AUGGfZn-jqxHM0FWVYw1tORhr1mhhwHvwbn06eZ6tqj7xVRRXbsNRnGmQdrm-xTaJGJ5eskmsAO4Z3HgYC2QATHuMqHS4uBITytqen94nmlRXk7JKGSt9sbiULeECGAEmLZ5fhO9S0JcKCsqoS2k51BRhjNO44dX7MkWMoOCEaO56SD8vVX2', 'width': 3000}]","place_id":"ChIJdaHaQ1AXeC0RQVHLfVQ8xg8","rating":0.0,"types":"['lodging', 'point_of_interest', 'establishment']","user_ratings_total":0.0,"lat":-1.8425161,"lng":124.7961722},{"formatted_address":"392M+MM, Bobong, Taliabu Barat, Kabupaten Kepulauan Sula, North Maluku, Indonesia","name":"Penginapan al fatah 2","photos":"[{'height': 3264, 'html_attributions': ['<a href=\"https:\/\/maps.google.com\/maps\/contrib\/106721706560292772829\">sayful akbar<\/a>'], 'photo_reference': 'AUGGfZnkQZexWoUyukAoiVTKQjPEeohTnGzF44vUHMgg2e3smewSL_-o4Rt6lWJHByVD28GXPP_eafQpynNEbJV-wRGSQFLQqfX-zip-csSEgfu-8OHSIqbZNl8xCJ2CyaovEthl3OkYVBFqjevgMosZKM1wZ37qvy5nBnMJcczvHbS1KkgY', 'width': 2448}]","place_id":"ChIJx-irB_Cvgi0R2B0Tv2ej0bY","rating":5.0,"types":"['lodging', 'point_of_interest', 'establishment']","user_ratings_total":3.0,"lat":-1.9482764,"lng":124.3841289},{"formatted_address":"Wayo, Taliabu Barat, Kabupaten Kepulauan Sula, North Maluku, Indonesia","name":"Peginapan ILvamal","photos":"[{'height': 806, 'html_attributions': ['<a href=\"https:\/\/maps.google.com\/maps\/contrib\/109955364515634087096\">A Google User<\/a>'], 'photo_reference': 'AUGGfZnnYg8yV-eNAEF5mVSn-Xf-okt0DIg6DZteoe1-VBC0DGYnay3iSG6bLq29JnWI1DtY_Vp1_pBk8jidcFmI-fBK3yVgTfS-H5PPobMBYSZ0ftumF606Js7SGJFB452S3izIZ-i5RHdpER5R1K1bGgX7B0CpovbIzmlaV1G8AaNJsrYT', 'width': 1097}]","place_id":"ChIJteZcBXGvgi0Roc5lptN6oOA","rating":4.7,"types":"['lodging', 'point_of_interest', 'establishment']","user_ratings_total":14.0,"lat":-1.9419843,"lng":124.3817615},{"formatted_address":"2MHR+VQ, Bapenu, Taliabu Selatan, Kabupaten Kepulauan Sula, North Maluku, Indonesia","name":"Rizal Buaya Jantan","photos":null,"place_id":"ChIJb9QfP1AdeC0Rhen3k-g84js","rating":0.0,"types":"['lodging', 'point_of_interest', 'establishment']","user_ratings_total":0.0,"lat":-1.9703483,"lng":124.691975},{"formatted_address":"63RX+5C7, Tubang, Taliabu Timur, Kepulauan Sula Regency, North Maluku, Indonesia","name":"Sweet Home","photos":null,"place_id":"ChIJBwzWdpo3eC0RIzEzEbdImu8","rating":0.0,"types":"['lodging', 'point_of_interest', 'establishment']","user_ratings_total":0.0,"lat":-1.7595752,"lng":125.0985368},{"formatted_address":"29XM+PJ3 Dekat Pelabuhan Bobong, Wayo, Kec. Taliabu Bar., Pulau Taliabu, Maluku Utara 97974, Indonesia","name":"Penginapan samalito","photos":"[{'height': 2048, 'html_attributions': ['<a href=\"https:\/\/maps.google.com\/maps\/contrib\/106724538226631375068\">Wiliant Tj<\/a>'], 'photo_reference': 'AUGGfZncnToTpYf1WHfyT6O2Tw7ZUBeTj2Ma6pdLpTPYWg506ggtsCqVnlkljA-yeCFTv7Ko-h0m52uJGn2ssx10Vrhk-B9OixkFow8X8Ot9Fwk5CyhS_Cwl_1QpFghORW-EgCzRLQodU3_pePBozDNl6G6aSZ6jksCTGmTaDMaC0_s15c0-', 'width': 1536}]","place_id":"ChIJE5I7IXuvgi0R7zFaDtB6khI","rating":3.5,"types":"['lodging', 'point_of_interest', 'establishment']","user_ratings_total":6.0,"lat":-1.9507439,"lng":124.3840472}]