formatted_address,name,photos,place_id,rating,types,user_ratings_total,lat,lng
"4X8P+H75 Huta janji, Jambur Nauli, pagarsinondi, Kabupaten Tapanuli Utara, Sumatera Utara 22474, Indonesia",Bagas Nature,"[{'height': 1080, 'html_attributions': ['<a href=""https://maps.google.com/maps/contrib/109788860257886809851"">A Google User</a>'], 'photo_reference': 'AUGGfZmiVzbKNoUUKOl7SH5Vpy1wCa0g-jvW6vYIP2IitEZI7dxXIJB3eGJmjnt61GwQtW83rie06-goIV1h_2tAYVEtzf1r91PK6pBFdT-6ExO9R4c3ol2ecSSrjmlieIf1XZ3JTL8TPIWRLBQFih8j9HrN9Lh_5u71hYzp9aUuKq5wSCOe', 'width': 1920}]",ChIJOavvPvttLjARYubtDsiOLqs,0.0,"['lodging', 'point_of_interest', 'establishment']",0,2.1164009,98.9856564
"8VVM+FR4, Pulau Sumatera, Kabupaten Tapanuli Utara, Sumatera Utara 22476, Indonesia",Humisar resort,"[{'height': 4160, 'html_attributions': ['<a href=""https://maps.google.com/maps/contrib/113100751643926946810"">Paulus Aritra</a>'], 'photo_reference': 'AUGGfZkrxsV_8JuQJ5Y6jgaVWonxdm0fKZuNWFyoRYr2yArqEcrTYrI79A2Wv_f-q4pfjpB7MldYw5Z4SiZRpaY14t90tC6Brwi-AH4od_SmIX2uyQjKMRn6RNxOFeufA8y8UythNTiT7sz-g0ekvQrhDCixljdZS33CPbLAQHXrWfe9Ih0b', 'width': 3120}]",ChIJAbjEbtYZLjARXavl2dwVyYg,5.0,"['lodging', 'point_of_interest', 'establishment']",5,2.3436043,98.8845642
"X4GH+3CJ, Godung Borotan, Pangaribuan, North Tapanuli Regency, North Sumatra 22472, Indonesia",Op. Humasan Gultom,,ChIJNSdfUdV3LjARTqfWw31UePY,5.0,"['lodging', 'point_of_interest', 'establishment']",2,1.9744728,99.1278474
"8XJ9+GR8, Sitanggor, Muara, North Tapanuli Regency, North Sumatra 22476, Indonesia",Sitanggor Resort,"[{'height': 4160, 'html_attributions': ['<a href=""https://maps.google.com/maps/contrib/116896650084606932933"">A Google User</a>'], 'photo_reference': 'AUGGfZndCNP3_0xdD_AGL5rdz7tmfGDncTKAf0VACB2Od4qKjcwPu5V9yC4B18eDqzkhnjI-sF7Wl_NSkGnWLfLrPWsC5EHlOcPw4Y59NeyyOq4it5EvkFVfXjOjKUZ10TABKwynlfTvHLxQmch1lOR_O_hxN9RXaGTL_gx_p7DazFTy9lNV', 'width': 3120}]",ChIJu9PXlgobLjAR8P0u8NE46YM,4.0,"['lodging', 'point_of_interest', 'establishment']",9,2.331279,98.9695658
"X4FF+9V5, Godung Borotan, Pangaribuan, North Tapanuli Regency, North Sumatra 22472, Indonesia",Kampungku Parlombuan,,ChIJzz1qPUp3LjARD-xFZlO6SDQ,5.0,"['lodging', 'point_of_interest', 'establishment']",2,1.9733903,99.12473229999999
"Jalan raya lintas sipahutar pangaribuan, desa, Aek Nauli IV, Kec. Sipahutar, Kabupaten Tapanuli Utara, Sumatera Utara 22471, Indonesia",Hotel Pondok Daun - Onan Tukka,"[{'height': 468, 'html_attributions': ['<a href=""https://maps.google.com/maps/contrib/100623747593379394143"">A Google User</a>'], 'photo_reference': 'AUGGfZk8mt7GT-aV2DwEKUjezmq8jFfKdDFY9Cp_wBUqeLm2tjALHN03aQG8qv0Of7jRabdLIBBT_6pQGdm_H54r_oZ4EGU7xxAN-eBqSCasY-AP9FnleYd2MfWYTljER1eOgypBd4TS-E7LgRNKD4eocbmuVGUAwEQIVKLYbaiGC5kh3EpI', 'width': 1040}]",ChIJbV6oCzR3LjARVcWCbPob4hs,4.5,"['lodging', 'point_of_interest', 'establishment']",2,2.0256363,99.11938579999999
"6W9H+6PG, Lumban Ina Ina, Pagaran, North Tapanuli Regency, North Sumatra 22475, Indonesia",Op.Devi House bru lubis,"[{'height': 1836, 'html_attributions': ['<a href=""https://maps.google.com/maps/contrib/103055444917545735965"">A Google User</a>'], 'photo_reference': 'AUGGfZnANecW1VisgWH2B53cCtYkWynXCuJaXzXyXY815BUiNf6fUTE86K0FO9X4DRci_EfEE-Ukhaa7nWtbwW5bKDDdPWrS-8Ljp7dLP1n9vj--6lfpcHbiGUFkSA_jOFTAvNeeBe06BM83pICSe0ZV35IHbKS_P3oHfgdqWV0EbuBE6q-L', 'width': 3264}]",ChIJ9dkzmyERLjAR5Cch2jD3v9g,0.0,"['lodging', 'point_of_interest', 'establishment']",0,2.218061,98.92935229999999
"6V58+C4J, Lumban Sitogu, Kec. Pagaran, Kabupaten Tapanuli Utara, Sumatera Utara 22475, Indonesia",MARXALL RESORT,,ChIJtz_IjpYXLjARkWDHPsQlw5Q,3.0,"['lodging', 'point_of_interest', 'establishment']",1,2.2085789,98.86527319999999
"8WJF+P7R, Simatupang, Muara, North Tapanuli Regency, North Sumatra 22476, Indonesia",Simatupang,,ChIJAZ-YNwAZLjARJZa0XyVDLTk,0.0,"['lodging', 'point_of_interest', 'establishment']",0,2.3318513,98.9231545
"Cafe A, Jl. Jct. Simorangkir, Si Raja Hutagalung, Kecamatan Simorangkir, Kabupaten Tapanuli Utara, Sumatera Utara 22416, Indonesia",OYO 91562 Hotel & Cafe Angkasa Golat,"[{'height': 3000, 'html_attributions': ['<a href=""https://maps.google.com/maps/contrib/109554163721834487526"">Yui san</a>'], 'photo_reference': 'AUGGfZmdxAvFxuNSCL3WV95jS-t9MyakD8dXM5p6raMClMezxOU5Bd7MmsAQfXgfjDIrvTKVJSBU6WcjgEC8CBNI8GfQoQPHd8mwBWj_pM-q5cCynNbBbImIV6DEF9q2C8_Kamg776RbD8mZSX4Tm9WS78t1RAKFQBEXIfIh4gCYQ_nNhJEu', 'width': 4000}]",ChIJY9BEdm1vLjAR1nlQWyVnXXo,3.8,"['lodging', 'point_of_interest', 'establishment']",4,2.0150494,98.9966611
"628M+6X9, Lobu Siregar I, Siborongborong, North Tapanuli Regency, North Sumatra 22474, Indonesia",Parsaoran inn,"[{'height': 2448, 'html_attributions': ['<a href=""https://maps.google.com/maps/contrib/112740562221592067442"">yunus siregar</a>'], 'photo_reference': 'AUGGfZljC2kidtEtusHDUK4XX7fTAbdx5wJz6RH6KZO9pC89IQWyT7q5XXHrVdpfww9ogGrIM60vA6rcfOXPKiyy7gwjQc5uma9AmAT8G3rTt3JQCn43wTP9wBpnCaPx8jHiJ-k2MGd4sG0XpRIbmWoF6p_Iq6LFZPEDXb0CrB3SIT5iKWQD', 'width': 3264}]",ChIJq6qqqmoOLjARqPSKAWCKTxk,5.0,"['lodging', 'point_of_interest', 'establishment']",3,2.2155425,99.03499769999999
"245J+MVW, Sibingke, Pangaribuan, North Tapanuli Regency, North Sumatra 22472, Indonesia",Three Putra Home Stay,"[{'height': 4160, 'html_attributions': ['<a href=""https://maps.google.com/maps/contrib/106389386898537903285"">A Google User</a>'], 'photo_reference': 'AUGGfZllcbTVTReAMMKrv_jG63jSxCqQUn8gouBHuxmQHdHT-94ELSXG0LXWdwFpHMb7W-TkJHzyhdktU_2RYbXt-OkVO0wLvUvavEePpS_XHl7bd1ZlM_cjx_vc2Ry6zdHQMtNf0p5wx7ynus87pvxnDPwetwr-wEibuNIW0orV8chh-PFT', 'width': 2340}]",ChIJ28HWLkx3LjAR3IkZawPn708,3.5,"['lodging', 'point_of_interest', 'establishment']",2,2.0092271,99.1321931
"V2RJ+335, Simataniari, Pahae Julu, North Tapanuli Regency, North Sumatra 22463, Indonesia",Pink House Homestay,"[{'height': 1800, 'html_attributions': ['<a href=""https://maps.google.com/maps/contrib/116492478548468675763"">116492478548468675763</a>'], 'photo_reference': 'AUGGfZmxun7031JqIFp7ssjFNoAKutvHKwSgFgRJc_b2qCQhLxNFOlJxGnOiJI99ih8YvIbu8TLuy6ut0ItEDsDC5Sz8W0SO0LuhW3v4ay8bOcKxfai24YnUJj2T2JoMTTGTaKRElcXm01JkxEoZQ3lbkVpWsugNiz7C63O_i4OUFWB5kzU', 'width': 4000}]",ChIJu1GI59N7LjARZX8JjjimO70,3.4,"['lodging', 'point_of_interest', 'establishment']",5,1.8901276,99.03024099999999
"Jl Tarutung No.KM 1.5, SITABO-TABO, Kec. Siborongborong, Kabupaten Tapanuli Utara, Sumatera Utara 22474, Indonesia",CIKOM HOTEL CAFE & RESTO,"[{'height': 1200, 'html_attributions': ['<a href=""https://maps.google.com/maps/contrib/106654989997071460801"">A Google User</a>'], 'photo_reference': 'AUGGfZlb_WAT8lszpEp2P9gYavxw5NVpnRyFRy-9XCAObj-NfHZkAXWC7RCN1C05--asQCyUfQB9seQpUma2aachsgU7Cql1XIDZZm4_itF0KpajC5YDV79o9kgnJfrAX_xsrCPi4z_6iYQzeysBJCCLMTFvvNtkblWsq8OPj6vTQQI1D84z', 'width': 1600}]",ChIJAyQ9u08TLjARRgVdoXg0FGA,4.3,"['lodging', 'point_of_interest', 'establishment']",3,2.1957263,98.96939839999999
"Jalan Silangit Ujung Perbatasan Tapanuli Utara Siborong Borong Kelurahan Parit, Sabungan, Kec. Siborongborong, Kabupaten Tapanuli Utara, Sumatera Utara 22474, Indonesia",Hotel Panorama Indah,"[{'height': 3000, 'html_attributions': ['<a href=""https://maps.google.com/maps/contrib/114542496357189969277"">A Google User</a>'], 'photo_reference': 'AUGGfZmLkHKUnXuZLa9aB5Qis4rQAO2Bl35FwQaS-AkPlJLab5E4WxZlAPmMIoqsWkiZ5MKwAD5jZgbu92N0vFw67V-EDspYIHiAzTMMfikZSvHtJI0zCOVx4i4pqMBVIgr0-VNdFD8gp5CErGzACnUPYg2Sq-QQcTryk2R1pK51dUQiwKUk', 'width': 4000}]",ChIJRQsoOAYQLjARrva4GeSh9bI,3.7,"['lodging', 'point_of_interest', 'establishment']",84,2.2709332,99.00260159999999
"X5WM+RMV, Desa, Batumanumpak, Kec. Pangaribuan, Kabupaten Tapanuli Utara, Sumatera Utara 22472, Indonesia",AMORA GULTOM,,ChIJpaNvmm13LjARlnFAcEqBD3k,5.0,"['lodging', 'point_of_interest', 'establishment']",2,1.9971137,99.1841749
"8WQ4+JW, Hutana Godang, North Tapanuli Regency, North Sumatra 22476, Indonesia",Sentosa Lake resort,"[{'height': 4000, 'html_attributions': ['<a href=""https://maps.google.com/maps/contrib/108099435792571586612"">Kawi Boedisetio</a>'], 'photo_reference': 'AUGGfZk_XSlnECEjRwYBaQ2E6GM57aYfC_lAOhmdyQVOVId7Ye7q_hheJovJKsqX2EfVHNStKDBBQ9bbAWx2XuY9tfvJtpQRH8OwuREBRImYRcwM-puKT4B3RkMCbgRhgqUW5caghntJZH1AlLwvTUsfPlhVmgdAVvGtlClKUMJ5CGjRgaRU', 'width': 6000}]",ChIJc2Axo0YZLjAR4Uo2-RSr0tw,4.3,"['lodging', 'point_of_interest', 'establishment']",76,2.339217,98.907296
"6WQM+7M5, Sigumbang, Siborongborong, North Tapanuli Regency, North Sumatra, Indonesia",Rumah opung,,ChIJWc_frywRLjAReYQfkoLu6KQ,0.0,"['lodging', 'point_of_interest', 'establishment']",0,2.2382513,98.9339011
"Jalan Tugu No.Kelurahan, Ps. Siborong-Borong, Kecamatan Pasar, Kabupaten Tapanuli Utara, Sumatera Utara 22474, Indonesia",Hotel Parrona,"[{'height': 1836, 'html_attributions': ['<a href=""https://maps.google.com/maps/contrib/112106648847829004562"">A Google User</a>'], 'photo_reference': 'AUGGfZlPhm_uHumpPQR4IBu80Ougjq8LaqRfEKe-4bnQ_5d60ewDCBgmgg1U748Fj7lTLe0XgMiL5FUp_Qz50OzZ5khWeWw8OloTFaa0fKB-7bxqUJgOSY8Upv8hhlqlRr6Wj2HmpnP1TIH6ABiPIdenk_laTa9QgK1g8NlbQeaa7FFIOon1', 'width': 3264}]",ChIJMwJbapwRLjARdBZ330NUjNc,3.5,"['lodging', 'point_of_interest', 'establishment']",149,2.2151725,98.9746679
"6WCP+H7H, Sigumbang, Siborongborong, North Tapanuli Regency, North Sumatra, Indonesia",Sosorniapoan,,ChIJo8xfFAARLjARtiHbPLa60Sg,0.0,"['lodging', 'point_of_interest', 'establishment']",0,2.2214403,98.9356948
"8VVM+GM4, Pulau Sumatera, Huta Lontung, Kec. Muara, Kabupaten Tapanuli Utara, Sumatera Utara 22476, Indonesia",Paul place,"[{'height': 592, 'html_attributions': ['<a href=""https://maps.google.com/maps/contrib/111101830055076368315"">Manatang Sianturi</a>'], 'photo_reference': 'AUGGfZlOkdWfKS_MJbIf7EXaDTj7jzKzdsfSWZxj2dRj5E35XDYmeTiOWLMPdbFs_90tWAngZ5aJxJ5GiUJoMMb9gVohnr3j11DqY7lHEjF4NOLvQ6f-HyI5B9Yy_QBlF-6j8QPV1qT7_YVEtSyzpB8Qu101PXe9gVeUedFl1_UjBeOhvL9Y', 'width': 1232}]",ChIJywuexX0ZLjARbEk2B4fNQgk,5.0,"['lodging', 'point_of_interest', 'establishment']",1,2.3437664,98.88418800000001
"4XC3+JH, Tapian Nauli, Sipoholon, North Tapanuli Regency, North Sumatra, Indonesia",HOSEA HOTEL,,ChIJlVBGM-oTLjARRrsk-LqJDy0,0.0,"['lodging', 'point_of_interest', 'establishment']",0,2.1215189,98.95391839999999
"Onantukka, Aek Nauli IV, Kec. Sipahutar, Kabupaten Tapanuli Utara, Sumatera Utara 22471, Indonesia",PENGINAPAN JOY HOMESTAY -Onantukka,"[{'height': 1800, 'html_attributions': ['<a href=""https://maps.google.com/maps/contrib/106063419537973368307"">A Google User</a>'], 'photo_reference': 'AUGGfZnkHbi-zoQMtC3C9to4pZRkaK_K-YhxnEhZiikollQwDDLAZn2vk3mBktzugsJv6VcCk1PzijkONdYYoZNn8-afno1bTyvJ5uBbNwb5-rFc5X5x7CjajIiTbKJ8Rc7e9vM6qqM8-MJ_v--rn_f7AGO6Jd7sEVBO5d9hl59w84C0S7U-', 'width': 4000}]",ChIJFc9bXP13LjARFt-nNCzOz3A,5.0,"['lodging', 'point_of_interest', 'establishment']",1,2.0326832,99.11490630000002
"7232+M9H, Silando, Muara, North Tapanuli Regency, North Sumatra 22312, Indonesia",Dewi,"[{'height': 2250, 'html_attributions': ['<a href=""https://maps.google.com/maps/contrib/109654402134195580892"">A Google User</a>'], 'photo_reference': 'AUGGfZkLLpbEKkazP0XrydebR5m4y-uCQ2qeAPSZCLLPMEl8R2k8QJW6zlR88m00Hur-v3L57T_jeEcYvwRnKegTMOIWBMeKJ91_juzKQy91WKdspkg5xq0co4ueXD2rNWmu39UYIPN8W_IPuZ9mtV89XOQ7qurqL_Vnc2L46q23tLuvMWrZ', 'width': 4000}]",ChIJUbfTRL0RLjAR5xqG8tFJp2Y,5.0,"['lodging', 'point_of_interest', 'establishment']",2,2.2541763,99.0009831
"2XGH+QH3, Simamora, Tarutung, North Tapanuli Regency, North Sumatra 22411, Indonesia",Rumah Trisna Hutabarat,,ChIJx_dzAR9vLjARb_cN7ZXapNU,5.0,"['lodging', 'point_of_interest', 'establishment']",2,2.0268923,98.9789431
"2XG7+773, Jl. Ferdinan Lumbantobing, Hutatoruan VI, Kec. Tarutung, Kabupaten Tapanuli Utara, Sumatera Utara 22411, Indonesia",Safari Hotel 2,"[{'height': 4032, 'html_attributions': ['<a href=""https://maps.google.com/maps/contrib/118046430683278530425"">Leonardo Simorangkir</a>'], 'photo_reference': 'AUGGfZkEIQG808I8Ot1Edd2MNReIRR_Wsm-MJuPxEW4REwGdbuoB-409JrJOPrzAtPZIJuMNhs2HkoVEojBVO3CamHkBnEph07Oifn6mdbocekRfGCrS2QEj3l13gmzvkBAL7KDwnlvkwQgldJ73ClPZIPxY_VG3QWQDUF3ZPOXgefSLddGX', 'width': 3024}]",ChIJn6yC41xvLjARhmk7EvGWbsU,4.0,"['lodging', 'point_of_interest', 'establishment']",34,2.0256375,98.963178
"Q4P7+29P, Jl. Tarutung - Padang Sidempuan, Siopat Bahal, Kec. Pahae Jae, Kabupaten Tapanuli Utara, Sumatera Utara 22465, Indonesia",Penginapan Rumah Kita,"[{'height': 1952, 'html_attributions': ['<a href=""https://maps.google.com/maps/contrib/105505965562283393420"">A Google User</a>'], 'photo_reference': 'AUGGfZl9fWAhzGH1dqJ8Rlz924wkvslPRkywS2CiOpGQy0fOZBRhThzPbQXke81gR9TX00lVXOC7qKInyHJogK9KF5Koyg4Z2BHLHAdkejm3z_IJF4liIjvuvvfn0tMeoGh7caNJVOlR7HyU-R6_zc-wExB3dH9LZtO93gHeXp769Q0EUMHu', 'width': 4160}]",ChIJbYYpDMaALjARDLFb56SGgAs,4.1,"['lodging', 'point_of_interest', 'establishment']",8,1.7850886,99.11345969999999
"Jl. Mayjend. D. I. Panjaitan No.57, Hutatoruan VI, Kec. Tarutung, Kabupaten Tapanuli Utara, Sumatera Utara 22411, Indonesia",LUTE HOTEL - RESTO - KARAOKE - LIVE MUSIC,"[{'height': 1600, 'html_attributions': ['<a href=""https://maps.google.com/maps/contrib/103924207247056012247"">A Google User</a>'], 'photo_reference': 'AUGGfZmI2pJDDC8Rw6dCmYEuWZyi1UQ_BzwConzjQT3J3n_WWqXod_JRTkuE2O62a_AQ6zvRzcGNiohUU4q_ls_JCqRoy0RLpAVjcrNQS9pFDESanRRrCzc5CL6iPXuaJ_rkQxCW51AK26yWRo9L3Q_H3Oqu9R3tH3vB8WZFGMOFi7jCSEgd', 'width': 1200}]",ChIJS-UR5lVvLjARgtfoNcGuSyI,3.2,"['lodging', 'point_of_interest', 'establishment']",5,2.0214192,98.9647383
"7X7X+645, Jl. Raya Muara, Parik Sabungan, Kec. Siborongborong, Kabupaten Tapanuli Utara, Sumatera Utara 21154, Indonesia",Hotel Lindung Inn Silangit,"[{'height': 1536, 'html_attributions': ['<a href=""https://maps.google.com/maps/contrib/107379459253436138870"">Nia Karunia</a>'], 'photo_reference': 'AUGGfZlbHoFtEYmFsoMh3AX7gxetRXrfi4mwf0zMzxYhrH_YInz7YsmdKBQxvtclYV2Ov-tu34AikWQnyWA0zv_NSoODBsGMvXaI4-0u6scDelRK_vRECaTjU7ABtLyE8KhE9wAcmL1Ca9SRkUt1_43z8D3yNlZNZe3T7QfCX8DtCL6iT584', 'width': 2048}]",ChIJn9KYadMRLjARfVuOSd5kgHA,4.3,"['lodging', 'point_of_interest', 'establishment']",24,2.2628751,98.99784799999999
"XXPR+8W6, Parbubu II, Tarutung, North Tapanuli Regency, North Sumatra, Indonesia",Rumah ST. H Panggabean(Bpk.Richi Richardo Panggabean),,ChIJlVx7XABvLjARpNKJil72Ta8,5.0,"['lodging', 'point_of_interest', 'establishment']",1,1.9857828,98.99225659999999
"Jl. Sadar No.KM 1, RW.5, Lobu Siregar II, Kec. Siborongborong, Kabupaten Tapanuli Utara, Sumatera Utara 22474, Indonesia",Abe Hotel & Convention,"[{'height': 900, 'html_attributions': ['<a href=""https://maps.google.com/maps/contrib/107654473209958570742"">A Google User</a>'], 'photo_reference': 'AUGGfZlunYLiklJhCxlkrc8rBLfhembr4BrvLYRqdPffF7B1tS6FhBMqR8-AtYSzod6U_Zb0tyvDJAEtfs3NX-dRWIbLMPlis1uRH9KuRwSLxdnzEZ81ULuOn2ozaAHlxNSQyLHnDeexNjjkPcWnxcgz12q5gLS7EWmAG4ZDrR9Bg8niyDF_', 'width': 1600}]",ChIJieRq_pQRLjARe_yGDsvX5rU,4.8,"['lodging', 'point_of_interest', 'establishment']",77,2.2136835,98.9950418
"Jl. Raya Lintas Utama Sumatera No.140, Siborong Borong I, Kec. Siborongborong, Kabupaten Tapanuli Utara, Sumatera Utara 22474, Indonesia",PENGINAPAN PARSAORAN,"[{'height': 3120, 'html_attributions': ['<a href=""https://maps.google.com/maps/contrib/108214552795439436280"">A Google User</a>'], 'photo_reference': 'AUGGfZl68AM98XMJWHNdVO-257BZ2d5I-9yYOJWwndaAkOSw53OFtjoOS0541Uje31wsIC2uTwd3vX0t-7wonuYvMa3SUoJAL_fxTf1TIjLECisb2JaYk9Jo-OhbeISdgLVtfMwZDTFIcRYPoIUHiu53VcXlAb0RmpyKLVWpJV_y3PDxrkPz', 'width': 4160}]",ChIJ5VQo5p4RLjARgJe31bKm37k,3.9,"['lodging', 'point_of_interest', 'establishment']",88,2.2128836,98.9726551
"2XC7+W33, Jl. Sm Raja, Hutatoruan VI, Kec. Tarutung, Kabupaten Tapanuli Utara, Sumatera Utara 22411, Indonesia",Hotel Safari,"[{'height': 1800, 'html_attributions': ['<a href=""https://maps.google.com/maps/contrib/106011398686927106297"">A Google User</a>'], 'photo_reference': 'AUGGfZnTl3HOjI4esPxq3oo_lySl7W787EyvrdTY4OnKyxt3lzAao-y-uzx4xoUlHxgpbh_HD3WeaLO64DzH0zVmsFMe-avdWgFOAmI8d2efuHwveFEA21j41t-Hrwx_E8cK1TkNmu8fH-CoI2EGffllBSe1IlzFE3KXb7MUe4UX80TDSTeE', 'width': 4000}]",ChIJe7r5roxuLjARGb9Q7YlTB5M,4.1,"['lodging', 'point_of_interest', 'establishment']",74,2.0222456,98.9626603
"Jl. Tarutung - Padang Sidempuan No.35, Parbubu Pea, Kec. Tarutung, Kabupaten Tapanuli Utara, Sumatera Utara 22415, Indonesia",Kompleks S P D Sangkaran Pinggir Dalan,,ChIJRXJDY09vLjARWGOKbMD2feE,0.0,"['lodging', 'point_of_interest', 'establishment']",0,1.9978989,98.9943236
"6X6C+HQF, Pasar Siborong-Borong, Siborongborong, North Tapanuli Regency, North Sumatra, Indonesia",Aduan,,ChIJo4ZzfQARLjARCv0A1jUG-go,0.0,"['lodging', 'point_of_interest', 'establishment']",0,2.2114211,98.9719267
"Jl. Jct. Simorangkir No.7, Salib Kasih, Kec. Tarutung, Kabupaten Tapanuli Utara, Sumatera Utara 22416, Indonesia",Hotel Villa Kartini,"[{'height': 581, 'html_attributions': ['<a href=""https://maps.google.com/maps/contrib/112004269733423166651"">A Google User</a>'], 'photo_reference': 'AUGGfZkc0--sM5TmT_ojHsZ2VOIjE9P1oHKUgb0ASoRW9M5gjTktFTJGMMftUc8RLsT7odvVCdrU4yPQ8zKi4MmMbtAMk8SIP0DwGN4U5VTjHQYP3iylA4O3tZ0GcjQAUB2f9LdPyXXG2k5j8wevXRPtp6NDB7GZiTCdLEWMgKgb-lgS6Kp3', 'width': 782}]",ChIJH4wJXkduLjARrmfpkNAw1HM,4.3,"['lodging', 'point_of_interest', 'establishment']",70,2.016688,98.99238710000002
"Jl. Siborong Borong - Parapat No.75, Silando, Kec. Muara, Kabupaten Tapanuli Utara, Sumatera Utara 22312, Indonesia",SUPER OYO Capital O 540 Esther Hotel,"[{'height': 427, 'html_attributions': ['<a href=""https://maps.google.com/maps/contrib/112492040465951743894"">A Google User</a>'], 'photo_reference': 'AUGGfZmEFX_2Zu-kNBqeFVmeDPEqjH5OQgNVnpsJ5kBEJAQC4x4Z1kFLwVQDEsmji5YY7Jg1DcgEmnrmjcd3KePIE1dRJVpFtKwirRJok6aQPybKe7z2AlrTXJig15NeaMM30M-0umxouYbig9LYqy8-CzmrMJBFqHwpEaZS9xq4Ub6zu6oh', 'width': 640}]",ChIJM6Pc30IBLjARrpvgbUaZW8Y,4.0,"['lodging', 'point_of_interest', 'establishment']",336,2.2676089,99.0021598
"2X6G+9VV, Hutatoruan V, Tarutung, North Tapanuli Regency, North Sumatra, Indonesia",Tarun,,ChIJi6SwawxvLjARGSXP9Jx1K20,0.0,"['lodging', 'point_of_interest', 'establishment']",0,2.011017,98.97715919999999
"Jalan Tarutung - Balige, Simpang Sianjur, Desa, Parik Sabungan, Kec. Siborongborong, Kabupaten Tapanuli Utara, Sumatera Utara 22474, Indonesia",Wisma Tondong,"[{'height': 3120, 'html_attributions': ['<a href=""https://maps.google.com/maps/contrib/114090731149627481470"">Wisma Tondong</a>'], 'photo_reference': 'AUGGfZliWSzaTy-s9-pWybozb-e5BwQsDozHPyNB2SeJgv1eaHNVcEp857LdtU-QgDaGNybcFC-k_DUdzCpPgAkUo9cTc_8mQiXkGPiK9Ec3mTn3c1oef2G3JpJCkVd12XzbodibV65kHZKgm-jCNn_juYMqs6wCWbVRHrtL8qe4PS74r00-', 'width': 4160}]",ChIJPX4MezsQLjARk346v6ByUSg,4.4,"['hardware_store', 'store', 'lodging', 'point_of_interest', 'establishment']",26,2.2507779,98.9988135
"Jl. Sm Raja No.12, Situmeang Hasundutan, Kec. Sipoholon, Kabupaten Tapanuli Utara, Sumatera Utara 22452, Indonesia",Hosea Hotel,"[{'height': 1908, 'html_attributions': ['<a href=""https://maps.google.com/maps/contrib/114186703348105210248"">A Google User</a>'], 'photo_reference': 'AUGGfZlsnWRJxzCJDO0C7u7YgfTMhoUZbo5y1_WjFnouqfHAjEBa1BnAdUgVEGeWGUmuvoHjUNNM4C0ekOXIo3jJG7hwo1JOXZAu03sjHWmoyKbmbnLi-jemnAh8Km-kLAYZlKypn3aTiNmLkK_3ZVIm8QbEtCos4q0hxmF29yaUqeeVs8DZ', 'width': 4128}]",ChIJQ9CRiIpsLjARYEWJzLVZC1A,3.9,"['lodging', 'point_of_interest', 'establishment']",91,2.0808709,98.94404469999999
"6XF2+PP4, Sitampurung, Siborongborong, North Tapanuli Regency, North Sumatra 22475, Indonesia",Rumah OP Pudan Lubis/br Sihombing,,ChIJI8lqWZoRLjARax5cpU23iSU,0.0,"['lodging', 'point_of_interest', 'establishment']",0,2.2242563,98.9518294
"Jl. Bandara Silangit No.27 Pintu 2, Parik Sabungan, Kec. Siborongborong, Kabupaten Tapanuli Utara, Sumatera Utara 22476, Indonesia",Arirang27 Homestay,"[{'height': 2368, 'html_attributions': ['<a href=""https://maps.google.com/maps/contrib/109637036669782957123"">A Google User</a>'], 'photo_reference': 'AUGGfZlQAw1QiHHYCYfzEvoxHD9PDJExCD4JHj-vKndTxPALCMcIhd9r7aViJzuSukLNuet6hQI35NHAxzSvt75J-hb_AWCThmGgVtSLfIC_2bY-skdY1ncKTj_hI7_IVtEKthBOwg3jcUI1PgcHxNWQgYmRmZwpL44wIOpIbTsoM-o3aaOX', 'width': 4208}]",ChIJ31tWsUQRLjARnzRZlOjD9sY,4.5,"['lodging', 'point_of_interest', 'establishment']",30,2.2633199,98.98925559999999
"Jl. Tarutung - Padang Sidempuan No.25, Sitolu Ompu, Kec. Pahae Jae, Kabupaten Tapanuli Utara, Sumatera Utara 22417, Indonesia",Tano Ponggol,"[{'height': 1920, 'html_attributions': ['<a href=""https://maps.google.com/maps/contrib/105314682209828229016"">A Google User</a>'], 'photo_reference': 'AUGGfZkTYh9JNQHRe0Y0yXjkaXix_I7Q44bHD3psCIbZ_y6KZs3EiVTHSFbjFB7lZ3O4Ag8YTeggqDwd6T0qFaLEIpBeUqAkXvPdG3mBIavelLiP95olIq4nNjtXsRyDvqBs_dEMRfnqv01RzgzD3j1FF5aJVcAwIat9IMCXnC5x_-daVfwG', 'width': 1080}]",ChIJXQ57aMqHLjARZRJS5NYWqio,3.5,"['lodging', 'point_of_interest', 'establishment']",2,1.7918627,99.0984647
"Jl. Dr. Sutomo, Hutatoruan VI, Kec. Tarutung, Kabupaten Tapanuli Utara, Sumatera Utara 22411, Indonesia",OYO 2220 PINK'S GUEST HOUSE,"[{'height': 427, 'html_attributions': ['<a href=""https://maps.google.com/maps/contrib/109041260099354695943"">A Google User</a>'], 'photo_reference': 'AUGGfZld-oro40fhCRXk0zZtVQeWgmzHiYIlWrOpEDgw4AiLE9PbYgzWnOCq8Q6diRY8CK25cRazf5A1-qIilxaQ0maqrpa4U3-8Xl3LUC3XAsoi3ApH7aW1vyEopms8meZT27R-xaatKPeScClsgU8tZl9MnIIksom9cJZ8w6_Yr6nfCnPe', 'width': 759}]",ChIJRRwxfttvLjARJgxesHg9-gA,4.1,"['lodging', 'point_of_interest', 'establishment']",108,2.0226121,98.9633528
"J5VJ+G3, Gunung Hasahatan, Sipirok, South Tapanuli Regency, North Sumatra, Indonesia",Gn hasahatan,,ChIJQ-OUDgCdLjARmldqOrcjS18,0.0,"['lodging', 'point_of_interest', 'establishment']",0,1.6438216,99.1802147
"Jalan, Kec. Muara, Kabupaten Tapanuli Utara, Sumatera Utara 22476, Indonesia",Villa Marsaulina,"[{'height': 1067, 'html_attributions': ['<a href=""https://maps.google.com/maps/contrib/104267902412521857990"">A Google User</a>'], 'photo_reference': 'AUGGfZmwANL8r3BzbutMyDMJEJ5YMCyBI75Oxe-mvCdCBKHr_Lg9eT8YTQAyV-EU0sReb4eqyiCPxNxjVlM2C7ttn4x_l9ekdNZ68-y4f5Nz9DV1dkVNddOuEx3rA3zXv6NJUjnjCFqwiouX2XX3at03YI2Nwt6_V0Upy-R7hMmGaiTwRibp', 'width': 1600}]",ChIJvUncrZ4ZLjARsE_TPdLV3rE,5.0,"['lodging', 'point_of_interest', 'establishment']",9,2.338687,98.9067208
"Jl. Balige- Tarutung No.77, Silangit, Kec. Siborongborong, Kabupaten Tapanuli Utara, Sumatera Utara 22452, Indonesia",Airy Balige Tarutung 77 Silangit,,ChIJ_XXSe5ZtLjARUE-kaA039No,5.0,"['lodging', 'point_of_interest', 'establishment']",1,2.2678645,99.00179399999999
"3WFV+QHM, Situmeang Hasundutan, Sipoholon, North Tapanuli Regency, North Sumatra 22452, Indonesia",Karunia Hotel,"[{'height': 2296, 'html_attributions': ['<a href=""https://maps.google.com/maps/contrib/115780961764853988087"">Al</a>'], 'photo_reference': 'AUGGfZl7nFEp93B-tzUHS5kFD-3OrVswjsDY6bc6fB5mxSap43lkPuyhSrUe8DuyMPiZjb4n-ja_IsHes1p0hcsLhTvdM4WFfJTpUmmquUed287Y4wkMYMkks8LAkPLXQeZRwqWL1FQ2GgeSlneiIAu5IJkwJ03qyG1e7geBuNPZI3tTgE05', 'width': 4080}]",ChIJf7CqVYVtLjARjQ-2iAlAl0k,4.0,"['lodging', 'point_of_interest', 'establishment']",4,2.0743921,98.9439298
"perumnas pagar beringi, Jalan Protokol No.269, Pagar Batu, Kec. Sipoholon, Kabupaten Tapanuli Utara, Sumatera Utara, Indonesia",Praktek Dokter Sinta Sembiring,,ChIJ7ZcTdwBtLjARE1DQ_gMEGWo,0.0,"['lodging', 'point_of_interest', 'establishment']",0,2.1039235,98.95333339999999
"Jl. Merdeka No.3, Napa, Kec. Batang Toru, Kabupaten Tapanuli Selatan, Sumatera Utara 22738, Indonesia",Keluarga Abadi Hotel,"[{'height': 2340, 'html_attributions': ['<a href=""https://maps.google.com/maps/contrib/114560406202261827987"">A Google User</a>'], 'photo_reference': 'AUGGfZnueHjlKH6ywc2U3AtJQuwOupVOoNvnmxJc8NlYu5A0-99ggyi1v2-0whnrKqw045LK63xEfLvqr02EhmkuLzpB7teQ06H9D0D467fWNcjS01PRuS8JPN_XPLf-tf0suPG_hip5raCmMED8FJVxABTkSP0nCcuYKv6z9CTd84W5IwrR', 'width': 4160}]",ChIJR59sLWGiLjARhf4uALN5ahA,3.7,"['lodging', 'point_of_interest', 'establishment']",26,1.4857014,99.0625824
"6X9H+9W4, Pasar Siborong-Borong, Siborongborong, North Tapanuli Regency, North Sumatra, Indonesia",Hotel,,ChIJQ6ExoqERLjARgDD4bFvb858,2.0,"['lodging', 'point_of_interest', 'establishment']",1,2.2184274,98.9798753
"2X6J+R24, Jl. Sutan Sumurung, Hutatoruan V, Kec. Tarutung, Kabupaten Tapanuli Utara, Sumatera Utara 22411, Indonesia",Hineni Hotel,,ChIJQ-Is-U9uLjARhdfhED-1CNA,0.0,"['lodging', 'point_of_interest', 'establishment']",0,2.0120208,98.9800933
"Jl. Balige No.1, Hutatoruan VI, Kec. Tarutung, Kabupaten Tapanuli Utara, Sumatera Utara 22411, Indonesia",Hotel & Restaurant Bali,"[{'height': 4000, 'html_attributions': ['<a href=""https://maps.google.com/maps/contrib/115088376854132788510"">Johnny Siahaan</a>'], 'photo_reference': 'AUGGfZkIRIc4ZLg5ECOXp-ALbJ2lmg3jVFg4Qq2g8-a2tZKgqxCRZICyRIewpO7FX69g938FYxGuOfrYkucYDupRVafHv4UrTmMgeeaUpPXjT20GDndlSZsmT9EeXSzhhpYZPQ-wMRTkEt1Ea0TMAudayT3_Ir5AE89h22CC1L3Byz0l_IIF', 'width': 3000}]",ChIJB8jepI5uLjARDAm9NnTnFCQ,3.7,"['restaurant', 'food', 'lodging', 'point_of_interest', 'establishment']",239,2.0276525,98.9623663
"Jl. Tarutung, Pagar Batu, Kec. Sipoholon, Kabupaten Tapanuli Utara, Sumatera Utara 22452, Indonesia",Hotel Bungaran Indah,"[{'height': 2256, 'html_attributions': ['<a href=""https://maps.google.com/maps/contrib/112925461261751471423"">A Google User</a>'], 'photo_reference': 'AUGGfZmWQAn13rTRxbWQZJyDTkketj_O78dqaL8Kdv--E_GHk70-XTtsV4MUKl4VsCa1XsmJPIcUeT1pD3-Xnqne9a2bV2Ef72NejMFCB0wfgbA3uGV4u6gHXnDGHpCS0chS_LF9DaR2Hiu-W3P8LqlJ4YJVSOQTWVpborsFTrQJeThvJtC5', 'width': 4000}]",ChIJmaNgSsVsLjARwrvEf0qX8gQ,3.9,"['lodging', 'point_of_interest', 'establishment']",151,2.1080119,98.95746590000002
"2X6G+5P9, Hutatoruan V, Tarutung, North Tapanuli Regency, North Sumatra 22411, Indonesia",Stevani Veronica Gavin,,ChIJC-GJVJdvLjARDrE0waGnDEE,0.0,"['lodging', 'point_of_interest', 'establishment']",0,2.0103811,98.9768744
"Jl. Sadar No.66, Ps. Siborong-Borong, Kec. Siborongborong, Kabupaten Tapanuli Utara, Sumatera Utara 22474, Indonesia",Penginapan family Lodging,"[{'height': 4608, 'html_attributions': ['<a href=""https://maps.google.com/maps/contrib/103111725883454472307"">A Google User</a>'], 'photo_reference': 'AUGGfZn7owQZArc68PXsRKLxK5dx-8sUBll7tJfoUypuqYHtq8hRbPfbFMaEOn5jSWUaIutO6IeOWMaaTojHMG8RjKsnUmodScTWCCE_cjWAP7Z2ddEva3d7vWIjfFicpaeUxmpSoa3upo8tdqAgHnEPkk-jHvUfe2d2tbr1giNpWwTShISv', 'width': 2128}]",ChIJ8_uEW4ARLjARmoHRQ83JilA,5.0,"['lodging', 'point_of_interest', 'establishment']",3,2.2157665,98.9807562
"R33V+28Q, Jl. Lintas Tarutung - Sipirok, Sitolu Ompu, Kec. Pahae Jae, Kabupaten Tapanuli Utara, Sumatera Utara 22417, Indonesia",Op Lambas Gultom,"[{'height': 1920, 'html_attributions': ['<a href=""https://maps.google.com/maps/contrib/100788943315654938938"">A Google User</a>'], 'photo_reference': 'AUGGfZkhVx50-id_mYh6Dc3dXryHTaJuR3QPWoQu3me3bEyvcGmQXXZrjMhpVH-OcgWdS7uoQQtnesRF80kFGDD7hZY_PUSQNDUQxwmTXFsGTmkNnVD_nzE9XibM5LUxe1yxjKD_a0-c687LHmgAqG-cjocQyzQUw0EmSAp8Bixazaoca_o2', 'width': 1080}]",ChIJLbeTHJ6HLjARTfZoLywi8Ck,3.0,"['lodging', 'point_of_interest', 'establishment']",2,1.8025821,99.09335899999999
"2XH6+JJM, Hutatoruan VI, Tarutung, North Tapanuli Regency, North Sumatra 22452, Indonesia",Hotel Pasifik,"[{'height': 3072, 'html_attributions': ['<a href=""https://maps.google.com/maps/contrib/112664474948957662123"">A Google User</a>'], 'photo_reference': 'AUGGfZltrashwuzg6av3CzteOUE7_SRuaL1dzYNoAtY8fBEYxfm2mQ8XZfJ0hTckAkaBix-1hr9U_ExhhV4RbhgOMfshXq5V4xBfrOMxt2jqAzezG5wGc8azGcVAVbXymlQSLjfpSxiuXU0IoqMpOP2gsyvOQxkn89Te_sCBlIk1v9YmMC1g', 'width': 3072}]",ChIJA56o9lJvLjAR_1wEU-WIg8M,3.9,"['lodging', 'point_of_interest', 'establishment']",19,2.0290843,98.9615615
"2XH5+5J7, Jl. Firman Simamora, Hutagalung Siwaluompu, Kec. Tarutung, Kabupaten Tapanuli Utara, Sumatera Utara 22452, Indonesia",Lukas julius Christopher simorangkir,,ChIJf6_7JytvLjARq8DU9wYt48M,0.0,"['lodging', 'point_of_interest', 'establishment']",0,2.0279537,98.9591148
"Jl. Muara, Kabupaten Humbang Hasundutan, Sumatera Utara 22457, Indonesia",Senior Bakara Hotel,"[{'height': 960, 'html_attributions': ['<a href=""https://maps.google.com/maps/contrib/106786751066324345579"">A Google User</a>'], 'photo_reference': 'AUGGfZnTVaN8t8DCitedvuU58d1HvL6NxXHOKqD9jskvymhN5UHDh9ZJxdzYG_KJQz-r_hq6e42TetpG-iK4gsd76JRTRSxRHnYgBGxTr2x8Qkp3ZVFzUZ_GnUgGpe_5z6Ce9S2VN3XIDHU31ZH0aUM5zb_Oz2LMvhgYmOzQIDvZh4lTxR9B', 'width': 1280}]",ChIJgcFSOFAjLjARND85mFUHjJk,4.4,"['lodging', 'point_of_interest', 'establishment']",130,2.3186427,98.8351544
"Jl. Sm Raja, Ps. Siborong-Borong, Kec. Siborongborong, Kabupaten Tapanuli Utara, Sumatera Utara 22474, Indonesia",RedDoorz near Silangit International Airport,"[{'height': 600, 'html_attributions': ['<a href=""https://maps.google.com/maps/contrib/101261792225499151710"">A Google User</a>'], 'photo_reference': 'AUGGfZn2tjSx3kGCZdlUtnZpR47Ts22sFk8Qe4zEotPtanDT2wruDzxP1T4dsqxdOrVYalM1O8U3lQOaXgQFNe4X9Hn6icHXP7ymbkE50bGWRl7NZ7PUTDR0Wdg8vhABtjTdrJou4mlbHvC7eSWo-YKutz3pquQtcLoHdpSDdNzb6lor1YSg', 'width': 900}]",ChIJZeqhwWMRLjARVt_iGMMZKW8,4.0,"['lodging', 'point_of_interest', 'establishment']",52,2.222216,98.9830039
"Jl. Raja Johannes No.7A, Partali Toruan, Tarutung, Hutatoruan X, Kec. Tarutung, Kabupaten Tapanuli Utara, Sumatera Utara 22411, Indonesia",Hineni Hotel,"[{'height': 2592, 'html_attributions': ['<a href=""https://maps.google.com/maps/contrib/107786389414795925026"">A Google User</a>'], 'photo_reference': 'AUGGfZm3q0GITb2nkxQSh6cpd7xVMlUoXeZ5xJblDjaehebLHJkHoEpR23eNN9M7cMxSWhl-83tw-YULsRFdoTq4ZItb1dRh1aeYUyWegU4sqRfMX4PNvMlhLI9jwtHRYVY7H4n2vRQRrHkObtxG0fSfHCVz-oEdtQ_JP7BtNje8lOsMK2XJ', 'width': 4608}]",ChIJ_____09uLjAR5jQHGL9I5Dg,3.9,"['lodging', 'point_of_interest', 'establishment']",807,2.0242489,98.97603939999999
"Hutatoruan X, Tarutung, North Tapanuli Regency, North Sumatra 22411, Indonesia",Hotel Glory Tarutung,"[{'height': 661, 'html_attributions': ['<a href=""https://maps.google.com/maps/contrib/114345798328286021043"">A Google User</a>'], 'photo_reference': 'AUGGfZlMq_HxANSKJOkV9NV6OHYlN13jFcEK9fjmddwEGLGoweyMSEJDG_lxfTDnOz3PTUajH0tpJV5flz8eedKVc6jqFDdeU0JArGpWjSy7F-YglKIvah-hYCrwMGDcYK0YkIhqZVS3iEYgRxK0o0Te8EjlJTFO4jblK4rIIaqjHCIwup5u', 'width': 1600}]",ChIJoXcXp2ZuLjARagVnpx9YmIg,3.9,"['lodging', 'point_of_interest', 'establishment']",89,2.0266034,98.9751615
"Partali Julu, Tarutung, North Tapanuli Regency, North Sumatra 22452, Indonesia","Beryl Farm, Resto & Homestay","[{'height': 1504, 'html_attributions': ['<a href=""https://maps.google.com/maps/contrib/111784630469127949258"">A Google User</a>'], 'photo_reference': 'AUGGfZmOBNpZscW16ak_NenEt3p4YVvJWShA36FcnHN4Ym9RowBAHyPPEGTK6cZf2bUTieSuRrKySd10GxrSqX9Q5pWm1fQxzWhVtKodpEb_eCGPAryzeGvpVZvuwGVVF5NLKP3Aq6aKMAki-h2LM59yqFGZH76OcbObPLCGqyraav9Jxa69', 'width': 3264}]",ChIJyWxufNdtLjARYJj9wzDLmTM,4.5,"['restaurant', 'food', 'lodging', 'point_of_interest', 'establishment']",342,2.0441893,98.9790058
"Paniaran, Siborongborong, North Tapanuli Regency, North Sumatra 22474, Indonesia",Pea Nature,"[{'height': 2268, 'html_attributions': ['<a href=""https://maps.google.com/maps/contrib/106730082906648480273"">Enfreddy Nababan</a>'], 'photo_reference': 'AUGGfZl5BL6_v-PDXsjTOpvV2ZvLbIrjfeRBeup4e8KcJh7nfHE31r15HpbBSPS5XGBoObR8URFzTBW7k52-gSItFhpva0yyHkp60Dotlz1Unf_7dfwBjDHAuphDPjP5SxoUgLlm_rzJCPaF1Hk3yCr2C4RMS4dcYB4k3TDD0Vg-C8wv71qk', 'width': 4032}]",ChIJG-aTAAwTLjARnUjymfiJV70,4.6,"['lodging', 'point_of_interest', 'establishment']",19,2.18145,98.9833602
"Jl. Bandara Silangit, Silando, Kec. Siborongborong, Kabupaten Tapanuli Utara, Sumatera Utara 22474, Indonesia",RedDoorz @ Aldos Villa Silangit,"[{'height': 1836, 'html_attributions': ['<a href=""https://maps.google.com/maps/contrib/106719929066789896498"">A Google User</a>'], 'photo_reference': 'AUGGfZn8VB0QCpy8_SoyCznw-zWH8mqBPREZzg2NnULWsFS9bN7vNh4y4rCp3CRY4PP6qu8LMNuYFD78cdBHNm50NzxL3_zBhRITMYDo7gywbExrpCeybxZw3C5lZ9dRICHc4ginLWtJ_oNHbIJfgl3ot7Y9toZ2IkEQLpJIzimDcEfNrOJW', 'width': 3264}]",ChIJJ1VGezYRLjARqiZF5rwh6Xk,4.3,"['tourist_attraction', 'lodging', 'point_of_interest', 'establishment']",28,2.264652700000001,98.98668839999999
"Jl. Dr. Sutomo, Hutatoruan X, Kec. Tarutung, Kabupaten Tapanuli Utara, Sumatera Utara 22411, Indonesia",RedDoorz @ Haraito Tarutung,"[{'height': 600, 'html_attributions': ['<a href=""https://maps.google.com/maps/contrib/112462180517168578954"">A Google User</a>'], 'photo_reference': 'AUGGfZlhMI2rnL3rg5UF3W4sg-3ESEa3D0v2ffL8wABr2lRhRO3vlGXbGdBagqDD9tX1-C8p-F8AFAVJ1Qpp6rLNmbzz5zw8yxZVJQrZNMnDd4os9auhoXsN1eWUY0-s1M8xb53SFQ8o653SLr0ciIG3BFpWI-3M-NCM3arLXpzfCvo3tlng', 'width': 900}]",ChIJm2mG2NFvLjARTJzbjooHXfs,3.6,"['lodging', 'point_of_interest', 'establishment']",100,2.0224825,98.96303189999999
"82C2+V6J, Jl. Raya Meat, Meat, Kec. Tampahan, Toba, Sumatera Utara 22312, Indonesia",Wisma/Motel Siahaan,"[{'height': 2252, 'html_attributions': ['<a href=""https://maps.google.com/maps/contrib/109195913366413233492"">muhammad irvan</a>'], 'photo_reference': 'AUGGfZlppGfs6-PdzozRuM_hd_nBdWwiIQpCExWPbJCbVu7bAYTDPc-R2_ttDaP4alRPkGDHoKQv6HyYgMw6RiOZ2SnERRpi26ANdlQ3-EV-IbFenNS4WcCIFqHeteb2tzoMoXX73yqmfttUl57m_0vdOiIh9w6UWSyejko_JCF0ea7lNC7P', 'width': 4000}]",ChIJdfwZdBwbLjARWnqXQBej60M,5.0,"['lodging', 'point_of_interest', 'establishment']",3,2.3222223,99.000501
"2XC7+CJ7, Jl. Mayjend. D. I. Panjaitan, Hutatoruan VI, Kec. Tarutung, Kabupaten Tapanuli Utara, Sumatera Utara 22411, Indonesia",Hotel Grand Kenari,"[{'height': 900, 'html_attributions': ['<a href=""https://maps.google.com/maps/contrib/101970590715942095260"">Supriadi Tampubolon</a>'], 'photo_reference': 'AUGGfZkeJRsCQsmGUQ7WGpa5BOiQuIPSiNDN_j3Ew9vCgr1_qFdycfa20TOLg2f0ekkz9oJNfyuHSGKziqoVLAxVYUA-u65cuM2Cu9Xo4MDcuCKuKGJt407wVOPt-9aJrsTxH_IqD93RUcBshMBvgqn2dOotC4lO0Gw5kuam5pdRuEf5Xieg', 'width': 1600}]",ChIJly-Bu_RuLjARoNWxX_K0wyU,3.6,"['lodging', 'point_of_interest', 'establishment']",85,2.0210393,98.96406089999999
"Jl. Muara, Sumatera Utara 22457, Indonesia",HOTEL & RESTO WATER BOOM ANUGERAH SOAMBATON,"[{'height': 2088, 'html_attributions': ['<a href=""https://maps.google.com/maps/contrib/105034996086137716170"">vitus polikarpus</a>'], 'photo_reference': 'AUGGfZnKOiGBcK-jzGAT-wZ_WhO8GMMH7IffnaGjuLoPzpyh8KWVcAsAJhQPbv2i6ihlIwgAN1roPxBrVp7QSPG2vRU_3AwQpPh6jboRxyxeKQnmOI5KJrPSybxvy5HAGVXipXHji8yQLruyuFHJl9xUC414jlXXxxYCsECt0V6lGiBBNQwK', 'width': 4640}]",ChIJS6aSO4kZLjAR-_slhQCF9sI,4.2,"['restaurant', 'food', 'lodging', 'point_of_interest', 'establishment']",29,2.319319,98.8387039
"24, Jl. Jct. Simorangkir No.24, Hutatoruan VII, Tarutung, North Tapanuli Regency, North Sumatra 22416, Indonesia",OYO 1520 Hotel Kartini,,ChIJsV_XyzhuLjARaV9-HhbOCGQ,3.7,"['lodging', 'point_of_interest', 'establishment']",3,2.0166745,98.992323
"72P5+X8W, Jl. Siborong Borong - Parapat, Tangga Batu Bar., Kec. Tampahan, Toba, Sumatera Utara 22312, Indonesia",Panatapan Almonsari,"[{'height': 3792, 'html_attributions': ['<a href=""https://maps.google.com/maps/contrib/100635470132630305961"">Ana Ismail</a>'], 'photo_reference': 'AUGGfZkAdlrVHYs9HHDCAIVg1jQ0zon9F6OSNP8QFc_TET8ovjTmuBsUyY-0NzrXZ3RckSbm9Hmabo7Hp0cWhQFnq3lm3kk-8CT4LASn2d-M6RLnvHOU0-V5sBdLrOYIHbmhAzp8j1qjdKqsEVBQM-iT3HcDzOzqt6TMPAfLTcCOT_ixreI7', 'width': 5056}]",ChIJs0NV27MaLjARCFhaG5NWiAs,4.2,"['restaurant', 'food', 'point_of_interest', 'establishment']",103,2.287496,99.0083128
"Jalan Mayjen Di Panjaitan No.103, Hutatoruan V, Tarutung, Hutatoruan VI, Kec. Tarutung, Kabupaten Tapanuli Utara, Sumatera Utara 22412, Indonesia",Hotel Palapa,"[{'height': 997, 'html_attributions': ['<a href=""https://maps.google.com/maps/contrib/107683574033766874461"">Nawra MT</a>'], 'photo_reference': 'AUGGfZlPOoJs9jm_V_y6VYTpoLejZCVJv2S7OfreE6zOvxPc9eRO43HlbDkfft22-Z15egbzNqeMdvG9zps11tksVP3-ybbuksU-PPDk_c8MNiLrV8XTW0jr0TtaAvhEKXVzMr7E4SVe9JrU1rBgfXfxUykFBSymZbiH95I-aMTxcZRtK_dz', 'width': 1080}]",ChIJEQvp4fpuLjAR1gCU3Hi1gPI,3.9,"['lodging', 'point_of_interest', 'establishment']",298,2.0219377,98.9660656
"Situmeang Hasundutan, Sipoholon, North Tapanuli Regency, North Sumatra 22452, Indonesia",Lokasi Wisata Pemandian Air Panas Sipoholon,"[{'height': 3024, 'html_attributions': ['<a href=""https://maps.google.com/maps/contrib/100862840924498901208"">Antonius Meilon S</a>'], 'photo_reference': 'AUGGfZmKtitJxjOWmFkj0w2C59fk8ryHzgolYegH0rColqUxOCWg3ezzTGE-rMtyrkgrvaKAhidNOcRfOlsbx4YaleNU8I1MwlZqIAqMMEHCgcerFlvxj0qqqImaWMb09C2a9uS3tjH1ojmHBOIgzNFTqKgJhfdcdo0CYm6GsLHcavxkLgQk', 'width': 4032}]",ChIJByqgK2dsLjARQE3DAwcLYh0,4.2,"['tourist_attraction', 'point_of_interest', 'establishment']",1623,2.0751659,98.944113
"Jl. S.M.Simanjuntak No.Desa, Tangga Batu Bar., Kec. Tampahan, Toba, Sumatera Utara 22312, Indonesia",Sopo Almonsari,"[{'height': 3000, 'html_attributions': ['<a href=""https://maps.google.com/maps/contrib/116600067264279707519"">matrix9367</a>'], 'photo_reference': 'AUGGfZmOYbdKxWCYxqP1gW3v45Sc0m48xky3rsKlG4JwjEXrrRWcxBhYtEVhA4kdBeChSW4g0S36sdE1uU87zRSbnnNmx4xOZznxoLkCj9A3tnEwOXNYMu0evRMJrXHqq6iyWWVOiMVkTfGJug2gpTQF5SGfRhKOaUC_iMSSqdl-Sa00uUgT', 'width': 4000}]",ChIJ3zYxwLMaLjARo2a5c-mOk-I,4.3,"['lodging', 'point_of_interest', 'establishment']",12,2.2872982,99.00831699999999
"2X8W+2J4, Jl. Jct. Simorangkir, Si Raja Hutagalung, Kec. Siatas Barita, Kabupaten Tapanuli Utara, Sumatera Utara 22416, Indonesia",Penginapan Golat Asri,"[{'height': 1968, 'html_attributions': ['<a href=""https://maps.google.com/maps/contrib/101042738749517980856"">A Google User</a>'], 'photo_reference': 'AUGGfZknMcEtkeDLFUeMUMMfhhwoyjJg1Ri9V5yMWB9Hfa0xMk_3roodjYsRe6abu6MoNRw6fep6UKEpLlP39vfjY5ZoK-ORUh1WlWkZbG3zfVEyAUq3p5OzvuT870t_vxmMiRes-eTUjYsx95mOHZbhF_7gbF6EsRu9GyYdE7-YW0jxRN53', 'width': 4160}]",ChIJBcDoYdNvLjARiEjDQP8rYpo,4.3,"['lodging', 'point_of_interest', 'establishment']",6,2.0150428,98.9966499
"Jl. Ir. Mananti No.07, Sitompul, Kec. Siatas Barita, Kabupaten Tapanuli Utara, Sumatera Utara 22416, Indonesia",Homestay dan Penginapan Kartini,"[{'height': 637, 'html_attributions': ['<a href=""https://maps.google.com/maps/contrib/115888509371325711185"">A Google User</a>'], 'photo_reference': 'AUGGfZm9Bb5bM0sLo4v1HAV_vB1MdNRowJrrR1-q76GZwPQw2FekOX_aSCGdFAouWNr6uLSX8jFKiObplhPomO0oHGiVK_66bPsrkHWZF2sIaGI9AQ0TgCo4lTwYfYcZSvAki0SmU44tiuSq-KyBAkhUvV7GwSSFLcfYc1RznqF813KsdH0I', 'width': 1365}]",ChIJJ57UdedvLjAR1OGGnI_muBw,0.0,"['lodging', 'point_of_interest', 'establishment']",0,2.0141283,98.9865093
"Meat, Balige, Toba, North Sumatra 22312, Indonesia",Gading home stay,"[{'height': 3000, 'html_attributions': ['<a href=""https://maps.google.com/maps/contrib/104251826234943507632"">arifin sihombing</a>'], 'photo_reference': 'AUGGfZk7kv322t6wXic6_vLcqfiQN56LkjhTeff4mD0CylQ2nVqJ_NXOL2GcqOj-7RuSOyX_ZgFUUR5anbds_c6wOWwUhZ4KkMMlKnsyjNE0H-Jl2qNSOEhHhTSmROfhV0_7RI7m4MzoIEfVQqRrSCVNtbydiGGqMCbZZIxHFj_rmmNvyUsK', 'width': 4000}]",ChIJ87oPT1kbLjARj7Gy6oJY3LU,4.2,"['lodging', 'point_of_interest', 'establishment']",6,2.3224415,99.00395139999999
"Jl. Sm Raja Jl. Raya Lintas Utama Sumatera No.Depan, Pusat Kota, Kec. Siborongborong, Kabupaten Tapanuli Utara, Sumatera Utara 22474, Indonesia",Mantha Kost dan Homestay,"[{'height': 4032, 'html_attributions': ['<a href=""https://maps.google.com/maps/contrib/106203896802141171213"">A Google User</a>'], 'photo_reference': 'AUGGfZkMCU7vujFDNgupzJm4Vzx3F6iCYu7vENQZ1i3Z6TparHgD8QuU8b0mkrR8LWGYJGYyiJPTkoslBM_TjcVz1QbBjlxhJ8WCTkAcwe_A8wzQXb1BSx61MNCl8PqzPd9k004Fwzgd0KjVx2gKnrQEobm-B3QLKDPvOYW4KC1mDKxGpt37', 'width': 2268}]",ChIJX_afLI4RLjARt6B5jo2hMUM,4.8,"['lodging', 'point_of_interest', 'establishment']",61,2.212066,98.97247089999999
"Jl. Raya Meat Dusun Hisap, Meat, Kec. Tampahan, Toba, Sumatera Utara 22312, Indonesia",Roseâ€™s Homestay,"[{'height': 3072, 'html_attributions': ['<a href=""https://maps.google.com/maps/contrib/114728086173123567780"">A Google User</a>'], 'photo_reference': 'AUGGfZnB23-wYOGyj-gIa-BKoJRUkamSxY4EOIYMO2a_2ybFiniK_LzB9Bj4KM58gqBFM88Ku425UhpRI5AxesLEjEJVtNgFCNP1mL0WuTYNS_6116UW3dwzX8FVTaBXf5EIlMSx8r7RTHnV2S_hEYww-eDR4p5WtD7Fs4jR4XgouPmsd9Nj', 'width': 4080}]",ChIJpRZT1JEbLjARRtskE2iRLxQ,4.9,"['lodging', 'point_of_interest', 'establishment']",9,2.3220103,98.99670599999999
"8292+R49, Meat, Tampahan, Toba, North Sumatra 22312, Indonesia",Home Stay Bagasan,"[{'height': 3456, 'html_attributions': ['<a href=""https://maps.google.com/maps/contrib/111113193243101926461"">friska pestauli</a>'], 'photo_reference': 'AUGGfZkyZVH77DL_1pjEtM4Gvp_Utp4JE5ssJMYQ0w2IeMKA28q-fbMcrTntafnIrcLEFgyIJd9CDphVZY4G7_0GDWpJPtO-vxS2h9OWt94ktx-ntM2Wr1nMzXcrEvv8U7Ni0Tz3h8NgK-Ml71mybuP_j--2NLnV_7KoqM7i2pAvXOYaYcs', 'width': 4608}]",ChIJS1kdjoUbLjAR2Vbz9UlJf9g,0.0,"['lodging', 'point_of_interest', 'establishment']",0,2.3194936,99.0003221
"82C3+H46, Meat, Tampahan, Toba, North Sumatra, Indonesia",Ginny homestay,"[{'height': 3120, 'html_attributions': ['<a href=""https://maps.google.com/maps/contrib/104151391289177848091"">Donald Siahaan</a>'], 'photo_reference': 'AUGGfZnBV6yEK-M48iOXd5ySCJwn0afPdC4oAZo76gXmvdIqTe_mxSPN06hWt6zBmw-pXOGAII8crSkdCfIAz2-8IvxLQg2WkJY4FtV7y6T9XYwCxI6BJwW6A_MK2J5Zykd8Yse590DL87IBXe4_0oELQXpF36AFOdymdYA4y72QRB3s2QLy', 'width': 4160}]",ChIJgw3mqBkbLjARSftFY1i1nDk,0.0,"['lodging', 'point_of_interest', 'establishment']",0,2.3214167,99.0027731
"Jalan Damai Laut, Manjung, 32200 Lumut, Perak, Malaysia",DoubleTree by Hilton Damai Laut Resort,"[{'height': 1667, 'html_attributions': ['<a href=""https://maps.google.com/maps/contrib/101865755939028976875"">A Google User</a>'], 'photo_reference': 'AUGGfZniNN_8Lg-PHGVzkYFaz5GctAcbhLRfKQ-uceDQgGGI5v-QFgp202UAmbdLHQQMPzbXWK5YJ04Fkz1ILC0yMMHJ5m0BUgnPGeOmGkvBssna6sjB_-eLVCkySIrKMQgMlDF6Cns5oT2DsejYrsh66sPQMWoclsn-6O4dHGvYnqPeOkYa', 'width': 2500}]",ChIJr5AQqfDVNDARjSWhorUMxaQ,4.5,"['spa', 'lodging', 'point_of_interest', 'establishment']",1199,4.2590308,100.5914472
"Lot 203 @, 366, Jalan Iskandar Shah, 32200 Lumut, Perak, Malaysia",The Orient Star Resort,"[{'height': 3008, 'html_attributions': ['<a href=""https://maps.google.com/maps/contrib/116488443397808137589"">vipin krishna</a>'], 'photo_reference': 'AUGGfZkrC1rbKpZ4Qsl2OZ6ENusy-duvxhyeAf-qbXuWdEK7tZzRvi223Fwuqs6Nnh1VDeZKPOFuNutBtr3mUQ-G0jOoddPF2RBlZAv_FxKVZ-mX5niDzTMamsht9cl2gRQVSGKemxPmk6pRUA9F2FAiPJPw5sLdsPF0Hb7pRiQYim19od1m', 'width': 4000}]",ChIJqzcpcFEsyzERCyXjFL952gs,3.7,"['lodging', 'point_of_interest', 'establishment']",1603,4.233537099999999,100.6298299
"Marina Island, KM1, Jalan Utama Marina Island, 32200 Lumut, Perak, Malaysia",Rockbund Fishing Chalet,"[{'height': 2268, 'html_attributions': ['<a href=""https://maps.google.com/maps/contrib/116814797096453118213"">Rockbund Fishing Chalet</a>'], 'photo_reference': 'AUGGfZnKi92Aj0ffH9sgZv81EGztj1wughUFqjqe_ERXvJ9HRzxig30H_8l4_NhkyukNQDHgKwcRn_0VEvFMr7eau4fV1njmZisaV5-0cr5H5lbHWjUluokL4Vl7ozTzTFC7kbYms07Ybzjp3weL1CoUnbxxs1ImzlCHHxCRagsNkAku0wFZ', 'width': 4032}]",ChIJOVWMGSDTNDAR1uXEheMfDKM,3.8,"['cafe', 'lodging', 'restaurant', 'food', 'point_of_interest', 'establishment']",1253,4.2026732,100.5979027
"Jln Teluk Batik, 32200 Lumut, Perak, Malaysia",Marina Heights Hotel Residences,"[{'height': 385, 'html_attributions': ['<a href=""https://maps.google.com/maps/contrib/101530186007346354600"">A Google User</a>'], 'photo_reference': 'AUGGfZnmhB6l4_jOECsZxfKQ89zJorgwD8HIkHi-M3O6UAm0hYcdU4QEX2ZIMqI6sBhnXkPpkXdGbmtVg2huGtsbTuNesOYNiiicSRPkO6x0OFuThCSReLEYprV776SUdKYRzKuhPqlBr4KnV_tmzROvLAFNJeiZcfyDKwu84F3Q8sNZNiTH', 'width': 684}]",ChIJW8zq48jTNDARd3JvMnrYZLU,3.4,"['lodging', 'point_of_interest', 'establishment']",262,4.201454399999999,100.6094512
"1, Hala Damai 2, 32200 Lumut, Perak, Malaysia",SGI Vacation Club,"[{'height': 3024, 'html_attributions': ['<a href=""https://maps.google.com/maps/contrib/110170787910682950426"">ainiraf83</a>'], 'photo_reference': 'AUGGfZmMLZCoBf_61ygrOrl0kOCraKF_qBR18E91cU3811C1zrU4gHisqM5H4e9_0R51grY8Fn9bYoc8Y1OSKr6E-L_r9wLSOVGwqfwiOQNoJd4wASQ2swuv3XjvBuBoHBJvH1ClAjcvBpY8AcboKaLP0RB7wpsNR44RIv4qnaK9GsbZ9Spm', 'width': 4032}]",ChIJf07MBL_UNDAR8Fu7lSKQwnE,3.8,"['lodging', 'point_of_interest', 'establishment']",735,4.2592523,100.6009296
"KM 1, Jalan Utama Marina Island, Teluk Muroh, 32200 Lumut, Perak, Malaysia","Marina Island Pangkor Resort & Hotel (Suites, Function Rooms and Convention Hall)","[{'height': 1348, 'html_attributions': ['<a href=""https://maps.google.com/maps/contrib/104067443302437011798"">Marina Island Pangkor</a>'], 'photo_reference': 'AUGGfZlwB3kxzdhTuTow1ssujYRtxOOhqzmDZqmlPMkXgCguxENe0FSGRRG8QOIfFnZ0wcyF0x8VJlyi0bzx5Nv8OWux4MdZeMINkZNpwb8pcHkXcL7ZaL15-rSJytzVgWKoWtF5vj73wYRu34_WufgHzmEu9oJfhnQL4EtCSjMl3vX-d7r5', 'width': 2041}]",ChIJ_6Iv1y_TNDARddVD3j4hd7I,3.9,"['lodging', 'point_of_interest', 'establishment']",1872,4.2093417,100.6028061
"2479, Jalan Dato Yu Neh Huat, Taman Samudera, 32040 Seri Manjung, Perak, Malaysia",Hotel Sfera,"[{'height': 4624, 'html_attributions': ['<a href=""https://maps.google.com/maps/contrib/115361990872339271660"">raja</a>'], 'photo_reference': 'AUGGfZkFeW57baxdvX6l2acrCLnHdag8ERJobQ4eM4pVeRcX9tMfBW8YS5M0ro02bjcR21YmnLJ97fUrniJdKUgkriUMtnWXYSpt8b2xIHzW7MFN6kgiktCUJ5KD7O82abz7aE8UbLzC1rSbzK6OBjsK6qtGtkm_bn1RiUOWnL0TcNL3V85r', 'width': 2600}]",ChIJnxfvdf4syzERWdX89iq9IRs,3.8,"['lodging', 'point_of_interest', 'establishment']",1180,4.201308399999999,100.6603469
"Persiaran, Teluk Batik, 32200 Lumut, Perak, Malaysia",Virgo Batik Resort,"[{'height': 3000, 'html_attributions': ['<a href=""https://maps.google.com/maps/contrib/111079093051547477394"">Ejad Chadz Nordin</a>'], 'photo_reference': 'AUGGfZmreH3pprAD6NIukanvVPZYxPPqmEBpzi3rrWhhZK_uBenK7fcWeN9icQIaAEBQw0EHzWM2ux1B9Yj3uKMmZxwZ8aE2SFduq4UADzDe-jDVwT-wgTVrWReERjB5AFN1ehniXGxCJOF8ijGdN7wyuqilOtOa7nfXY1WSn1MN5J0dPemV', 'width': 4000}]",ChIJ6Tp-7girzTER5KMm19JXb8c,2.8,"['lodging', 'point_of_interest', 'establishment']",1082,4.1892383,100.6104642
"Lot 5260 & 5261, Jalan Lumut, 32040 Seri Manjung, Perak, Malaysia",Ritz Garden Hotel Manjung,"[{'height': 3968, 'html_attributions': ['<a href=""https://maps.google.com/maps/contrib/107612044526808239875"">Muhamad Zaini Che Ani</a>'], 'photo_reference': 'AUGGfZkSkfCJS4xq97lStzmLRjpRDuV11I3HxDBuMY08AnfKYH6a8-mdBJIE3pkq-RGagBb5kJoxoMpkJqfe4Mr-FLRYMFyY77p-GcgHPRw2iBlxCKa9mq1vDvNLRIU_RXdGbpkWJLXn4htDwp2-RsudU7LopEdQxq6_e4ECqCohRDkAh730', 'width': 2976}]",ChIJ5bNiBf4syzERsYjGGxPxMBM,3.8,"['lodging', 'point_of_interest', 'establishment']",852,4.1981094,100.6591508
"KM 1, Jalan Utama Marina Island, Teluk Muroh, 32200 Lumut, Perak, Malaysia",AnyLodge Waterfront Marina Island Pangkor,"[{'height': 2698, 'html_attributions': ['<a href=""https://maps.google.com/maps/contrib/107638897255908751905"">A Google User</a>'], 'photo_reference': 'AUGGfZmI9vij8aNsUrjGn04fsf2QSGco3eD1AuSIjdDKkkcy4IBE5dUsn4NW8PHpKg6nNf1sr_080kf6COAHaP6T76eIEpDsWZA_euySuaIu6c75czyJjoLyGAQRfEVP2SgALNTZCyo1XByPx2MbFhYK5611JBz23xTA_F-KHkO-iVA7XNUF', 'width': 7194}]",ChIJl0A4UFnTNDARFE0Xo2301YU,4.7,"['lodging', 'point_of_interest', 'establishment']",39,4.209655,100.6030645
"Lumut Waterfront Villa, Jalan Titi Panjang, 32200 Lumut, Perak, Malaysia",Mornington Hotel Waterfront,"[{'height': 3456, 'html_attributions': ['<a href=""https://maps.google.com/maps/contrib/116665030507447558876"">AHMAD ABD RAHMAN SABERI YUSOF</a>'], 'photo_reference': 'AUGGfZn71dic7XUrI1gPP0M0N0FyMJYQJ0TBXEDZCNBhgxYM61806Q9GwzPjtGFDFTf0K-UqSjmoLtWtbkGX6ut3CqUDPQNUUopF81hM3nnGnjjjiDY6kQ0uxzzwFjm-QdlGtKR84weWmsmJhAg01pDFHwQCsyIgSJBb8bTUSTp-0vVvi6af', 'width': 3456}]",ChIJmRJfhbUtyzERDzL9-iljpLk,3.6,"['lodging', 'point_of_interest', 'establishment']",71,4.2351472,100.6371485
"Pt 4142-4144, Persiaran Sultan Yusuf Izzuddin Shah, Perak, 32200 Lumut, Malaysia",Lumut Suites,"[{'height': 3120, 'html_attributions': ['<a href=""https://maps.google.com/maps/contrib/114389006197375990677"">A Google User</a>'], 'photo_reference': 'AUGGfZmH7vVabjvo31iTg4vGchHfkKkpW3fT-SqUFZbXxAIYTfvmIIHgWEKfj41cRGcMt4ScJxmDledMXn2RPyRgBUr6DtsQHzLTw7ts6qAUjaj5KKjGeOLokw1pknxMsIwcjehiu0q365XL7IcsI_hCXd7hRH-cPHbtErAL1C_SGYCe-XVu', 'width': 4208}]",ChIJmeRLna8syzERjOf4XJ8rJOA,3.8,"['lodging', 'point_of_interest', 'establishment']",416,4.2340034,100.6301343
"No. 28 & 29, Taman, Persiaran Pantai Impian, Lumut Pantai Impian, 32200 Lumut, Perak, Malaysia",Pavilion Inn Hotel,"[{'height': 684, 'html_attributions': ['<a href=""https://maps.google.com/maps/contrib/101760820519363120000"">A Google User</a>'], 'photo_reference': 'AUGGfZlWH6DFzJB8tI_dDPbj8qsj5jkAXcz3PB4nUUF96Md1uqjmFQH-u0XH_1BzsvbVx-6i63D7weq33hxcqwnxm1MhU4xf1MpWlmtC00-iS4e7wdjckIPAKFXtd92-FsrJILXdHtWshsLU0asTZBhmg4azbwEbXq0XTNs65H0YMXdKDa5d', 'width': 912}]",ChIJ-fqBdJUsyzER6UjqMqq8ndY,4.0,"['lodging', 'point_of_interest', 'establishment']",21,4.22467,100.6425397
"PT 4189, Jalan Sultan Idris Shah, 32200 Lumut, Perak, Malaysia",Lumut Valley Condominium,"[{'height': 310, 'html_attributions': ['<a href=""https://maps.google.com/maps/contrib/102112770452402635643"">A Google User</a>'], 'photo_reference': 'AUGGfZn_gu83mpYxpd4u--b80LvFcMdJAloAcgBXKetP9chOM6iT15XPaK_6-Oj347jglUO9xz8k2OZbs0386vrH-mzSnSFGmsCDqr95Tncik-qV5WaJitLl6DnxpbVAetvlPoYYGIOEst-JlHOaVcIcDc1d0gk6mlHakVCjBOUKZBYgZlg', 'width': 310}]",ChIJUf9ihqUsyzERqfk0Pb1BGLY,3.6,"['point_of_interest', 'establishment']",372,4.231911,100.630574
"No. 93, Jalan Titi Panjang, Perak, 32000 Lumut, Malaysia",Phim Lum Hoi Hotel,,ChIJ_eeoqKMsyzERcEUbn6-EQdw,0.0,"['lodging', 'point_of_interest', 'establishment']",0,4.2342304,100.6386765
"No. 1 & 2, Jalan Permai Jaya, Taman Permai Jaya, 32200 Lumut, Perak, Malaysia","GM Holiday Hotel, Permai Jaya","[{'height': 3120, 'html_attributions': ['<a href=""https://maps.google.com/maps/contrib/117923690690180211942"">Megat Panji</a>'], 'photo_reference': 'AUGGfZmzQRp6zhrng3XG8RpbQ99T_n0NUMR4HH_FrERfQKPZGXFAlhKxlk5I8hIK3rHVSIw-PX4IzkDtZEJzjTTIPnOPLcJPncaBue18jAqiGQwPW-AeGS1EBTRx9zCTJMzvpYyaSQm8W5nz6fgX89FVzhZ-wNMfd7bajsAx5XEuaAU9U6NY', 'width': 4208}]",ChIJG8HuJNosyzERmulX5mN-kFc,4.1,"['lodging', 'point_of_interest', 'establishment']",258,4.2067463,100.6327797
"Jalan Rpa Pangkor 3, Taman Desa Pangkor, 32300 Pulau Pangkor, Perak, Malaysia",Casuarina@Pangkor,"[{'height': 4624, 'html_attributions': ['<a href=""https://maps.google.com/maps/contrib/114607613714344970766"">Syazreen Akhqma Othman</a>'], 'photo_reference': 'AUGGfZnvJkPog9acJuwrwNL_XZIqRMmNZs8rDTc2o9XCSxpINqK7CNA7tHh89DrtAZsTwygctyaGAoRec952x1_MkBQImmj-qcQMalSX8DB1CZSYoTf0WRLO9V0FLQPnEHQ2bnYYHqfxZJaMoIhPChRpiV4RUmrHiC_SnNI59LaiVzrccWCG', 'width': 3468}]",ChIJzSUMdHPUNDARgVfUKhN8f2U,4.2,"['lodging', 'point_of_interest', 'establishment']",271,4.248609099999999,100.5546355
"331, Jalan Titi Panjang, 32200 Lumut, Perak, Malaysia",Lumut Country Resort,"[{'height': 2160, 'html_attributions': ['<a href=""https://maps.google.com/maps/contrib/110641155896497224083"">FEI TYF</a>'], 'photo_reference': 'AUGGfZnGwDWdEDC2pTdI9hp2Wc4hHByjk0GRlzyMtSv0YP8jaYHQP2vCJMLKSwmo5UM0MDzy2uZIPH39fRg1tsseGIMocJMR0nIhtJ7T9AhxMhGxq16ieEs9R6Kbnftdgzfq8BXkp0k16PezQ0sbOMwMakBTxXRbkyszpy8QusdIbPPYY_ao', 'width': 3840}]",ChIJvYpDjKMsyzER0drSxRjjWsQ,3.5,"['lodging', 'point_of_interest', 'establishment']",27,4.235049399999999,100.6381111
"Lot PT 4157, Jln Sultan Idris Shah, 32200 Lumut, Perak, Malaysia",Lumut Hotel,"[{'height': 864, 'html_attributions': ['<a href=""https://maps.google.com/maps/contrib/107069976073394992531"">A Google User</a>'], 'photo_reference': 'AUGGfZl--oFekI1bOaTK1jEAxkXZpKPXtUhiRO8oetQfZ9Bduf8pfx-O9DebThxxOmLyMupEIaR-YeBA3p6XlyrbAPbR40rNRlkE4M0bnVbjRF0b-79VJgO-8wuM7xYr5BZQ9stS7_8Vt0agg7iY1O6WdQNpx7y6WezGMA_gpeWTguyfTGia', 'width': 1600}]",ChIJaQivHSXTNDARzsvzg5TFYws,4.3,"['lodging', 'point_of_interest', 'establishment']",165,4.234657299999999,100.6311928
"32200 Lumut, Perak, Malaysia",Hotel Indah,"[{'height': 4160, 'html_attributions': ['<a href=""https://maps.google.com/maps/contrib/118029852967300861928"">Norazhadie Nora</a>'], 'photo_reference': 'AUGGfZnLgqXbfUgOa4KbVg6pq4gaMR-qbAfmcjdtk9OWhFZBjl94sKuAWhvPIOY9cQMUGzXBUHKBjlJMMIu5N89YVwB0Wqi5le43R45jWSd3BN6cbQbnjMdx5eSsj95-_lm1wCVbOQPzy1UhShvFs75CS3RTu_DC4tlCCcGsdKTYvmNNVvsP', 'width': 3120}]",ChIJaXyc8aUsyzERo5YZIBJ_1k0,3.9,"['lodging', 'point_of_interest', 'establishment']",144,4.2356681,100.6314016
"No.11&12, Jalan Permata 5, Taman Bukit Permata, 32200 Lumut, Malaysia",Star Bay Hotel,"[{'height': 2368, 'html_attributions': ['<a href=""https://maps.google.com/maps/contrib/115411376152154891115"">Leon Tan</a>'], 'photo_reference': 'AUGGfZkYC3vD4UyTdjsUe_2BsML-Wxhxli-jBppucTKaia1Kpenu9_5Kx7TrKR1-lgDDWWCs-q59Kic2YlS-64arvE46hTNzD3vikdpuHof2lneoy6cDmOn_vfT-l6B_w1UYXEjuRY-0zKKnpQBwJOdl5tam-xhRzv7IqlyWmCV1Fj0MZbo', 'width': 4208}]",ChIJD26V6dssyzERC81ptt7hHK0,3.6,"['lodging', 'point_of_interest', 'establishment']",424,4.207165,100.635555
"4145 - 4146, Jalan Sultan Idris Shah, 32200 Lumut, Malaysia",Happy 92 Hotel Lumut,"[{'height': 3120, 'html_attributions': ['<a href=""https://maps.google.com/maps/contrib/108540476267063278027"">zaimi zhnd abdul hamihad</a>'], 'photo_reference': 'AUGGfZkk1jT_JlgCu9_1w0W3fqThjYNrPDOK2RiwlWy0dwnMVW91nYXPsLIFQwONxpI8yaT0F8rQzCm12U_hU7Q7ouA1Ni5YqTGo-SDQdhb83Ig-Pd0fTmhbmsjBp5bAuXCqa1me2Ds0KOby4iVMOltfQ6CgHobaWlxvNyMF6VtGDDov21g5', 'width': 4160}]",ChIJIXaIeK8syzERhsD4wLA0l0Q,3.9,"['lodging', 'point_of_interest', 'establishment']",32,4.2341009,100.6303963
"Manjung Hotel near Ikan Bakar Villa Lumut, 15, 8 m, Persiaran Lumut Permai 1, 32200, Perak, Malaysia",Super OYO 44083 Hotel Orchard Inn,"[{'height': 427, 'html_attributions': ['<a href=""https://maps.google.com/maps/contrib/114943344579011225082"">A Google User</a>'], 'photo_reference': 'AUGGfZkfbCpH8qAjhc156dBLw25KCAJDa0OWlZyMgrzI4HjITmctquNP9sOE-6Fw696Ki3frsUms5V8yM0bp812dpQTfc2Y6Xv42O_5SDtChn0Zj-xB4fPvelFghJ-Ao_G7uYAAyl67cixveLTp_zGIOyk-cMH6zl6msT6GuVD8jTTOEFW2t', 'width': 759}]",ChIJp_kk-b0syzERjL7NuIOjemk,3.8,"['lodging', 'point_of_interest', 'establishment']",91,4.2268374,100.6420152
"4118 &, 4119, Jln Sultan Yussuff Izuddin, 32200 Lumut, Perak, Malaysia","Brezza Hotel ( Pekan Lumut, Perak )","[{'height': 3280, 'html_attributions': ['<a href=""https://maps.google.com/maps/contrib/112418574364483291937"">A Google User</a>'], 'photo_reference': 'AUGGfZlL9Tlc9LqOiZOQrFhyoXswVa2eu9EYE-nL_32gYV2OTAUS5EPxIj_hAv67Q0w4HDSls9sh2hkDbgz06pBYQyGdxwUgSlROHt9XLD0dlT1t1n52aLo27Oz1QW1H0SwXqyho6UUTXaVG0XMncIL0VWBmbIzCMQ4pIxgOGn7K4ovEmdM0', 'width': 4928}]",ChIJ-xgmYq8syzERmhitlA4yJF0,3.9,"['lodging', 'point_of_interest', 'establishment']",521,4.235060199999999,100.6308579
"38, Persiaran Venice Sutera 1, Desa Manjung Raya, 32200 Lumut, Perak, Malaysia",Venice Fajar Hotel,,ChIJqTQPvOcsyzERBdI0rxn9dSI,3.0,"['lodging', 'point_of_interest', 'establishment']",5,4.209455999999999,100.6439073
"Jalan Titi Panjang, 32200 Lumut, Perak, Malaysia",Lumut Waterfront Apartment,"[{'height': 3120, 'html_attributions': ['<a href=""https://maps.google.com/maps/contrib/103349224406101638996"">Amm Zee</a>'], 'photo_reference': 'AUGGfZncf0P3SRjmHpkXDIvD_IGWJSk65JuWPouUbWoj-dlu0fdPdMjzDS42t_DAFIezbYFbMhDfO9UNgokQY_rvN3G9Kxg7fXA8cRH4BeL0phA3o3kZiDsgfYn1yxXJ61iH_04PBqYovaqYp9-EZBd5-2yQIqC13GyQOaW96vDzybYFHgwK', 'width': 6784}]",ChIJdaUAOf4tyzERt5MH05H0L5c,3.4,"['lodging', 'point_of_interest', 'establishment']",206,4.2355178,100.6370986
"A188, Telok Batek, 32200 Lumut, Perak, Malaysia",OYO Home 89484 Teluk Batik Resort,"[{'height': 427, 'html_attributions': ['<a href=""https://maps.google.com/maps/contrib/113378891599936919801"">A Google User</a>'], 'photo_reference': 'AUGGfZnBNxvrICz7hA7k8Adz8Y2uyY5DGm95pewD_A2scK4QP5kGf1f_fWDUq3FHSCwSYwUIAnrRxBVKvFFIg2gxlbCeRtCCIlderrcLlmy_bdhRiCKgut8_YrdleGMH3eB2qJSDJ-b9dWq-Lkw_5u-VqBuTwku_kOGBJm6L6LYk8XE4GO0', 'width': 640}]",ChIJsVRI8dfSNDARedDUZlc9rE8,3.6,"['lodging', 'point_of_interest', 'establishment']",643,4.1908879,100.6099446
"466, Persiaran Venice Intan 3, Desa Manjung Raya, 32200 Lumut, Perak, Malaysia",Bungalow Paradise Home Venice of Perak 466,"[{'height': 3120, 'html_attributions': ['<a href=""https://maps.google.com/maps/contrib/105778998620688282490"">Danesha 0514</a>'], 'photo_reference': 'AUGGfZnN2tuNSBb-DqcxWLnQbZlKQ5LI7fj3f87VaKKTynd8rv9ZA-ovUGm4XH0xk-WBVK2yPDaliue4fjFxV5jV2OIGKD_2sz3N-ggVvGkvrkdwo0QrIbs_dXm0AOxMBHN5QzGOA01ALC8jgX7a0Z_feb0O9wnnmQSUdcYnS_ikV5ncZMZT', 'width': 4160}]",ChIJO8yaYeMsyzERnzHsv8DQLD8,4.9,"['lodging', 'point_of_interest', 'establishment']",8,4.2058978,100.6517161
"Batu 1, Jalan Lumut, 32000 Lumut, Wilayah Persekutuan Kuala Lumpur, Malaysia",OYO 89983 Lumut Villa Inn,"[{'height': 427, 'html_attributions': ['<a href=""https://maps.google.com/maps/contrib/111175268891582305290"">A Google User</a>'], 'photo_reference': 'AUGGfZmjznAylC1VEXxDTe_PZXUkPSVzazDsJVOXJChfq0PFpJvaV1xkAkP9kH5XTvubXIpBv1F9jMclRE_ZQQmCX4ILrLcgmx4exGZdo0_0VRffqvzdGYGlHQ_CdueHa5IEQAjnreZALZbVtX0-TZ9fXI068-Ve1IMLgPLcGPnJk4r7QMEl', 'width': 640}]",ChIJkV9cSt0syzERb669t9-aZ44,3.3,"['lodging', 'point_of_interest', 'establishment']",94,4.227454499999999,100.6426551
"94, Persiaran Venice Raya 6, Desa Manjung Raya, 32200 Lumut, Perak, Malaysia",Cinta Homestay Pool Manjung,"[{'height': 3024, 'html_attributions': ['<a href=""https://maps.google.com/maps/contrib/101887278308434386759"">A Google User</a>'], 'photo_reference': 'AUGGfZmVO6-aGJC-V71HVFtuL8UIdJ_R8XjJ5gxFJgmJ7G78QDuMf_Y-5tnq_SB3Epbvq9iulOtSBdzwbUX7UDbTeVqk6JqWZcW-hlJhjsleG4pxts5b3AvfO8d6SyXXnkeDT1JFcTr-t3ePeoDMQ0oIZMaOkKOlKiN0aB6eUsX4PeMijeJX', 'width': 4032}]",ChIJ3RJSu30tyzER9Bi31R7tDf4,4.9,"['lodging', 'point_of_interest', 'establishment']",24,4.2062699,100.6554913
"No.8 & 9, Jalan Permai Jaya, Taman Permai Jaya, 32200 Lumut, Perak, Malaysia",CK Hotel Lumut,"[{'height': 900, 'html_attributions': ['<a href=""https://maps.google.com/maps/contrib/102537380700561055972"">A Google User</a>'], 'photo_reference': 'AUGGfZnw1q0kPeZFlAugtXSh9I_PN9ZaRUEMKNGR_EIxRvtkKUlECCGc2FhhlQXSi9ufhdNhbYHc1jPJ-Rt0dFSrXMfY69fpOl7_JtxOzCXYEb8G-yVD8u7BkejSwVgblyz0Y4JGx3wsvnV9cV8fDaBaXCWPcThcjEAquL1JxSZ-CGjloJoo', 'width': 1200}]",ChIJUW12Tt0syzER66fB3i-TWuk,3.9,"['lodging', 'point_of_interest', 'establishment']",244,4.206756800000001,100.6331596
"14, Jalan Titi Panjang, 32200 Lumut, Perak, Malaysia",DJ Hotel Lumut,"[{'height': 3000, 'html_attributions': ['<a href=""https://maps.google.com/maps/contrib/109611110588048356519"">A Google User</a>'], 'photo_reference': 'AUGGfZlsb6Yu7fIe3Bg5eRUbZ6zgdLD25SwajbOYqH6UxQIZsUEv1Jf5FUnscmycafTs002DlsDEcdgyMVqYp-w1BrIYdCa7LnMIdkBmSU3e9uMBgJ-vFGPwO_F6KGNHwCl5_DBpX9M6-rzzbbr5vwa0D8_mc9Gs46ogPqOqepVIXrnM3CB9', 'width': 4000}]",ChIJ7STAlf0tyzERxdy48kr9eDg,4.6,"['lodging', 'point_of_interest', 'establishment']",28,4.2353676,100.6349263
"58, Jalan Titi Panjang Lumut Waterfront, 32200 Lumut, Perak, Malaysia",Homestay Lumut Waterfront,"[{'height': 4000, 'html_attributions': ['<a href=""https://maps.google.com/maps/contrib/107890763433814202031"">A Google User</a>'], 'photo_reference': 'AUGGfZk22B3QqdbDD8RiJbNagBu05a4uP5532rIzJ7NxLkEEeK6CLU6i0_HVUHyREp2MV_fRScb-1rag_7czhPjvYNWDP-WwzmxXdyJTjUePOUevGgIg0Uz7cZbGxJyVMGE4qZXSWUKeSQ0LmSfmjcub_p8egePoXbCHAetrfctl_gly0Td5', 'width': 3000}]",ChIJ_4f9vJYtyzER5V4jkeMfZOY,4.8,"['lodging', 'point_of_interest', 'establishment']",6,4.2351921,100.6370096
"L8-01 Marina Cove Resort A188, Jln Teluk Batik, 32200 Lumut, Perak, Malaysia",Eaglenest Guesthouse - Lumut,"[{'height': 3024, 'html_attributions': ['<a href=""https://maps.google.com/maps/contrib/106227955656192443990"">A Google User</a>'], 'photo_reference': 'AUGGfZlETlSgBmsz2uwkOKdgW3BP8qu6tc_wdqaoGpObDmK7DP7SZrCc8ndfIMEbJ8owhvwocpu0CDLoFpyWt-V0RB5qpCrRnxgO4RiRt-HL7DUd45R_Nigw92jpyjO9TN7yT0anrjRsnZV8QikvbMpLO3TWB0Lbpjv9aN9y1gXIJnpdH72Q', 'width': 4032}]",ChIJwwgwt9TTNDARAhYdS7I3hZ0,5.0,"['lodging', 'point_of_interest', 'establishment']",1,4.1998034,100.608093
"Persiaran Swiss-Garden, Jalan Damai Laut Pangkor, Malaysia",Swiss Villas Damai Laut Hotel,"[{'height': 2976, 'html_attributions': ['<a href=""https://maps.google.com/maps/contrib/100546811129396069543"">Eu Jin Ang</a>'], 'photo_reference': 'AUGGfZllb3fg0jYJ69VokbYXUC3856pWYsAHnCUZ5bnFSyX_B2FOchqTaIpOhg5_gBEbpu7jK_id56sHIOyzORBUR71Pqkrhsto3Pq_HXk6cYDh2qPojZopKlUSsl17Mo8lUHbL8vFCTF9PSOzx5NGjn0KOaweZjmXUVMlbM-VYLI1D7XRbY', 'width': 3968}]",ChIJxzy2tZbTNDARk83TdgQutMc,4.1,"['lodging', 'point_of_interest', 'establishment']",131,4.2602671,100.5960927
"Taman Tiara Idaman PT 8720, 32200 Lumut, Perak, Malaysia",Homestay Villa Teluk Batik,"[{'height': 3960, 'html_attributions': ['<a href=""https://maps.google.com/maps/contrib/117970372338102632599"">A Google User</a>'], 'photo_reference': 'AUGGfZkxiPAiMJb4U3qrl0fYmySAF88O_v-gPeFJ18uxX3tKbLfLn4UtV6OAaBJuGp38oRwTJPpYr-3_SXmxsZBUclGngoNRMVEXEuu_BUoQDBYYDNqHI2ayZ1MX7dJyu2SKk6j63740QiHzobd8_IhpHz5l--ReKPtcya2lFnEKA60PYuGw', 'width': 5856}]",ChIJfzseoQjTNDARpO58Brzu634,4.7,"['lodging', 'point_of_interest', 'establishment']",23,4.2099337,100.6133408
"Lot 13 & 14, Jalan Titi Panjang, 32200 Lumut, Perak, Malaysia",OYO 90929 DJ Hotel,,ChIJE5KXQKQsyzERO1G9xzvkUQo,0.0,"['lodging', 'point_of_interest', 'establishment']",0,4.2353134,100.6349055
"No. 3, Jln Taman Permata 5, Taman Bukit Permata, 32200 Lumut, Perak, Malaysia",Garden Inn Hotel,"[{'height': 2340, 'html_attributions': ['<a href=""https://maps.google.com/maps/contrib/104618946366096470678"">Harlyza Irwan</a>'], 'photo_reference': 'AUGGfZnQX6YgEkBFCT4U8-FLxPLab9faGvbNdQyMYCAIzr9xo0K2L1ESKVv00XiQQE7FCY3g4HJAyhQF94bx8qzTpNA-BNYkbyx4G9a_fzeZurJ0v37fysLZZb7HBp3sT4hsagIv8QC-Ak-sDLlJIsNpVtwEvDkTkBSlq-IQRtbL83yK1vrz', 'width': 4160}]",ChIJabh5a9wsyzERTmGf3RfIjjE,3.6,"['lodging', 'point_of_interest', 'establishment']",28,4.2068386,100.6350684
"32200 Lumut, Perak, Malaysia",SAFARI ROOM STAY 5,,ChIJZfW5c6QsyzERCp2QCtHmySA,4.4,"['lodging', 'point_of_interest', 'establishment']",13,4.2350731,100.6360673
"Lot 4084-A, Jalan Padang Tembak, Taman Padang Tembak, 32200 Lumut, Perak, Malaysia",Lumut Cube - Homestay Kontena,"[{'height': 4016, 'html_attributions': ['<a href=""https://maps.google.com/maps/contrib/110030739261584061095"">A Google User</a>'], 'photo_reference': 'AUGGfZknE6Pzi2_p0LsYBm2em5hf39LK-0521J0fLPXwEzueAMMQhimHPTLHZ-gYaYuuBvI-uzMqWLNruiHFbHhWHJBtJuqq22xbKs-gDZMW3Xw1uUx7UFBJlXK4feM-y3R2Zy-BXdXXPKLsKEuVekKzJJPUmK99DsiXpPNp-d9AG_FtGwu_', 'width': 6016}]",ChIJtYTLAFItyzEREZOl3zg6qH0,4.8,"['lodging', 'point_of_interest', 'establishment']",20,4.2124043,100.6267941
"No. 5, 6, Taman Permata, 32400 Lumut, Perak, Malaysia",OYO 89454 Hotel Pavilion Inn,,ChIJR2O1jpUsyzERviA_isdRat4,0.0,"['lodging', 'point_of_interest', 'establishment']",0,4.2245425,100.6428766
"42, Taman Lumut Indah, Kampung Tebing Rabak, 32200 Lumut, Perak, Malaysia",ALOHA HOTEL,"[{'height': 1841, 'html_attributions': ['<a href=""https://maps.google.com/maps/contrib/101410111173076873291"">A Google User</a>'], 'photo_reference': 'AUGGfZkvtb2QOnS9sDy8dplFFh5-VD8S0jzJYtWF7FfUOKIWA0NMpqS0C6KH-OlBMebTIpTb2NuFdlkASPwePYVIP1tbo3sfBCIkPZ4nqPKmmUeSqe5loTuL_U58QVgvAqrnHzSBSV1BN78I6AvQRS4AWrUCqGxeMyxb21hYRivetXkKnyIP', 'width': 3716}]",ChIJr6t7etwsyzERzyB95C7M-WQ,4.1,"['lodging', 'point_of_interest', 'establishment']",114,4.2082459,100.6367532
"PT 1473, Jln Sultan Idris Shah, 32200 Lumut, Perak, Malaysia",Hotel Lumut Water,"[{'height': 3000, 'html_attributions': ['<a href=""https://maps.google.com/maps/contrib/117522744377101413272"">ç¦ç¦</a>'], 'photo_reference': 'AUGGfZlx2-6qnbbB0Yk9_Oi-AvyzGdjFOYIWXjjUtYI29OHWKyL5XjMMtadlsgf9E2_hzWTbq9mDtxHxk-d9onJeNIj7M3Qtqxb7C4ZlXapDrNx-ePVd717nR5PtxmQ6MCycGJ7C_bXQK_ea4H7ciaGKKZrwKlTF0C56DcBFQ0el1CZDmr1F', 'width': 5333}]",ChIJJ1aXnKUsyzEROaQ3WcGfqI8,3.4,"['lodging', 'point_of_interest', 'establishment']",42,4.234247799999999,100.6315958
"Hala Damai 2, 32200 Lumut, Perak, Malaysia",Damai Laut Escape by Perfect Host,"[{'height': 960, 'html_attributions': ['<a href=""https://maps.google.com/maps/contrib/109894212824230991097"">A Google User</a>'], 'photo_reference': 'AUGGfZllHQOJfmoubbx5i749eCLZcNGsAxtd841eexhELgdBMWGjVzpQMQSGHTDUOZ771weY52-xkssL5OvMMXSasGBqtpoWnjBvE993CWN-h4TdpZaYNI-kqa0DZfrOPHf0WNbuRtnR_DOI2KPC-C_M4A9up08WdzMvMSvrNYHLFaNlbdUJ', 'width': 1280}]",ChIJxZgrlGPVNDARRVL0Hzom-Lk,4.2,"['lodging', 'point_of_interest', 'establishment']",29,4.2591779,100.6007607
"33A Taman Permata, Jalan Kampung Lumut Kiri, Lumut, 32200 Lumut, Perak, Malaysia",Mornington Hotel,"[{'height': 3000, 'html_attributions': ['<a href=""https://maps.google.com/maps/contrib/107520690548781910053"">A Google User</a>'], 'photo_reference': 'AUGGfZnzKXwwiiFBSLCzv2y0hnHVBxhbaiHhvQnG1VEs2ae1ZqiNEjZxnIdDxvPetdGz_MeRn905--TZOC9TbzP1j-1BJDo16eDgh88rOoBESzkRyfTfg62dkUebXpYm6ap1Ep0SZvq36hRrv0SwspVJSTpNzFlLhZ997DFjkAJDdKS9tQtB', 'width': 4000}]",ChIJsxbtbdwsyzERZa0aKwD05XA,3.7,"['lodging', 'point_of_interest', 'establishment']",303,4.207672899999999,100.6373848
"321, Persiaran Venice Raya 10, Desa Manjung Raya, 32040 Seri Manjung, Perak, Malaysia",Sri Manjung Ma Maison Homestay Lumut,"[{'height': 307, 'html_attributions': ['<a href=""https://maps.google.com/maps/contrib/100764836418970342452"">A Google User</a>'], 'photo_reference': 'AUGGfZnpco_L8EdTAV6D7X1V3kjOuCvjxEsb-nd8Vzhw166hTeRWYnPtmEVVEoymBKe9rlwh9wiUNcgLT_m_FtyZXAiuM5f2PFo9iKSO0P3LobX9KrdY-4YIlCNgTFFJ__lTCWlqrT2dPFkz2iDQA0PZt0bvSJTvCr6FUZxrtSw09kcynU8I', 'width': 464}]",ChIJO0dFKOUsyzERh8xud4Hea6Q,3.8,"['lodging', 'point_of_interest', 'establishment']",4,4.2079732,100.6529813
"1, Jalan Telok Muroh, Kampung Teluk Muroh, 32200 Lumut, Perak, Malaysia",OYO 89984 Noris Wang Homestay,"[{'height': 427, 'html_attributions': ['<a href=""https://maps.google.com/maps/contrib/114760453460232922969"">A Google User</a>'], 'photo_reference': 'AUGGfZmZwrFD0_IJ14KK-NPDv2FujS6C9c_skN5E5eKi0t427Od8lt0u9-CJAAVR5-lvp9kON9UKkbcxzS8MkY9AttV5Rgjjs4DpVoucHRA3Gw40npMCh4NMPzx-q2P5d8o7r1cp193puY0HeFltnnlvnQFFrlfUEERUqtuNXAVK8fScdQUB', 'width': 640}]",ChIJrWadvlUtyzER6rwzic0kStk,3.5,"['lodging', 'point_of_interest', 'establishment']",53,4.2082773,100.6258846
"20, Jln Pundut Raya 2, Kampung Tersusun Pundut, 32200 Lumut, Perak, Malaysia",Fahaz Lumut Homestay,"[{'height': 4000, 'html_attributions': ['<a href=""https://maps.google.com/maps/contrib/104209778718802045883"">Izuan Nizam</a>'], 'photo_reference': 'AUGGfZmzbJYOZaDd324416B80DHYy3yplg6x0XZHSkUcSnZddg7RDE5g8OGHnMBkppSUwOmzmDLFJaEGUHTuSrEKFZD88VcR2T8R5J_PiwthHGHH0hE7VFQPJ0x7am0Z559Fq704sUqT73MhfgIthhNJKizJe-vHJVztSktMhW7hbXVQr-lW', 'width': 3000}]",ChIJqfffAd4syzER-kG14EK2yJI,4.4,"['lodging', 'point_of_interest', 'establishment']",36,4.2056198,100.6425419
"93A, Jalan Marina Villa 1, Marina Island, 32200 Lumut, Perak, Malaysia",Grand'e La Villa Homestay,"[{'height': 2917, 'html_attributions': ['<a href=""https://maps.google.com/maps/contrib/103919256108610570265"">A Google User</a>'], 'photo_reference': 'AUGGfZkRIs4hgH9uVG6jv2Gnz5hVjzoOAj9q7vugFrts5Z1HK8Pw_N5R9iYCQt30EqLwPtVfOo9MIcwyOq--CSUBw1FqnatBRley7oNqjKAOeJGkcxka-XTvZLUuqOzGIZ2_ae6zIaKaR6CBUY5M12It0nuxqpu9O3yQlRHiv2rH511tyOwu', 'width': 2268}]",ChIJS3feTBTTNDARJFXvu9Be6yQ,5.0,"['lodging', 'point_of_interest', 'establishment']",1,4.2035686,100.6038601
"Desair Apartment, 208, Jalan Iskandar Shah, 32200 Lumut, Perak, Malaysia",Relax Apartment Hotel,"[{'height': 518, 'html_attributions': ['<a href=""https://maps.google.com/maps/contrib/101581162466715269165"">Relax Apartment Hotel</a>'], 'photo_reference': 'AUGGfZlg5FTD9-NqNBNptu9q0kYXc6xavdpYtLVzGFYh42QSdvH0p6bNZUgIR3Z8-KTicFzL3b5hdSez58aV7wUnOLKQJTAHFS42fGFpqZHv62o53K2q2AHBkZmsRwqq8vv7mHP0lQzeRnwLsTXCreu72qFCuGr1x69PO03P6goOE6k66xO0', 'width': 345}]",ChIJ__8_-OosyzERLLAC_LVQTSs,4.4,"['lodging', 'point_of_interest', 'establishment']",7,4.2180363,100.6441746
"Pangsapuri Samudera, Persiaran Venice Raya 2, 32040 Seri Manjung, Perak, Malaysia",House of Nostalgia Lumut,"[{'height': 1536, 'html_attributions': ['<a href=""https://maps.google.com/maps/contrib/106847672940021981420"">A Google User</a>'], 'photo_reference': 'AUGGfZkeM8doDtZS1noNyRIceEisD1peznRdtEPmQXAv9_kLrWh9zr6RYNT5IMpjBkKVL4t9gVvdEH99XnM2c-bwKLP9tNNXUEKklisYGGfxWWMTd5CjniGqX5ajLQ0TNlaeOEDm7Cpe1yZT418fuh8oKZp5jlOj0oaLuUFwC-y5oLAFGydA', 'width': 2016}]",ChIJ0f7dt9UtyzERhV9nSITPC3c,5.0,"['lodging', 'point_of_interest', 'establishment']",13,4.207158,100.6589628
"Jalan Titi Panjang, 32200 Lumut, Perak, Malaysia",Hinggap Backpackers Hostel,"[{'height': 1376, 'html_attributions': ['<a href=""https://maps.google.com/maps/contrib/101397049100241684680"">A Google User</a>'], 'photo_reference': 'AUGGfZmr3dxquxbPZzvaT28ClfbubfwUidqJTFlikkskfiK2kagZpeL0_cheFXkrLRNGSm_T2XulYEU9i7bytnLfxuUccDX5iHoFAFYgKWosKDbKoBaC3e3A7vYf7qMBJy4zPQcZcrQo6JelsYjGsWleVIYxEluiEufDtPcBZJWyGAotlFfc', 'width': 2528}]",ChIJORSpz8QtyzER2r81qnc73Ec,4.6,"['lodging', 'point_of_interest', 'establishment']",19,4.2360885,100.6344036
"42, Persiaran Pantai Impian, 32200 Lumut, Perak, Malaysia",Daddys Inn,"[{'height': 864, 'html_attributions': ['<a href=""https://maps.google.com/maps/contrib/105575953896229123930"">A Google User</a>'], 'photo_reference': 'AUGGfZlDTbO3kCaSN3ZxwQXxyBd-6r2fiVdZ75QgqLIcCeaG8k16pbOE9FfIUwEiD_YLozHeMgwLzI1aZ3VQugyTQR7IaCDxO2rZgqHCSu-rh7OebP1qoHTZp8MopTGTB0k9S3liQCqo5coWOli91yrcCqDA7U0nKNB3r8xQEAt66YBpv3LC', 'width': 1152}]",ChIJGRiEj5UsyzERmvQQw-bql9M,4.1,"['lodging', 'point_of_interest', 'establishment']",129,4.2252674,100.6420974
"468, Persiaran Venice Intan 3, Desa Manjung Raya, 32200 Lumut, Perak, Malaysia",468 Homestay,"[{'height': 2304, 'html_attributions': ['<a href=""https://maps.google.com/maps/contrib/105509699515109770420"">Syafiq Yaacob</a>'], 'photo_reference': 'AUGGfZmnoNwCbtnOWMpQYb0JLVgdEhBi9L1R5EQjuxxueNszeCAtOoTTSeQ4I50UE-lYjrzrGipLKelnFyJ4ScyrSpqnNBFaJ6woMRIEMs6iTG0fImt2xbxn6ikys2yuu6bOXFYuBTzIBMzEAlE13xD9SdPB2FWftZUzpS8VCNrJ4HkKt2od', 'width': 4096}]",ChIJH8ENn-QsyzERQe1c2brBo7w,4.3,"['lodging', 'point_of_interest', 'establishment']",7,4.2062284,100.6518524
"No. 590, Jalan RPS, 15, Residensi Prima Segari, Fasa 1, 32200 Lumut, Perak, Malaysia",Juwita&Arjuna Homestay Teluk Senangin,"[{'height': 3024, 'html_attributions': ['<a href=""https://maps.google.com/maps/contrib/117839980890687292357"">A Google User</a>'], 'photo_reference': 'AUGGfZmWBNr5a1qI1qZ6ogae60h1K8n92RTkZzOR_xh8N9CLNKqvmXMKDOZlxihVKmWcoLZhiHp7uVtXFjO6aasjNIr-mrlt6T77khP-8GS6ZWZq8GTZ5EKsg-2FR7nfXAKQtLWkLN_GRfXw6rlmqSzB15phFQPKBkwGdX7UkYjBZLqZcy3F', 'width': 4032}]",ChIJE2yidNQryzERigO_H1wWx2o,4.8,"['lodging', 'point_of_interest', 'establishment']",5,4.289891799999999,100.6432195
"22, Jln Mutiara 2/1, Jalan Mutiara 2, 32200 Lumut, Perak, Malaysia","Lavender Hotel, Lumut","[{'height': 694, 'html_attributions': ['<a href=""https://maps.google.com/maps/contrib/113160289835178562776"">A Google User</a>'], 'photo_reference': 'AUGGfZmkKDa-Lmpy98pvV0TcI6uK1I3o_mD7Hm7TtA7sDs8mgTmqUKavuc1Ia5C4QQWbYEwSS3hROf8unatmi8yNdCoffLUwTPEvwisgG2rrdqVnusqYnqvhBjQiOfcvjGIxzK3WDkUoNervqYPnj8pWiEGAsxwDWoNVkLx51n7y_4Vfselg', 'width': 1000}]",ChIJH0U4g2UtyzERMyw0NaMxzBQ,4.0,"['lodging', 'point_of_interest', 'establishment']",1,4.2144695,100.6398304
"No.17, 18 & 19 Taman Batik Puteri, 1, Jalan Batik Puteri 1, 32200, Perak, Malaysia",Super OYO 44088 Valley View Hotel,"[{'height': 427, 'html_attributions': ['<a href=""https://maps.google.com/maps/contrib/106811370708473975827"">A Google User</a>'], 'photo_reference': 'AUGGfZl0he5Ui8ZSdlSNT0tGctmY8fKJY33XvZ38Ua9p3ZFZNi1xPcTdz2xAtmM1forFSKAJyvQIjiVnSvTsr0x85-Hifg3tI0QYyjaT9rRBKEyjT43dBrFQ8l7ggxnVkPhDfjOW44sL7IpGZuROdQpPEQ9llEQOaPNfi4kK4_z_7Mgd5K-C', 'width': 640}]",ChIJgWHNxS3TNDAR1_DzvOSS1Kc,4.0,"['lodging', 'point_of_interest', 'establishment']",270,4.2099206,100.6149538
"6.10 Marina Cove Resort Homestay AzzaroHome Jalan Teluk Batik Marina Cove Homestay AzzaroHome unit 6.10, 32200 Lumut, Perak, Malaysia",Marina Cove Homestay AzzaroHome,"[{'height': 3648, 'html_attributions': ['<a href=""https://maps.google.com/maps/contrib/106144046650756183562"">A Google User</a>'], 'photo_reference': 'AUGGfZlVCKW0JXu-l5GjLqc2g-9o-OelhxNDN4t0DM7f1LP0QTIZ7dLzRNebo7t0EfPB6AzaoJ59g2-cCIPq7FRbLMGbmthPyKyWBwHVdPbDc9elhzbBAeNrV-lHfKJgu3wPQA4WOjTytX3sl2vVxfMSUh2zhzC6C9UuIxF5g9Tld-5w8Pbv', 'width': 2736}]",ChIJsVRI8dfSNDARJRH6x6j6to4,3.1,"['lodging', 'point_of_interest', 'establishment']",547,4.2000268,100.608242
"No.19, Jalan Teluk Muroh, Taman Lumut Mutiara, 32200, Lumut, Perak, 32200 Lumut, Malaysia",Mutiara Homestay,,ChIJd7bG4KUsyzERm0v5vx5jnjk,5.0,"['lodging', 'point_of_interest', 'establishment']",1,4.236302,100.6322198
"149, Persiaran Venice Manjung 3, Desa Manjung Raya, 32200 Lumut, Perak, Malaysia",Venice Raudhah Guest House,"[{'height': 1600, 'html_attributions': ['<a href=""https://maps.google.com/maps/contrib/106520953521922843624"">A Google User</a>'], 'photo_reference': 'AUGGfZnq5vzni_5z2D6rqRphByTDt7S08CqUw2U1fEQVAWfaYoru97ATqBUSKOH4BW7yEBQlQ67pTBJEpqgLaIRP_pfq2YGcEPPiWrV50t_4iCArGdyM-_cypBm1F7qo9YzCrRn0NSKAuNscAHdH2EXCommglIWCctdCVCU_xWAI-AhvoDrM', 'width': 2000}]",ChIJf_HeKEQtyzERorhC-6wiGx4,4.0,"['lodging', 'point_of_interest', 'establishment']",1,4.2104919,100.6560406
"2XF6+84G, Jl. DR. Luhut Lumbantobing, Hutagalung Siwaluompu, Kec. Tarutung, Kabupaten Tapanuli Utara, Sumatera Utara 22411, Indonesia",MESS KEMIRI KODIM 0210,"[{'height': 963, 'html_attributions': ['<a href=""https://maps.google.com/maps/contrib/112169675281345893645"">A Google User</a>'], 'photo_reference': 'AUGGfZknBV2AsLqrjy8ZqgZC5mZ4AeeeqERut-f19GM5Y1EKxhky7MVsVirBOBT9buEDTVNmlbfLV6QcJtteYK-AZeJC5_E6h4c0HowCQjsWPhZ8Pp6A9jmCKDad5wA2pprVbD0TVI49vbiU5-khKP6wjQQ0jOP2bAdvidBrRSDW0Sr5dLWM', 'width': 750}]",ChIJe9uqlI1vLjAR1jyVZC2FSIs,0.0,"['lodging', 'point_of_interest', 'establishment']",0,2.023176,98.9605914
"Jl. Ferdinan Lumbantobing, Hutatoruan VI, Kec. Tarutung, Kabupaten Tapanuli Utara, Sumatera Utara 22411, Indonesia",SP TOBING KOST,"[{'height': 4032, 'html_attributions': ['<a href=""https://maps.google.com/maps/contrib/114790826564809373448"">A Google User</a>'], 'photo_reference': 'AUGGfZnz0Rgyj3ntXQCpFfUy-L4vVdEll59Y3HBhlnJpagPkzQ8PsQTMpzrJMdXwMO4TuNfihtAX8p0TrUDFtTcR6-oA9IJ0MuvBihVqKhrxrzV0a-HGCGIfdICTLVHZSf28hc95xP3n3KMwVgbqUruEBpdGre32L2kiln7yY7kZKtYnj9Um', 'width': 3024}]",ChIJoVbeIXRvLjARQEcqqxtAbNA,5.0,"['lodging', 'point_of_interest', 'establishment']",5,2.0216772,98.9643907
"XXXF+CC, Hutatoruan III, Tarutung, North Tapanuli Regency, North Sumatra, Indonesia",Pak jovan,,ChIJ57SgewBvLjARsLunxAuGck0,0.0,"['lodging', 'point_of_interest', 'establishment']",0,1.9985625,98.9735625
"Jl. Ferdinan Lumbantobing No.128, Hutatoruan VI, Kec. Tarutung, Kabupaten Tapanuli Utara, Sumatera Utara 22411, Indonesia",HOTEL PERDANA,"[{'height': 2304, 'html_attributions': ['<a href=""https://maps.google.com/maps/contrib/112874211232007492697"">sharly hutabarat</a>'], 'photo_reference': 'AUGGfZmWeRYBai4ihjC4AHxnq3gBd939Dr3m-M0J0ayn5SUgn9wfdaVzB6Exdr61unHvfYae2HAN2-wDkHZe3j0Fjo0HaGwkSF-FlK5jJM1Tev5hy0ksC7WzUOEHj66bOG3OBjtNSeWzqD-xJvsHT67IAiyGdLndEgRMIqO2NJJYW0n_Zl11', 'width': 4096}]",ChIJUR6kr45uLjARWpMppNNfvrk,3.8,"['lodging', 'point_of_interest', 'establishment']",74,2.0272558,98.9625952
"2XH5+4JW, Simorangkir Julu, Tarutung, North Tapanuli Regency, North Sumatra 22452, Indonesia",Ujian japildong Simorangkir,,ChIJVRvxzRVvLjARwi1aMfFQ61Q,0.0,"['lodging', 'point_of_interest', 'establishment']",0,2.0279124,98.9591375
"Hutatoruan VI, Tarutung, North Tapanuli Regency, North Sumatra 22411, Indonesia",Mess PEMPROVSU,"[{'height': 2304, 'html_attributions': ['<a href=""https://maps.google.com/maps/contrib/117025978511405423386"">Suwaji Suwaji</a>'], 'photo_reference': 'AUGGfZk9b0ApXyj1Mc9TZ8WMc8mYad3hstD5laiROrqMMtMo94EZzT-zGyWqfrX1aqY_UV403w9oC55JlADP00GKr6WqVEVyOL--dvcw5DryDJ95rv87WG_QNMiLEhzOuYz5MXy3BXCjHB4sEsCJii_DN-kHI_PK4HO2L08a5dMAWi9PJK5k', 'width': 4096}]",ChIJUxObv4xuLjARucLojWzWsYU,4.2,"['lodging', 'point_of_interest', 'establishment']",101,2.0230303,98.9618484
"8WJ2+2X2, Unnamed Road, Silali Toruan, Muara, North Tapanuli Regency, North Sumatra 22476, Indonesia",Bintang Pariama Homestay,"[{'height': 4032, 'html_attributions': ['<a href=""https://maps.google.com/maps/contrib/104752617874978457965"">A Google User</a>'], 'photo_reference': 'AUGGfZmgO07ZsaYi38zLTvJVytGyCDuPYQ2SH-sAx9PgbFYZAeU8GCWMEeyuskNF6Dsd1PqYZ1k2dFMwKPQHcXIE3b8IccY_HzihTTBzOobF2wl5OxsWeaJT9eVkdKbCWuhttjvlhm80TKkVYOsxSbaa9rYEqPjzlH4wJq-m-nFRj8stHx4A', 'width': 3024}]",ChIJV2M6Vk4ZLjARhd_KJdncwOA,4.7,"['lodging', 'point_of_interest', 'establishment']",9,2.3300003,98.9024026
"Hutatoruan V, Tarutung, North Tapanuli Regency, North Sumatra 22411, Indonesia",Sopo Nommensen,"[{'height': 899, 'html_attributions': ['<a href=""https://maps.google.com/maps/contrib/115389026699241868836"">A Google User</a>'], 'photo_reference': 'AUGGfZlnjI_NfXhoe5HEgA3crxF7prbfw35WTl9CMThue0U9NrXnrmFuuMbl0QRQTM2c0UP-iWpZUgN1gIfh5HswmgmP6QCfonrgNqXhIgzR1JXi1Ermna-ITQayvOixe5wX83ICeKBLMNMgcUVj9so4SpTVzsD1jrVzO3YNEf2S7wa21itT', 'width': 1599}]",ChIJ83mxRkpvLjARx00weeMWevw,4.6,"['lodging', 'point_of_interest', 'establishment']",52,2.0123125,98.9615625
"2XG6+VWJ, Hutatoruan VI, Tarutung, North Tapanuli Regency, North Sumatra 22411, Indonesia",Hotel Diaji,"[{'height': 3024, 'html_attributions': ['<a href=""https://maps.google.com/maps/contrib/118046430683278530425"">Leonardo Simorangkir</a>'], 'photo_reference': 'AUGGfZk_cj7heGm8YmF3VqtUy72W3XAD-HcMAYjC9rYlbIfvLpPcLlNxa2NTAXSM__DrMUx3GygXhNnLPM6B4jmpPAU9oCjRf6PmNAZbb7usz8_bbG0NPsKXPJOJmuQQUwdfPoJhyTujGE-apFulufeEOFDUGEKe7PQhS_2pXeZE9-NX1RYy', 'width': 4032}]",ChIJ04RQpI5uLjARRgldOBNQmRQ,4.1,"['lodging', 'point_of_interest', 'establishment']",41,2.0272424,98.9623032
"6X7M+92C, Pasar Siborong-Borong, Siborongborong, North Tapanuli Regency, North Sumatra 22474, Indonesia",Hotel Diajeng,,ChIJVVVVVZYRLjARdgaXQg5jMKY,0.0,"['lodging', 'point_of_interest', 'establishment']",0,2.2134334,98.98250829999999
"Jl. Dolok Sanggul - Siborong - Borong, Pakkat, Kec. Dolok sanggul, Kabupaten Humbang Hasundutan, Sumatera Utara 22457, Indonesia",CHADS Coffee Hotel Ayola Dolok Sanggul,"[{'height': 2585, 'html_attributions': ['<a href=""https://maps.google.com/maps/contrib/111227519674411510301"">A Google User</a>'], 'photo_reference': 'AUGGfZkGuG1CP5kVFd1-pS9jctm9fDybKfG7wikoC4j1WT5PEkRa_AD7PNzt0O08y7ls2qDt11ax-pC8ARJ-Cp-8vMNYxIwhlPxCfPqGPJaWKgZuPoP-oRnypFaACqYuYJpwFy0KyAlpfZx13rF1d8mYzhV15cJcohzzRfjJ-JXpUtsdxKY3', 'width': 3878}]",ChIJJdAc4Qw9LjARCGLs-_LBlbw,4.5,"['lodging', 'point_of_interest', 'establishment']",388,2.2608434,98.7903237
"Saribu Raja Janji Maria, Balige, Toba, North Sumatra, Indonesia",Labersa Hotel & Convention Centre Toba - Sumut,"[{'height': 4640, 'html_attributions': ['<a href=""https://maps.google.com/maps/contrib/103084433078259308095"">A Google User</a>'], 'photo_reference': 'AUGGfZm7sMgx8qZ_6uvXNk59JL8cf3Lhhx0VU3n6slmnAjbsWsEJ-_NVf4xo-9aVOH86BHj6PpfNQJCM53K_guaict0r0q12mSlr80_yl1q5_J03LoDRRZI3uJfsq24IkRMYAAYNSITi7x_5QLCGLr3zoD2iqCCwQN5GZcMOcXsTR8u134s4', 'width': 6960}]",ChIJxTDVor0FLjARcd23tHzRedU,4.5,"['lodging', 'point_of_interest', 'establishment']",2001,2.3386395,99.08163429999999
"Jl. Raya TaraBunga, Tara Bunga, Kec. Tampahan, Toba, Sumatera Utara 22312, Indonesia",Tiara Bunga Hotel,"[{'height': 1934, 'html_attributions': ['<a href=""https://maps.google.com/maps/contrib/108438642096127510494"">A Google User</a>'], 'photo_reference': 'AUGGfZnJX8fypdLG753lZ9nF9InR1-Kz33e8JyCadz7OYMy8uXtA5IyOY9w4gio9OYnbzEcWgxlqWGnfysHo3C-7oOwZzYOnWzlNAW9Tze-Awf1NN44paGc4AwEiZGhFK0S2qKV6tqR40wI-2PW-t-PQgQZbViuhmImQClnNU_EKVUhFHTp0', 'width': 4096}]",ChIJq6qqqqYELjAR-zigkhogd_c,4.2,"['lodging', 'point_of_interest', 'establishment']",462,2.3628707,99.03085229999999
"Jl. Siliwangi No.8, Kec. Balige, Toba, Sumatera Utara, Indonesia",Hotel Nabasa,"[{'height': 3000, 'html_attributions': ['<a href=""https://maps.google.com/maps/contrib/115008589264768454346"">A Google User</a>'], 'photo_reference': 'AUGGfZlUSj_AAOodWdovERXq3Tb9tTsQu0GkKmKGyIPzF9lBgyHTBludPSZmQWnTfJZNwMzApT9UcH_qji3iOVA52LzxA30IyVKSp5MZ1vSxyM6t7F8zkuq8QCiB2KMrHVuXpHVV_voDvmmc3Lu-dA_LtwvT0mIItmYcPqP3Hz8rshgT1Uba', 'width': 4000}]",ChIJFys1SmEELjARLQJTaBptPTw,4.1,"['lodging', 'point_of_interest', 'establishment']",718,2.3359071,99.06245179999999
"Jl. Sm Raja No.1, Ps. Laguboti, Kec. Laguboti, Toba, Sumatera Utara 22381, Indonesia",Sere Nauli Hotel,"[{'height': 3024, 'html_attributions': ['<a href=""https://maps.google.com/maps/contrib/113551166798357394690"">felick wong</a>'], 'photo_reference': 'AUGGfZnzP5-Qmw2RbjzukEaZX3xMt_jcnYiPS_oAOSJo4T5dSuQDnkLFlYETYAxv_bhVYEqCamm3gXyxpcOjdY4VwMPHP0C7LxpzTaPwcr18AvuM9juuSWLCRO4-V9MWuMODGI9423ap82oa-3Db5m28RbJNypsv0n_UvBEHfD1BgoXHZaK2', 'width': 4032}]",ChIJL9gQ4zQBLjAReP8aeHWNuas,4.1,"['lodging', 'point_of_interest', 'establishment']",1065,2.3528556,99.12177360000001
"Jl. Sibola Hotang No.km 1, RW.2, Sibola Hotangsas, Kec. Balige, Toba, Sumatera Utara, Indonesia",Nauli Inn,"[{'height': 1080, 'html_attributions': ['<a href=""https://maps.google.com/maps/contrib/104150903863982591388"">M. Bernhard Simanjuntak</a>'], 'photo_reference': 'AUGGfZlj7vGWqJDJPeFGJxAgu1j0qaeCcQ1EvmOwiX8_Q0xpu-u6p76TI6azKap7Vp5cBf4RoB5j8T6aO6msqEay4pIAEd_KFVtEaDj3FXQg44vIZw8fKt2jQA9aj3NWbIelWWl8BtxFseihrjDgIBCwz9e8SWPhko8KiIJf_KX-tc_je8k1', 'width': 1920}]",ChIJJ13bRv4FLjARofOb1yLHi9U,4.9,"['lodging', 'point_of_interest', 'establishment']",179,2.3444332,99.0787909
"Sibola Hotangsas, Balige, Toba, North Sumatra, Indonesia",Mutiara Balige Hotel,"[{'height': 452, 'html_attributions': ['<a href=""https://maps.google.com/maps/contrib/115637552319921352320"">A Google User</a>'], 'photo_reference': 'AUGGfZlEnPh7G2QcEr0Sd1a23wsvOlFKIMWfs0qaqU0qmEBo-HMLGS8egaIp6o2T3FjEoIA1mzZirLv5socqpduMKbIdcYRhtr85zRstS7x6Abj55la_o_deaVl1YTT8OFwQas1pENIORHuYOeK7lAlklGi0tU1y-x6gUhv1QAVa1uQZnWQJ', 'width': 678}]",ChIJd1aAaWAELjARlprMah8Buek,4.1,"['lodging', 'point_of_interest', 'establishment']",682,2.3335663,99.05886509999999
"Sibarani, Jl. Haunatas Desa No.I, Sitangkola, Kec. Laguboti, Toba, Sumatera Utara 22381, Indonesia",SPOT ON 91637 Hotel Adela,"[{'height': 427, 'html_attributions': ['<a href=""https://maps.google.com/maps/contrib/117330718354834196701"">A Google User</a>'], 'photo_reference': 'AUGGfZm46NsH-oNWdinibpRiLti-cOH6AiccTC7u30eG1TkzJlfv1GWFekH7wqzqLhNLoOeVMqt3OFK5vjIcbt5TG4uMrIpjI2FUYLagMUtLNIspuwQjgl6mfOT_-4inhYvKhIO8LBUg1d4Om604aYWifu3BGmFC3PyIcOc4MjCKdZNiIJR5', 'width': 640}]",ChIJb5LxhsEGLjARChOA9HMg0OQ,4.1,"['lodging', 'point_of_interest', 'establishment']",140,2.3337979,99.1290439
"Jl. Pemandian No.94, Kec. Balige, Sumatera Utara 22312, Indonesia",Damar Toba ~ Lakeside Eatery & Stay,"[{'height': 1672, 'html_attributions': ['<a href=""https://maps.google.com/maps/contrib/102408851899269544858"">A Google User</a>'], 'photo_reference': 'AUGGfZnPUFgyUZzsx1k-BVZbRCRn1nY5vyyudPmHlWAS62bVRF0-Mm5XpEPL9LcQU75H4K8JU4Tud8UtaAGT_yfZH3SMN8m88EprmSIp8hElAFZARoa1sPHDJ7Evw2fVlklTrZq0o6QCmgKJAGqz8yIob7AKeC-Vfg1yqb2m-4RX4hldUPpM', 'width': 2508}]",ChIJdzppvJwFLjARvc1NLNTZxVg,4.7,"['restaurant', 'lodging', 'food', 'point_of_interest', 'establishment']",2716,2.3404454,99.0505864
"Tara Bunga, Tampahan, Toba, North Sumatra 22312, Indonesia",Pondok Berata Dapdap,"[{'height': 3120, 'html_attributions': ['<a href=""https://maps.google.com/maps/contrib/110242323444883957095"">A Google User</a>'], 'photo_reference': 'AUGGfZm6sUQ6Us2yfo2iNtSyiHtqzA57i7uqHry0mfG5Kg2rt1btqjk-l-RLbo0Ln3fwsN1OUIE0S3RrlgmWF9eoB8RFAKLRqxqU0F24bdMsJn8AKtVWODY6o4bBn7FWxL0moetgBYPnXSWpm0GJtwKPEwel4pLc7GPuFGPtEu-5LgjQB-5z', 'width': 4160}]",ChIJIQejTFgDLjAR3krUSdRi-eE,4.9,"['lodging', 'point_of_interest', 'establishment']",89,2.3541731,99.02547779999999
"Jl. Sibola Hotang, Sibola Hotangsas, Toba, Sumatera Utara 22312, Indonesia",Lago Hotel & Resto,"[{'height': 1024, 'html_attributions': ['<a href=""https://maps.google.com/maps/contrib/112219385793990549894"">A Google User</a>'], 'photo_reference': 'AUGGfZlqvtt76m2-adgDSto438ldWyoY-Xtb05eJjR5qbj7oQ0qbCx7mWLrNLK3N5d4rtYlh3YMqFKlK8U7D5fjU9Sho52K0H4yrPGLeETY0h7kghvW2mp6ozen6CL9y21gBp2q6i8PP-K410dpqjuvYFtJmuVGrzykCGTSBHUrv92YZqmo', 'width': 768}]",ChIJ3cgCv7MFLjARS1Gby-er96A,4.5,"['lodging', 'restaurant', 'food', 'point_of_interest', 'establishment']",467,2.3458804,99.0782727
"83M5+RR6, Jl. Pardede Pasir No.10, Kec. Balige, Sumatera Utara 22314, Indonesia",Purnama Balige Hotel,"[{'height': 3488, 'html_attributions': ['<a href=""https://maps.google.com/maps/contrib/101179294505847512445"">A Google User</a>'], 'photo_reference': 'AUGGfZmq8MYYSlZa95BoURE882eNEZR7SsSrEzFnL59YAz7tpdd3xhhazhm201lTgyU180llf5DYJ6dLguJ08mODyvsv5g6ZU8DuSmMFtA7ON2DsWFP3hMVk_VkJFdLLL7uP5no_Avky1UQsA2Pdv4SfkvNrN2FytyVMuKuktujA5cJBSTw', 'width': 2976}]",ChIJ1zZx68kFLjARpL5jZltqYXI,4.0,"['lodging', 'point_of_interest', 'establishment']",149,2.3345625,99.0595625
"Jl. Raya Lintas Utama Sumatera No.16, Sangkar Nihuta, Kec. Balige, Toba, Sumatera Utara 22312, Indonesia",The Boat Homestay and Spa,"[{'height': 3024, 'html_attributions': ['<a href=""https://maps.google.com/maps/contrib/113925232833311568028"">Grace Samboh</a>'], 'photo_reference': 'AUGGfZnQxPBxpDHeegJ9XTX0oTohTu-lf-W49UVaiR_sMM3rJNi80RaDb58EEAZXi5wieDL8dUTg7n-W0C1s47S3V6OLGJlWEte6uMYx4uNfAUadACW1dpsr9XkgYkJzbbDKznrS47AJ7DNfmr1zW3wceb_WGDUdnlLC-bhv4TgqSpdZ5pxk', 'width': 4032}]",ChIJzTIdSqJvLjARIdv6x-pHlj8,4.2,"['lodging', 'point_of_interest', 'establishment']",16,2.3291521,99.054434
"Jl Pasar Melintang, Aruan, Kec. Balige, Toba, Sumatera Utara 22312, Indonesia",Grand Mareda Hotel,"[{'height': 3456, 'html_attributions': ['<a href=""https://maps.google.com/maps/contrib/109037376926778853706"">amsal gultom</a>'], 'photo_reference': 'AUGGfZkPnGzzxv9i_eXdXzSo1qEtJzSKB-1ZNEvroKAjcrswoLvj_uzx_tkMw0yhNrbjzDNdB4b-gIfi3AYACTIc8HCKstTBOECJmTaDp-5Ta5Ggc3UPd1FP8rdNO2S5Ee74oBqK9dtQGXulD1zaFwRsuYqdPiJiW2uNpGVY_cmA6Sggp0x8', 'width': 4608}]",ChIJm85lX60GLjAR0MngnbRQkqA,3.9,"['lodging', 'point_of_interest', 'establishment']",126,2.3499616,99.11220519999999
"Jl. Pemandian, Lumban Silintong, Kec. Balige, Toba, Sumatera Utara 22312, Indonesia",Aquino Marito Homestay Mitra RedDoorz,"[{'height': 2448, 'html_attributions': ['<a href=""https://maps.google.com/maps/contrib/103442343097036751262"">Roy Ritonga</a>'], 'photo_reference': 'AUGGfZmwZjp7N6npmb0l0MWNEoBQgl6re8E449Avf5mktoS8BwWHE616bi9IL0RciMC62kuYVXhdkuZI7540BB34ugc1hRof8L9gr_P_N1ng3zfRCubTz4aPvxUgTn_vNCcb9ys_3ouZdbn15mA0O1hsNWLsI5wn7sJw_JxGDC8C3y2iX7C1', 'width': 3264}]",ChIJkb0D7MsFLjARvkrAmdBDvqY,4.1,"['lodging', 'point_of_interest', 'establishment']",73,2.3462962,99.045182
"943F+9GC, Aruan, Laguboti, Toba, North Sumatra 22381, Indonesia",Hubers Hotel,"[{'height': 3984, 'html_attributions': ['<a href=""https://maps.google.com/maps/contrib/107192155354491500980"">Jas Depari</a>'], 'photo_reference': 'AUGGfZlt_3l9YGY93OMuDfyfc1dpkyC8tXvfKUM7LjFLD565289umAXjP4xW2tDWyNI61lw2NHXhIVFqWjsRgPminZJAF1YXg2pr2Mnd25-PHyhJMNEUGIuRrsvgRkFN4KAPm976S9nNg5Xea3wbh7g5XKbl_cZwJyIG0NyTxuk44Jadigwc', 'width': 2656}]",ChIJu9EbPloBLjARm2UWW3KbIWE,4.8,"['lodging', 'point_of_interest', 'establishment']",5,2.3534237,99.12404850000001
"83J2+7V3 Samping Kantor Bupati, Jalan Sutomo Kel. Sangkar Nihuta, Danau Toba, Balige, Toba, North Sumatra 22312, Indonesia",Sapadia Villa Balige,"[{'height': 1836, 'html_attributions': ['<a href=""https://maps.google.com/maps/contrib/115835231298192061187"">Lynmai Ranauli Siagian</a>'], 'photo_reference': 'AUGGfZmdKrnHyi7hF4mpFTOiRXi4vfR2SRUuJPTKGQpon3ATmxslFeqWQedrpKd_tNc5FeK3TiDH3pYC_2n1VAu-XCv4Wq8EN0gm9yNTgSK1myV55hyjI0LxczZCYQqzpcNCqkR9NQD8lxVt1UShCMP5USJQGwc9B6WpmgwA7CAMz6ZrfT2V', 'width': 4080}]",ChIJ_SuoGr0FLjARM4IkDudkClQ,4.2,"['point_of_interest', 'establishment']",46,2.3306318,99.0521644
"Jl. Pemandian No.02, Tobasa, Sangkar Nihuta, Kec. Balige, Balige, Sumatera Utara 22312, Indonesia",Hotel Ompu Herti,"[{'height': 6120, 'html_attributions': ['<a href=""https://maps.google.com/maps/contrib/103021180469332130479"">Viata Anikawati</a>'], 'photo_reference': 'AUGGfZk7y7lr2rMNEDScxRw40EJwBFAGvoVKZsGzxg-g6BLW-GzqVmn6pNsk-qmoFOms1MGI4RqH-h2BDMY4fUpsz7vErWJjyjTGNngb7AUnmbj185Llb0QjDDE9MEPn2C5IiWSACZs0tWJ0OTXFX-x38zrHATv_SwpMyVLrZ8SbEOw1CTPj', 'width': 8160}]",ChIJHfk_84oELjARBm0gi_nTCHQ,4.1,"['lodging', 'point_of_interest', 'establishment']",924,2.334334,99.0556404
"Jl. Pendeta Munson Jl. Pardede Pasir No.9, Kec. Balige, Toba, Sumatera Utara 22312, Indonesia",RAP Hotel Balige,"[{'height': 427, 'html_attributions': ['<a href=""https://maps.google.com/maps/contrib/112476739641426556360"">A Google User</a>'], 'photo_reference': 'AUGGfZn83vLvE3nlznw3emsfWEGfSkFLGWvzvMbSQzXYA_PQRzqppLZWqP3C1ijp8lTVANGKBZAEwS7PWSV5J1JcKjjj8NpAXC76VtFwxHfgQXy5NnXQaxdvOyKUEiDWLt4YeQ90DU1FKowMIdoudsu81rMRT_cCUngplpZ6wUl_Gzb9A2dV', 'width': 759}]",ChIJaymk7sUFLjARoha4eHinfto,4.0,"['lodging', 'point_of_interest', 'establishment']",211,2.3341052,99.06077359999999
"Jl. D. I. Panjaitan no. 14, balige, Sumatera Utara 22312, Indonesia",Brussels Homestay,"[{'height': 4000, 'html_attributions': ['<a href=""https://maps.google.com/maps/contrib/116524687022955157050"">A Google User</a>'], 'photo_reference': 'AUGGfZm_5sPtBJUQxdzk_z5dx2ov2ocm6Qmzd3H_jBKLbOo-WNxiOVaywtAnCT7UG8e5Mz_fqW68rVbV587RDxJtarI8CYPzKwrxBEp-IPbJRscldVR3AHYi4odMuBSOWH5yyPAhv4U4U-DZaoa4UC0Qd2eOmhjL1FOWf0Ai3NPM5-PKwXjz', 'width': 2252}]",ChIJwz8QumYELjARgWG3_7v3Tn4,4.6,"['lodging', 'point_of_interest', 'establishment']",53,2.33624,99.06343910000001
"Jl. Pdt. Leman, Pardede Onan, Kec. Balige, Toba, Sumatera Utara, Indonesia",Agatha Hotel,"[{'height': 1200, 'html_attributions': ['<a href=""https://maps.google.com/maps/contrib/102214807284581760040"">A Google User</a>'], 'photo_reference': 'AUGGfZnhBkwcGh7VR4hKfCO--XNw0zAww8ULu5sMCZKJemYjvvJOwKG4xFnNVwrZxCBHFe2PdjSJMA2TDA7xPZhQm_HbTca32zq-SXrJQOoLpcQoXYRcW5OB3kUEgM_CfSdWjd07FnMQot7Gu9IZEdrvBQJQmmZD3ISMeabZlCNAKbIs2cW8', 'width': 1600}]",ChIJy0EZdZkFLjARa4KaTjD5Uks,4.0,"['lodging', 'point_of_interest', 'establishment']",5,2.3347381,99.060995
"8b, Napitupulu, Jl. Bukit Barisan No.8A 8B, Kec. Balige, Toba, Sumatera Utara 22312, Indonesia",GRAND TOBA HOTEL,"[{'height': 1600, 'html_attributions': ['<a href=""https://maps.google.com/maps/contrib/105274840732301745005"">A Google User</a>'], 'photo_reference': 'AUGGfZmm0lDmidMyV6eB_sjtBlq4z-5344oP9ZPuAeQA5b77qitNIuIvVL3T93KmXdeIBFIBfxJByREqK_sM24wUwKa3rzCB2YIV6exMfikSPNcebocvpoBmusklNSatkILDoT_N1FEKcBCx1pzOfLpv9W1ZMYgwjx-yjjeW9n8FFQvBdbHS', 'width': 1200}]",ChIJKW5WsfMELjARBxf9cv2yjy0,4.4,"['lodging', 'point_of_interest', 'establishment']",30,2.3387208,99.0632196
"Jl. Raya Lintas Utama Sumatera No.252, Hinalang Bagasan, Kec. Balige, Toba, Sumatera Utara 22312, Indonesia",Ita Soposurung Hotel,"[{'height': 2268, 'html_attributions': ['<a href=""https://maps.google.com/maps/contrib/114255314475336031457"">A Google User</a>'], 'photo_reference': 'AUGGfZmK3ZYhbIf2m3oGg3ZjJNhh2gm3_5XN95A5DCjEY5wLhWZEFwVLVj6Xoy_zsneBSRMcyLWAiDzk2luSPfR8V8H2EnSyP3G4zPk9rsSGEoXGNvfrOOpQnS-y5cgFKXuSV3opknyFzpnhK_64KkYJWNYlcQpxoPh_updzg89ENLcaUVnP', 'width': 4032}]",ChIJTbJo0kUFLjARkp4p_3hG9BU,4.4,"['lodging', 'point_of_interest', 'establishment']",167,2.3270476,99.04993689999999
"Jl. Sm Raja No.17, Ps. Laguboti, Kec. Laguboti, Toba, Sumatera Utara 22381, Indonesia",HOTRONA HOTEL,"[{'height': 3264, 'html_attributions': ['<a href=""https://maps.google.com/maps/contrib/110747451678469930131"">Arga Salim</a>'], 'photo_reference': 'AUGGfZkNzE5mdDtG9xP87I8d66pvH0ye9vcxLMgE_GG1Y_9Bf8z8RsiPDtVwDgsT_YRxwJmkqPMjUvD1Gl-lUCJwhXk1W6Tc_fOzy0oVE0zE-ld9i6FzqibC3T2qaO2bNN4sH-K4fw8WK8lk5q2LqR_j0I1o3J1_NpH68DU12IJhqEg5XXFy', 'width': 2448}]",ChIJjczTcgsBLjARBO1BcNET5QA,4.2,"['lodging', 'point_of_interest', 'establishment']",118,2.3539599,99.1250597
"Jalan, Napitupulu Bagasan, Kec. Balige, Toba, Sumatera Utara 22311, Indonesia",J&J Guest House 1 Rumah,"[{'height': 1152, 'html_attributions': ['<a href=""https://maps.google.com/maps/contrib/109555109865469989492"">A Google User</a>'], 'photo_reference': 'AUGGfZkyKdlJOgVkDeTg99y1rOmB3RWfLgUNZPNY6sNAbIPiu0leyOBZC2AzdsuyZak2UjETxQ2gtND13_SuQcK2XSuamcwO4TNBPzRQ4SvcW9ybjUusvxBKRnBcqpM4ENI5zReluHw6npUarGe25gkaBPj3oHJldwUOyDajRikIzcIgVXOI', 'width': 1624}]",ChIJ75IoKh0FLjARxhSc7VcDZqI,4.3,"['lodging', 'point_of_interest', 'establishment']",34,2.336051,99.0650606
"Jl. Dr. TB. Silalahi No.88, Silalahi Pagar Batu, Kec. Balige, Toba, Sumatera Utara 22312, Indonesia",Homestay Ita Pagar Batu,"[{'height': 2256, 'html_attributions': ['<a href=""https://maps.google.com/maps/contrib/102045884649950972651"">A Google User</a>'], 'photo_reference': 'AUGGfZn8RVZaDN_-wRVs6pALKWvJVA9ioj_4i2NgVR_QbsHlMiszSbArjwxEbn7JCQzBq-vjPjdXP3_MQ6h_5GzxqA5FIK3pXd_Dftb2wx6cRYhcZ8nFXuPfXN5CDCxys4tjke1L-vAf2MPfTR7I9-tLSDSva0BDa4pRhiviBVFBceR63SpP', 'width': 4000}]",ChIJA1d-JXUFLjARM_Y6c_Xmaes,4.5,"['lodging', 'point_of_interest', 'establishment']",33,2.3319603,99.04937199999999
"Jl. Raja Bonanionan, Pardede Onan, Kec. Balige, Toba, Sumatera Utara, Indonesia",JS Hotel Balige,"[{'height': 2945, 'html_attributions': ['<a href=""https://maps.google.com/maps/contrib/113884921978934567099"">A Google User</a>'], 'photo_reference': 'AUGGfZmFrmH22BaFeh2l58HJR6PVMhxyK4650seMa9yeDN5lbNq_MruQfn4OpFqbT_7nF1fhY4dzABn5vh2MVtE-SiDjqaDLEZa-ASsplTKhb-3VBR7D0ZyjxgwpBna_CO7JPJ-VkOcv4wcmZIkGORsTLCm9WFnyfDgyzcKp1BVeWAfXocpD', 'width': 3927}]",ChIJVwKp9d8FLjARNa8pEc9QYXQ,4.0,"['lodging', 'point_of_interest', 'establishment']",62,2.3280276,99.06298199999999
"Jl. Mulia Raja No.54, Kec. Balige, Toba, Sumatera Utara 22312, Indonesia",Hotel Sumatera Balige,"[{'height': 2448, 'html_attributions': ['<a href=""https://maps.google.com/maps/contrib/106226130999123197865"">A Google User</a>'], 'photo_reference': 'AUGGfZk38WW34Dlr3i4wmV2hX6EbFMIsxIiZInUvzxh3vbxbcTuZlGr5sQo5L3evumL_wQc-egIbSPpIr4PlQahSnpagTyJoOs8-gTEgQgtiSfsIMVh8p_NUvOVfGL5CPyeIpFzTX4KZ5PHX7SsQMZtM3-I_Dg7AqQH8cv_nGyXoLJdSHE0F', 'width': 3264}]",ChIJe5yDpWYELjARBE0eoIPFxzc,3.8,"['lodging', 'point_of_interest', 'establishment']",133,2.3362856,99.0632476
"Jl. Sm Raja No.24, Napitupulu Bagasan, Kec. Balige, Toba, Sumatera Utara 22312, Indonesia",Hotel Mezra,"[{'height': 1040, 'html_attributions': ['<a href=""https://maps.google.com/maps/contrib/112259334009757673477"">A Google User</a>'], 'photo_reference': 'AUGGfZlyljey8Mh5CsCQ1owfV6JSEKXueHgM7AioCjgl8q3StMv7zlTCj2T4wIGjkYSF2WovpSnNrVj6ATVubNvgAGfKc3BLZ22VQZ0qnC937TeYjRq5G8wiQhWhg_io_LGvLTHqRyykpQ1YesVufE7hNeDLdwSR-IdrjesxxylewO53-5Hw', 'width': 780}]",ChIJZ_aK_WYELjARSNM1sQuqxxg,3.8,"['lodging', 'point_of_interest', 'establishment']",180,2.3347004,99.06509609999999
"Jl. DI Pandjaitan No.19, Napitupulu Bagasan, Kec. Balige, Toba, Sumatera Utara, Indonesia",Hotel Dizomn,"[{'height': 3264, 'html_attributions': ['<a href=""https://maps.google.com/maps/contrib/110167683783004927548"">Token Token</a>'], 'photo_reference': 'AUGGfZn-ajB509n2yXNAfOZPXiHSq7Qx6pFXsLA7yVi5fRhjYr-38SR5KEVdfulMIkoaC2kgP-EnH7KJzY1o5IECmfxj3ZQFB4DfZlQvKtaPwest3Rm4NjpYDcEx2CHCpwEapUPFQSbPzQuCHHkrIXjm63cFw7IUjHugO5FSuL-V4vxdkHPP', 'width': 1840}]",ChIJRUqAvWYELjARzj9yZrEHXuo,3.5,"['lodging', 'point_of_interest', 'establishment']",63,2.336444,99.0640131
"Jl. Parluasan, Balige II, Kec. Balige, Toba, Sumatera Utara 22312, Indonesia",Pudan Residence by Helocus,"[{'height': 2448, 'html_attributions': ['<a href=""https://maps.google.com/maps/contrib/110315038699908094646"">JHON R. TAMBUNAN</a>'], 'photo_reference': 'AUGGfZluo9OhMp2Pj2p_o-7DXTV2QEqIinyxLeYFs3ntUSMZyAOng_6hzrRY0RzDLKNy3afwKbJhUE8d8ii-J7nirkof9Uo-yca1EaAGUAL2VmT_gTxZOPaXIMG7qbewNdlKRCEF7cWMs9lNTqSrvG63nrHIQWc-BqGjB67Ptr9Rt6uRkitN', 'width': 3264}]",ChIJtXbH58EFLjARni3KIdA_LrM,3.9,"['lodging', 'point_of_interest', 'establishment']",37,2.3315952,99.0713519
"242, Jl. Sm Raja No.242B, Balige I, Kec. Balige, Toba, Sumatera Utara 22312, Indonesia",OYO 90645 Karisma Residence,"[{'height': 480, 'html_attributions': ['<a href=""https://maps.google.com/maps/contrib/101871761955459684040"">A Google User</a>'], 'photo_reference': 'AUGGfZkectB8OJQkPQ4mXsxS5nY56N__UrdOyKdS-0G5Mifih7j9mkFsNA9A67tcZO4PBjtp3JUAWloaeE6BPV2DBZ7sUGE1nxpLdgrzbGfwK3mxb1nAFmA9tYr-rz4oUEVF3KpvEm25bpo878Kcg1FC5hEnz28yjVG4wU_uyhOjvU3dEoT_', 'width': 640}]",ChIJHQyUYPEELjARW7xzSHJvQoo,3.6,"['lodging', 'point_of_interest', 'establishment']",69,2.3340418,99.0708499
"Jl. Gereja No.32, Lumban Dolok Haume Bange, Kec. Balige, Toba, Sumatera Utara, Indonesia",GM Marsaringar Hotel,,ChIJb4FuQAAFLjARzmM1evLMQcs,5.0,"['lodging', 'point_of_interest', 'establishment']",1,2.3304746,99.0669028
"Jalan Bandara, Gn. Marijo, Kec. Pinangsori, Kabupaten Tapanuli Tengah, Sumatera Utara 22654, Indonesia",Robin Homestay / Penginapan,"[{'height': 2268, 'html_attributions': ['<a href=""https://maps.google.com/maps/contrib/100902127114070024323"">A Google User</a>'], 'photo_reference': 'AUGGfZnt8ryi5UrM8AeC7p2kjZexOuyiJXu_xLXbzCB7N3S269B_nJG9m8cVLXPHRTS5wYJ8GXbGv7o3-pR2Jpb-FwEZesliIObzqkkCZRVQNcaqAuwg8XuC_ELjjL2lci_hMULoza71yBryDI2qhd5Pr35aJjNa-vtJ4Lxt_GGi--uKMQ', 'width': 4032}]",ChIJRbCuxFyVLjARJqaH7Hb6tOg,4.6,"['lodging', 'point_of_interest', 'establishment']",9,1.5596601,98.9041857
