formatted_address,name,photos,place_id,rating,types,user_ratings_total,lat,lng
"G85G+52V Grand mutiara hotel, Tamalea, Kec. Bonehau, Kabupaten Mamuju, Sulawesi Barat 91562, Indonesia",Grand mutiara hotel mamuju,"[{'height': 300, 'html_attributions': ['<a href=""https://maps.google.com/maps/contrib/115989931168216484141"">A Google User</a>'], 'photo_reference': 'AUGGfZm-1ay91ewrRnZEMTC0WnseRRN-f2DI8Y97bGSzUvvQ0RcmL_tahPgsf8eOGq7QbdkySjcvGA7wOA3htxnDqOU9o3QdjCbZwa_qx--zHiCHHr0_e9jTlah0qP2GxYV-X85OkHFOJQMF_xig3w5ChnJJ5Aj2xHvhcP7F_k88v6vJoyJu', 'width': 480}]",ChIJW_SyTCv1ki0RUmF0kgHEU50,3.5,"['lodging', 'point_of_interest', 'establishment']",2,-2.4920057,119.3250347
"91512, Mamuju Regency, West Sulawesi 91515, Indonesia",OYO 93411 Syariah Hotel Tomborang,,ChIJC1VVVVXxki0RD4RqyQl1GqQ,0.0,"['lodging', 'point_of_interest', 'establishment']",0,-2.492006,119.325034
"85FP+PQ4, Lakahang, Tabulahan, Mamasa Regency, West Sulawesi, Indonesia",Claudia House,,ChIJqXWHGgDjki0RFK19ZwDINic,0.0,"['lodging', 'point_of_interest', 'establishment']",0,-2.6757266,119.1869378
"Jl. Poros Salubatu, Buttuada, Kec. Bonehau, Kabupaten Mamuju, Sulawesi Barat 91562, Indonesia",Warung Andhika,"[{'height': 2268, 'html_attributions': ['<a href=""https://maps.google.com/maps/contrib/102642142060950138270"">Basri Ali</a>'], 'photo_reference': 'AUGGfZnRX-hw1zGYtN8NqHIcvxGImRCJ9Rxh905qBRnlAC9cPqUkGejRAlYGzTU-blzVSvuULsxTH1BbWq0JzmxKhNNk4v2JpB-cEgTYobw5zzyvSJql4V-vB7WG2691GKcr3AOUs3SomqACO8OM7aovpFYaxA8A3PdDXfE-AaEP-wFTnL3S', 'width': 4032}]",ChIJtUj3haHjki0RzL9a8WHGWkE,4.8,"['restaurant', 'lodging', 'food', 'point_of_interest', 'establishment']",8,-2.6602149,119.192502
"GFCM+PM7, Kalumpang, Mamuju Regency, West Sulawesi 91562, Indonesia",PENGINAPAN LULU,"[{'height': 3120, 'html_attributions': ['<a href=""https://maps.google.com/maps/contrib/104659782581886602409"">A Google User</a>'], 'photo_reference': 'AUGGfZk9lyJuQfOXPx2h-zTv6BAm2aUiyMf0Oc4fZPRk_xqoQd-Zv9ahbfCV-Ok3M7kFcVq1vbMnEhSAhPzsaG-W3ruqdrQwr2rOmxYSSD1t2NBQLV1fYV70mmjFUKTC4SYwjptdRhzBXqLday4qcSjOtlPPdMAx-meX3dJf1qIvuiclkotp', 'width': 4160}]",ChIJS8cgNsZeki0RTElSEM_YaNY,4.5,"['lodging', 'point_of_interest', 'establishment']",6,-2.478203,119.4841725
"85CF+9H8, Lakahang, Tabulahan, Mamasa Regency, West Sulawesi, Indonesia",KOSKOSAN 2 PUTRA,,ChIJrwUySQDjki0R8MTK-H9TVDk,0.0,"['lodging', 'point_of_interest', 'establishment']",0,-2.6790965,119.1739513
"Kalukku, Mamuju Regency, West Sulawesi, Indonesia",PENGINAPAN MANOHARA,"[{'height': 3000, 'html_attributions': ['<a href=""https://maps.google.com/maps/contrib/101664846821145036126"">A Google User</a>'], 'photo_reference': 'AUGGfZn_j-nMuL1QhasHxYVRnhgV6YZex-PJ1PUAmpZQuA9g67iIyu4C6YY7VXAlQ0PMWkSvuUFZWKBVgJHitmwIGLKb2-KYrCHF49DEb3n0-z_JsgEM9ebf0RxSyqXUUxxf6j4cxoiA8kai9t-1xDkhel1jUr_IypcPsPeoXQd0krn1aqy7', 'width': 4000}]",ChIJVTmdS2_pki0Ro1HoLSXlUJA,4.1,"['lodging', 'point_of_interest', 'establishment']",8,-2.54199,119.0724732
"85QV+R3F, Buttuada, Bonehau, Mamuju Regency, West Sulawesi 91562, Indonesia",Rumah Makan Naldy,"[{'height': 1800, 'html_attributions': ['<a href=""https://maps.google.com/maps/contrib/113213546773413943603"">Zam Sinar</a>'], 'photo_reference': 'AUGGfZn3-WyGZGXi6X1_5m1UxNLP-m4qIfMm-dQWbfC7_kedHFGQtYioTJBJBUF0LtWp4OPEDI29my9LZxHJcM9uAfDrNEwHK4XxKO9gfsP4OTrXb4pGYDH0k0robWRkdyQ9X6o2tgTagmz-mrVaP_9poNRLJi9eSj8v1Ym-nuTMvajWQOo2', 'width': 4000}]",ChIJgZSCQQ_jki0RzjK2ydPmddU,4.3,"['restaurant', 'food', 'point_of_interest', 'establishment']",29,-2.6604676,119.1926451
"M5CF+6QG, Jalan poros, Tarailu, mariri, Kabupaten Mamuju, Sulawesi Barat 91563, Indonesia",Wisma Naila,"[{'height': 1730, 'html_attributions': ['<a href=""https://maps.google.com/maps/contrib/113009891428154795218"">A Google User</a>'], 'photo_reference': 'AUGGfZmBUlVr0Jw2Ym2QSrmEtMM2T2Ck49mRISgPw0d-ZrQ-k0BOmHXkVhnJBOQ0tfg0WcWU2BKHtbxO0qV_OMm6seF0jCvUWGwgUjFUKxt5rBT6p1vmhcZfiAmRnwAqu2TfnnJuQ6G1cgURUgj5LrmP0WPgTuJeUns6RznTZQmSewEqj3Zp', 'width': 1080}]",ChIJmcnHSgCRki0Rccm7JZ6yc84,5.0,"['lodging', 'point_of_interest', 'establishment']",6,-2.3294344,119.1745181
"Lr.8 dusun rawamangun, Bunde, Kec. Sampaga, Kabupaten Mamuju, Sulawesi Barat 91563, Indonesia",Rumah rika,"[{'height': 1080, 'html_attributions': ['<a href=""https://maps.google.com/maps/contrib/110089728930543368935"">A Google User</a>'], 'photo_reference': 'AUGGfZl7ZQS2tw7hDeNHyZT_9KxPT2OqW7S0dg4goOI7qtdOEQOeu-j1v10WRgThPkzUOFGO7uqpqT-2cd0DhHO3BWkoeFuEgtqMnS8OuY0fFNz-k3l6ud6ovJM41vq3ASAIMtO2zzk2toWsVcSd86oDCw0oALxKzScSSmPmC_UDWBhhv5_c', 'width': 1920}]",ChIJK-u7nuqRki0RDJbupGPEfpc,4.3,"['lodging', 'point_of_interest', 'establishment']",7,-2.3369065,119.1710115
"H5J7+F29, Jl. Poros Majene - Mamuju, Topore, Kec. Papalang, Kabupaten Mamuju, Sulawesi Barat 91563, Indonesia",Bateng Sulawesi Selatan,,ChIJRUBwjqOTki0RUptmeHNth-Q,0.0,"['lodging', 'point_of_interest', 'establishment']",0,-2.4188776,119.1626445
"F3Q2+3J3, Beru-Beru, Kalukku, Mamuju Regency, West Sulawesi 91561, Indonesia",Muara Kalukku,"[{'height': 4000, 'html_attributions': ['<a href=""https://maps.google.com/maps/contrib/112337754558197398751"">rusmnz rusty</a>'], 'photo_reference': 'AUGGfZmKtIUeAwPxt3FvTYI8kQhCXymtuni1WSF90sre8P4V2-ZcJJCY4GdKGnRZnYOw_ITm2em96cQPbGNw-X8UZAvxmOHpzfcmRGfwnF4iiYbYZusnJ_y64nk-2WpI2z0CP7oltXPYKKB7-7ageyovivd_8ygQUVj5oK2aIAsde0GCPo2I', 'width': 2250}]",ChIJHfr5C5jpki0RojsyXhNUziY,4.3,"['lodging', 'point_of_interest', 'establishment']",4,-2.5123533,119.0515513
"R6CG+G6, Salogatta, Budong-Budong, Mamuju Regency, West Sulawesi, Indonesia",Home Deni nuviadi,,ChIJ0XzCkYudki0RJZwsesNxm9U,0.0,"['lodging', 'point_of_interest', 'establishment']",0,-2.1786806,119.2255302
"F34F+GJ8, Unnamed Road, Kalukku, Kec. Kalukku, Kabupaten Mamuju, Sulawesi Barat 91561, Indonesia",Rumah Erna,,ChIJBcjXD9bpki0Rm96hxmiY6r4,5.0,"['lodging', 'point_of_interest', 'establishment']",2,-2.5437017,119.0740779
"843X+58H, Burana, Tabulahan, Mamasa Regency, West Sulawesi, Indonesia",Pastori,,ChIJHRzpTQDjki0R8aE2BHENexk,0.0,"['lodging', 'point_of_interest', 'establishment']",0,-2.6970166,119.1483369
"Lumika, Bonehau, Mamuju Regency, West Sulawesi 91562, Indonesia",WARUNG FFD | FANTASY FOOD DRINK,"[{'height': 892, 'html_attributions': ['<a href=""https://maps.google.com/maps/contrib/105419874202137928567"">A Google User</a>'], 'photo_reference': 'AUGGfZm0TTZudY28-EOhjcGMcXVxaiiKxs8dw-_j5PzrA8QVy422A2dmqekdyt7oVA6_-0rI2jGsr3Oq5woTKy7lGXem3lQXiM3Vd-JFX6DVx-vg4wt8RR_3LH35XhXDm3arGk0K8rnAuHC8dSusSBYjEzwz83tUXQtb4spQT2hLjSV4Z2Lh', 'width': 720}]",ChIJUW16FwD1ki0RZBsWuESyM8E,0.0,"['restaurant', 'food', 'point_of_interest', 'establishment']",0,-2.4867458,119.370579
"Jl. Abdul Malik Pattana Endeng, Simboro, Kec. Simboro Dan Kepulauan, Kabupaten Mamuju, Sulawesi Barat 91512, Indonesia",Grand Mutiara Hotel Mamuju,"[{'height': 809, 'html_attributions': ['<a href=""https://maps.google.com/maps/contrib/104057496721972677483"">A Google User</a>'], 'photo_reference': 'AUGGfZkqmHtX2Pu4bM5ei__oQOkKLWyMBB_7Vf80fBX2iliH5FF8l1hfHbnTDgb8ls8y9WW6GCZZnw0fjWVf4v7a0HreGT2P-RppTawxV2yBsAB5VWbZsTnZquE2JGNSSjAYpdqF5pASb1VRF--tq1TtvHzCPtRt-f6xkNZ9-RRzj8RMhhrb', 'width': 1440}]",ChIJf2kQtX_Xki0RyWQ1kPxSHYQ,3.7,"['lodging', 'point_of_interest', 'establishment']",233,-2.6765047,118.8581205
"8V7G+PJM, Jl. Diponegoro, Karema, Kec. Mamuju, Kabupaten Mamuju, Sulawesi Barat 91512, Indonesia",Luke's Hotel Mamuju,"[{'height': 1800, 'html_attributions': ['<a href=""https://maps.google.com/maps/contrib/114950772419672588029"">A Google User</a>'], 'photo_reference': 'AUGGfZm2pmFC2gyuMAJTx3i8Gd4auv-lmFarKYx7uVsbLXskGabBZNoo5P1kp_j13zPgM-vNnkCKpb1J1byZ0Ytys6xb4cPmioVwEK1TPZen3D1cNSbwgydhXomAnBSpDq1wnRu2gRC36ZHTV99NGKWHW0UIusHSts2jzttwtAFgyhtnbqcy', 'width': 1440}]",ChIJOf07gTrZki0RRFK5Pa2BQUs,3.9,"['lodging', 'point_of_interest', 'establishment']",68,-2.6856713,118.8765259
"8VCJ+JCC, Rimuku, Kec. Mamuju, Kabupaten Mamuju, Sulawesi Barat 91511, Indonesia",Hotel Mamuju Beach,"[{'height': 682, 'html_attributions': ['<a href=""https://maps.google.com/maps/contrib/100009512964084805227"">Misnawati Mansur</a>'], 'photo_reference': 'AUGGfZkxlEFcqLO8qSdRHq91y3fQVnFd8nFFrpUk2DeHUn15wqJBMja5MSCk5lA5zDI3c2bKqBwfm0SUPDgcwHZXHS6AHhUEUqhgSTHL8Z7R__pr8-BraDvMpW8EkS7jeR0lG5dd_O2sKSElS5c3xpNIUJKGSPjJPadZ4RQ9pMqt15IUFBkZ', 'width': 1024}]",ChIJ4573MDXYki0RQtUMH1-_GkY,3.3,"['lodging', 'point_of_interest', 'establishment']",167,-2.6784472,118.8810167
"Jl. Musa Karim, Karema, Kec. Mamuju, Kabupaten Mamuju, Sulawesi Barat 91512, Indonesia",RedDoorz near Pasar Baru Mamuju,"[{'height': 600, 'html_attributions': ['<a href=""https://maps.google.com/maps/contrib/104952463083322316223"">A Google User</a>'], 'photo_reference': 'AUGGfZk_3idPQ4dFxcjjLt53YaxLHFGhLH-vL8BhuUfxCignynLzxidL6kSPmi51D_ASKec1PCVZ08RJZM1E13S7joNg-xcCnerLaFfCL8jQl0jb-uqi7P6ON35HJKrzD-6qmz2UoQ7IkzMB5T7BPD6XcKrMEpA7a2_rEk75aC9gLmM-vih4', 'width': 900}]",ChIJ69J0CTnYki0RBCjIMwLNm_A,4.1,"['lodging', 'point_of_interest', 'establishment']",273,-2.6902936,118.8792996
"Jl. Poros Majene - Mamuju, Sinyonyoi, Kec. Kalukku, Kabupaten Mamuju, Sulawesi Barat 91561, Indonesia",penginapan nur tampa padang,"[{'height': 3968, 'html_attributions': ['<a href=""https://maps.google.com/maps/contrib/101051243289620931935"">agief july prastian</a>'], 'photo_reference': 'AUGGfZnJvCLM52_saWzE7wT8GddN7lCRtHfckJpwg25vk6s8Gc4wLdrxyzlSf3qbPt5Kd6EHk_TujgLGsS7eW6pjfRuQe1qy7eoL2fd6HIdzSquLpg2zjPqlJgkKVflMzsr_FpBV5CyMKO3pND0UflhamZffngq_ZHXUyAx_kFkdXxGqN1N7', 'width': 2976}]",ChIJi2S3cWndki0RE8WtE4f93JI,3.1,"['lodging', 'point_of_interest', 'establishment']",17,-2.5893961,119.0294035
"Jl. H. Andi Endeng, Karema, Kec. Mamuju, Kabupaten Mamuju, Sulawesi Barat 91512, Indonesia",RedDoorz @ Hotel Yaki Mamuju,"[{'height': 600, 'html_attributions': ['<a href=""https://maps.google.com/maps/contrib/106084437570391994381"">A Google User</a>'], 'photo_reference': 'AUGGfZkrwbwabTk4LLpgR_-sUyXdReLNgq2Uwfq4lwtpuFYE08LKKrMWfmCqf_ZS7dx1_axRuY7TDtzu7soi9aywIzEsKRrRtmsuVtKgg5VgZO6a3c0oBUmfpLwoShp6srXJrDnhOpnoi9zecV5WsBmEP_Ez_FKeufCPJamtnDzfk2f6qlOp', 'width': 900}]",ChIJe9tLJjTYki0ROKfeivq5vB4,3.3,"['lodging', 'point_of_interest', 'establishment']",251,-2.6797707,118.88019
"Karema, Mamuju, Mamuju Regency, West Sulawesi 91512, Indonesia",Hotel Tomborang,"[{'height': 809, 'html_attributions': ['<a href=""https://maps.google.com/maps/contrib/117640025515580704019"">A Google User</a>'], 'photo_reference': 'AUGGfZkoOvN3q9lx00zjNTbK0SgrN9ipgd6rDCtiYlevtiHfH-ALR9UVDRNoKi-tdyoRISA9EMLrP-UpCwxL62U6Kit1MguYyuIKAnxHhx-2eetEsS6PRlR0ICp0Ok8UGi5Q7evtSn2r3B37SlPDZ9oRajflVZzs7l9h7Iz3Me7h1EZe7eI', 'width': 1440}]",ChIJqbZYySTYki0Rl_At4ls_sKY,4.0,"['lodging', 'point_of_interest', 'establishment']",144,-2.6900252,118.8709629
"JL. H. Andi Dai No.23, Binanga, Binanga, Mamuju, Binanga, Kec. Mamuju, Mamuju Regency, Sulawesi Barat 91511, Indonesia",Marannu Golden Hotel,"[{'height': 4000, 'html_attributions': ['<a href=""https://maps.google.com/maps/contrib/106845511371271405686"">Novrizal Herdananto</a>'], 'photo_reference': 'AUGGfZkqiQrymbOLNQYgs16bwKjlufadmX8kfqpaxj47oZPQRF0wZ1DYDLNidw5-g-17tgGZSs2Ij99PkLgtICYC6LN49RYEu4qP2KRmp9eRV2cZ7H-UIPHb-lJ0CzOJYsLJe-NoekEr_ypVWA4rDf42LxVU4cfDHHBCziL-4KqnEwqaHIji', 'width': 6000}]",ChIJjzD80q_Zki0Rxb2lDDiaejI,3.9,"['lodging', 'point_of_interest', 'establishment']",251,-2.670857,118.895191
"8VFV+3GV, Jl. WR. Monginsidi, Binanga, Kec. Mamuju, Kabupaten Mamuju, Sulawesi Barat 91511, Indonesia",Hotel Anugrah,"[{'height': 2160, 'html_attributions': ['<a href=""https://maps.google.com/maps/contrib/103484761566019534749"">surya dharma</a>'], 'photo_reference': 'AUGGfZlbhIDUHJDm6x4dVHQHdsuq9jNJ8XWz6TEt_Z9P-GFepGKAMxiIYZICDwNA1LCabolOxfQQd8qqER_5xBVqVoV6APGhzU7-qw7t_uJ7Xb8FH1H-sn5QNyDud6D7KijsAKIG1yANCDjFn6F4ybA3XllnUtsPRvzS7LiCquM9yI2MyPxN', 'width': 4560}]",ChIJE8HFsbLZki0RnA4udek-C4U,3.8,"['lodging', 'point_of_interest', 'establishment']",51,-2.677247,118.8937954
"8VGP+FQV, Jl. Yos Sudarso No.51, Binanga, Kec. Mamuju, Kabupaten Mamuju, Sulawesi Barat 91511, Indonesia",Grand Maleo Hotel & Convention Mamuju,"[{'height': 3000, 'html_attributions': ['<a href=""https://maps.google.com/maps/contrib/115861945855137062745"">Muhammad Saleh</a>'], 'photo_reference': 'AUGGfZk2lLjPYPdtSrdAEiHfEma9VOYIzr525J0chx2ZdmaVbUGcQwvbMpywEWD9ibEPg2xh-GikjxHNKiv5kLhCiSBU6PKHr9Eku7ILEBh4XrZc_Zl03PdTxiB0HNq_ydpP7bVF4ignH8Mk3LORxpe_yqKd_hEoPVf9b3YItF3B8OL9B-0v', 'width': 4000}]",ChIJid8DkLbZki0RZJT9JRwerII,4.4,"['lodging', 'point_of_interest', 'establishment']",2670,-2.6727989,118.886665
"8VCJ+PC3, Jl. KS Tubun No.54, Rimuku, Kec. Mamuju, Kabupaten Mamuju, Sulawesi Barat 91151, Indonesia",Aflah Hotel,"[{'height': 2256, 'html_attributions': ['<a href=""https://maps.google.com/maps/contrib/111056673091389897249"">A Google User</a>'], 'photo_reference': 'AUGGfZmtZH4Hh5H0_Vq41L0t1Qu0CVcmBV6jjs09oR0OQarFeulGGM5y0_ixnKzn18Y1bplFy9hgzUzZjm3lHyzcxUbRL0dssZ86QI3BhMIww8I3Y0XaMryvZx_xmJMafEnVHKKazt9N84c0yNvkYzVLjOV0Zdw06pnQkLmBne3PW94HRx2F', 'width': 4000}]",ChIJXUNVmubZki0Rtt7xb0hvJ34,4.4,"['lodging', 'point_of_interest', 'establishment']",21,-2.6784886,118.8809964
"Jl. Badau No.25, Rimuku, Kec. Mamuju, Kabupaten Mamuju, Sulawesi Barat 91511, Indonesia",Hotel Pantai Indah,"[{'height': 2304, 'html_attributions': ['<a href=""https://maps.google.com/maps/contrib/115740964550781499671"">Syarif Rifqi</a>'], 'photo_reference': 'AUGGfZmH0AQ56HznuCkNRL6wr5cDZC4cwhNkt8v33pfhAWitZigwJBWl6Got_2s6Kf2fwEaKPQVPK2J4Dk-d8QP-s1Nk9f94TFuE8aUuG905ZS-S94mue7Lp39YyplLypoeV5nz-T1UudRpDmrWionusgpeTn3PvIx1jAOPrqmVDi87j2-Fm', 'width': 4096}]",ChIJg3akysrZki0RRGdeHS-0THE,4.0,"['lodging', 'point_of_interest', 'establishment']",584,-2.6769483,118.8836748
"Jl. Pattalundru No.04, Binanga, Kec. Mamuju, Kabupaten Mamuju, Sulawesi Barat 91511, Indonesia",Hotel Meganita,"[{'height': 720, 'html_attributions': ['<a href=""https://maps.google.com/maps/contrib/107507535459639917917"">A Google User</a>'], 'photo_reference': 'AUGGfZmWcqs1hT5nJ__w5rOS1QgcNVNo-bu7BRjTH14e8rx1qiGs1SVEozolp-FNNNEkSqPzT74-8IqrEDGh5FQ7OYKR1mfhmFpcwG3n7wqJFHX2I_PIZfDan6Ms8sj6Ax9D9w-7XAZ4BeaZpsJhLlbo6jo1WPlyBsKDHm3mdktXH5UUH2NV', 'width': 1280}]",ChIJe8QHr63Zki0RAVqjRxaX6xw,4.3,"['lodging', 'point_of_interest', 'establishment']",349,-2.6781214,118.8926919
"Jl. Soekarno Hatta, Karema, Kec. Mamuju, Kabupaten Mamuju, Sulawesi Barat 91512, Indonesia",RedDoorz @ Karema Area Mamuju,"[{'height': 1728, 'html_attributions': ['<a href=""https://maps.google.com/maps/contrib/111934582050037683346"">A Google User</a>'], 'photo_reference': 'AUGGfZmG4IPn_oJzfup0Irj3KtOsaGtR5Iu7EdEkug3rh2KbeZ0adepF-pF-QF0rhqrJz21LKv3-C_wo6ZBE42lVxkqHcMkPoUZ5RfhGrlVEgKSZfMzSzetNUr_BhtsEzbBHOIQYCkZuO56ZgxCxEb0ClqaMhFYImo-4344oF71wHP9Ec1_K', 'width': 2592}]",ChIJD7Gzbz7Yki0R_UqClDKYN-E,4.6,"['lodging', 'point_of_interest', 'establishment']",84,-2.694171,118.8778142
"8VHR+5F3, Jl. Emmy Saelan, Binanga, Kec. Mamuju, Kabupaten Mamuju, Sulawesi Barat 91511, Indonesia",Hotel Rio,"[{'height': 1080, 'html_attributions': ['<a href=""https://maps.google.com/maps/contrib/100899137773313243283"">TOGAR DANIEL Maringan</a>'], 'photo_reference': 'AUGGfZnyVp_osAAw7XeMviH7D3abZqbyZ_5ES7tovzWBr-6FbW7Xj4eOj91G8aq93ogCCH8f8mP9OxlnEZBNk2Ut-OsuD18AWYejZVnxxqx6H_u3VPqF4RtQfUTh-HzGDubGn6GBrds2om6rcZ1FYZ_ahNpwerh0qqT8_ilurPSbCdwCy7tK', 'width': 1920}]",ChIJtySeVLDZki0RnOObWiITsL0,4.0,"['lodging', 'point_of_interest', 'establishment']",98,-2.6721364,118.8912027
"Jl. Kurungan Bassi (Trans Sulawesi) No.32, Rimuku, Kec. Mamuju, Kabupaten Mamuju, Sulawesi Barat 91511, Indonesia",M'city hotel,"[{'height': 3000, 'html_attributions': ['<a href=""https://maps.google.com/maps/contrib/117959391496875016339"">supermonec</a>'], 'photo_reference': 'AUGGfZlYCF5QOTzgE6ae5S1k8qZKSUQBsg6Heo_HHyTrm5P836LQQkL0uBgHcBTq_mWtfeBbbfSiuAI-h95zGiF6CC2zxwHEVaREGaPzlCi4TPWFEnK21DqIMpIh-CR5A-vuFn38GCeepbC1NqAGb4GUzoF85tCTBBvXuwmZ-aNByWr5aEdh', 'width': 4000}]",ChIJF8ASfPTZki0R9a2U80SJYFQ,4.2,"['lodging', 'point_of_interest', 'establishment']",94,-2.6814895,118.8890128
"8VHR+28X, Binanga, Kec. Mamuju, Kabupaten Mamuju, Sulawesi Barat 91511, Indonesia",Hotel Diana,"[{'height': 1080, 'html_attributions': ['<a href=""https://maps.google.com/maps/contrib/109138295480657861854"">Rizki Kosasih</a>'], 'photo_reference': 'AUGGfZkluRSb06hJDFRfzuXRFuRNMlFlGLreD78mCKWr9P5PYV7KmuxOMeE_N0_d14XoKvyitbJ12cNP3lJaqdwMz_USt0Zgx8OdK3J5hnJ2FdiEpywuCnM82csH_GMh_ZZqZ6pK7l-0UdGh2D2A5gHEN2Rk-F3gReD6Bbns6IerF-1HW-Bx', 'width': 1920}]",ChIJ_Se5bbHZki0RxM5mBPuBQ28,3.8,"['lodging', 'point_of_interest', 'establishment']",215,-2.6724225,118.8908751
"Jl. Pattalunru No.10, Binanga, Kec. Mamuju, Kabupaten Mamuju, Sulawesi Barat 91511, Indonesia",Srikandi Hotel,"[{'height': 6000, 'html_attributions': ['<a href=""https://maps.google.com/maps/contrib/115861945855137062745"">Muhammad Saleh</a>'], 'photo_reference': 'AUGGfZli5pg2NnQ8HfrfZFyn2DJ-kbkPDeRvGpgsgqy_w4lO71BfsE87UslkS1O9VwY7ViKw37eT2wC9VRZ7MtfTm8LrtDPCd0Y8oO_Ja3NEwCF28pDeI7eDuM6NPI6jcABjBVrteuKekp6y1VM-_tw_R2jbv-bAbO_iqYyoE9MXx4PA0xzQ', 'width': 8000}]",ChIJJ49c9R7Yki0RxaHOILR6wpc,3.5,"['lodging', 'point_of_interest', 'establishment']",376,-2.677449,118.8921405
"8VGR+Q3X, Jl. Emmy Saelan no, Binanga, Kec. Mamuju, Kabupaten Mamuju, Sulawesi Barat 91511, Indonesia",Wisma 45 Mamuju,"[{'height': 4128, 'html_attributions': ['<a href=""https://maps.google.com/maps/contrib/109430287852278655875"">A Google User</a>'], 'photo_reference': 'AUGGfZkagp9J8Xu2ceyJBF9CgEKKDyImrFtMaIA7GQ9cfKb5gKdy5Yb84uPP4xvKs2WYJ6Wr0fTcC8l4V7-F5priJEHTVKdxI0QaQ0y72lKboMwlB4HhXKiz3yEhhv1cMuMwZwMpiza4MWVoEU5Us1WFHWqpt5NchauObzdc1aHxNOHr7pMj', 'width': 3096}]",ChIJ7SP4XbHZki0R7uZq_saRMYU,3.9,"['lodging', 'point_of_interest', 'establishment']",85,-2.6729653,118.8901762
"8VH2+F2W, Rangas, Kec. Simboro Dan Kepulauan, Kabupaten Mamuju, Sulawesi Barat 91513, Indonesia",OYO 93536 Pondok Almirah,,ChIJ_Tjb6HrXki0RjBT5DavaOOQ,0.0,"['lodging', 'point_of_interest', 'establishment']",0,-2.6713306,118.8500486
"Binanga, Mamuju, Mamuju Regency, West Sulawesi 91516, Indonesia",OYO 93443 Emmy Homestay Syariah,,ChIJUcFEZk3Yki0R_xyQEzcZ66U,0.0,"['lodging', 'point_of_interest', 'establishment']",0,-2.6788125,118.8940625
"Jl. Emmy Saelan, Binanga, Kec. Mamuju, Kabupaten Mamuju, Sulawesi Barat 91511, Indonesia",Wisma SEDERHANA,"[{'height': 2000, 'html_attributions': ['<a href=""https://maps.google.com/maps/contrib/112566641605127834523"">A Google User</a>'], 'photo_reference': 'AUGGfZk8XkgoGEGR69cdDvK6_2yxY8imMeCuLSp-X7wk1n5adQ4QgEZpJF_7q2Xck_RHwr5Z8b9GvHnHfwVAFuj06ou7zcIv4S-NoE1SF4uPRTn7lzchYXO1OiHohTKJ1YuPXTooiLAbC9OOLgKrZcKb-2uzJKOthQ7uhX3zu2oILC-so3-3', 'width': 3000}]",ChIJOxWFGu7Zki0R1OCHAQx5VqI,4.0,"['lodging', 'point_of_interest', 'establishment']",6,-2.672532,118.8912053
"Jl. LetJend Hertasning No.51, Binanga, Kec. Mamuju, Kabupaten Mamuju, Sulawesi Barat 91511, Indonesia",PENGINAPAN ANANDA,"[{'height': 2048, 'html_attributions': ['<a href=""https://maps.google.com/maps/contrib/107544700783273844327"">Khaisan Nawanksa</a>'], 'photo_reference': 'AUGGfZk0E_kF6vrS4mcysChm7rz0K1fer4eJyEH7JEiKYz33A5qjqc8h-xyQuQ1oUojhZqcV2hweyDhsfJwe_AgRdaghYeyn06-yK9LAtwJMmYjlDwvG9kepVt2aTZNXUDLFkszVA9tzMLUbx3JObelS_OrT9rWfaFZgBJywrJGVBTr7R04', 'width': 1536}]",ChIJv1rAerHZki0RAHVpG0cFMvc,4.4,"['lodging', 'point_of_interest', 'establishment']",34,-2.672685,118.8909335
"8WG3+9H9, Ir.Djuanda Lane II, Mamunyu, Mamuju, Mamuju Regency, West Sulawesi, Indonesia",Hotel Bukit 88,,ChIJA8Y_SKrZki0RE7glKBm-4tk,0.0,"['lodging', 'point_of_interest', 'establishment']",0,-2.6741189,118.9040022
