formatted_address,name,photos,place_id,rating,types,user_ratings_total,lat,lng
"Jl. Raya Gisting, Banjarmanis, Kec. Gisting, Kabupaten Tanggamus, Lampung, Indonesia",Urbanview Hotel Syariah Ratu Kuring Gisting by RedDoorz,"[{'height': 4000, 'html_attributions': ['<a href=""https://maps.google.com/maps/contrib/100703436107471112711"">Trio Adi</a>'], 'photo_reference': 'AUGGfZlq7PDrkPSm-cK5iZLQ_IRF7YcIaraDAe40-o5qLeVT4h0rHk_9V9sQGxMAUzs-LsTp2gn4jXTx_GGYrP5-6kkFn3ZGPyxxtOC5mG7rXcq-hLtPEjIhrx0l9cxY57FMYfTT1l3w_iSRLimH7MyODMBZjMqdkuLuCLr5LAmMf6s-v_x9', 'width': 3000}]",ChIJ7Q45Of0jRy4RzfxKJ-YPVAk,4.0,"['lodging', 'point_of_interest', 'establishment']",70,-5.4150317,104.7404886
"JL. Raya Gisting Bawah Blok 1, Campang, Pringsewu, Kabupaten Tanggamus, Lampung 35371, Indonesia",Gisting Hotel,"[{'height': 1080, 'html_attributions': ['<a href=""https://maps.google.com/maps/contrib/113783878548146100157"">Ricki alifiya</a>'], 'photo_reference': 'AUGGfZkmHm2rii01fjR8KjSTEw-NleLlmMGiaj1C9Z8EYFed4KKCRUisj1JMD1QiMobhRqpYzci3dHLZ-25GNuUxA4kJPc5WvM7ZMpwbAEScLTSwcgtgFngRaFCGRoUDDnraP_oJVAEytBJglZSp2mNo3P82Mm6ZWwOQNKNUlldH_w_I8Sdb', 'width': 1920}]",ChIJ6ePOyJojRy4RpeYUgri9TYc,3.7,"['lodging', 'point_of_interest', 'establishment']",209,-5.4235584,104.7308062
"JQJH+Q77, Jl. Kota Agung - Balimbing No.22, Banding Agung, Kec. Talang Padang, Kabupaten Tanggamus, Lampung 35377, Indonesia",RedDoorz Syariah @ Pudja Kesuma Lampung,,ChIJdZJzffU7Ry4RlBrfHBud_H0,0.0,"['lodging', 'point_of_interest', 'establishment']",0,-5.3731319,104.7779076
"GFWV+9JC, Bandar Sukabumi, Bandar Negeri Semuong, Tanggamus Regency, Lampung 35386, Indonesia",Rumah Alimuddin Home's,,ChIJuTdsGWIbRy4RcmQJNzg2bXg,5.0,"['lodging', 'point_of_interest', 'establishment']",2,-5.4531948,104.4943325
"HC3V+QC7, Sido Mulyo, Semaka, Tanggamus Regency, Lampung 35386, Indonesia",Kuprit,,ChIJvXu5SAAFRy4RLKJqUvk6UPg,0.0,"['lodging', 'point_of_interest', 'establishment']",0,-5.4455554,104.4436297
"GG94+GW8, Jl. Raya Banjar Negara, Banjar Negoro, Wonosobo, Kabupaten Tanggamus, Lampung 35386, Indonesia",Rumah adit alvin,,ChIJ9bqpIAAdRy4Rr7rrDFhl8Fc,0.0,"['lodging', 'point_of_interest', 'establishment']",0,-5.4812748,104.5074024
"GG53+W7P, Kanoman, Semaka, Tanggamus Regency, Lampung 35386, Indonesia",Rumah Bustami,,ChIJFbO2Ez8dRy4Rnwo6-cVgFCw,0.0,"['lodging', 'point_of_interest', 'establishment']",0,-5.4901723,104.503192
"QFGJ+FG, Ulu Semong, Ulubelu, Tanggamus Regency, Lampung, Indonesia",Hotel,,ChIJLXqGacYTRy4RmO5qbXY_Pog,0.0,"['lodging', 'point_of_interest', 'establishment']",0,-5.2238456,104.4813266
"FGW6+79F, Sido Dadi, Semaka, Tanggamus Regency, Lampung 35386, Indonesia",Relaksasi,,ChIJo-9_EgAdRy4RmDhTGD5iQ60,0.0,"['lodging', 'point_of_interest', 'establishment']",0,-5.5043,104.5106366
"V94M+P5X, Sumber Alam, Air Hitam, West Lampung Regency, Lampung 34884, Indonesia",Lek nor keple,"[{'height': 1200, 'html_attributions': ['<a href=""https://maps.google.com/maps/contrib/112357037055194181905"">hasim cis Cah Kene Wae</a>'], 'photo_reference': 'AUGGfZnQxuivNTGSSLWthlwpT9K5Icw2sxONYuU8QSYaGCsxPETSgOsWAI0uCuzly_4p48n_kXmHjK_1Wrh_RXYrlMPcXgahEdQ5hUBhDqqW8c2xBNXDuDibgE7KcpQewZ_G0iuNhk5_bHQZxUp-9MaYrR9Raniql5pY5oddxKbQU7DPbshA', 'width': 1600}]",ChIJf_nNVBlxRy4R5pETqR6exNU,5.0,"['lodging', 'point_of_interest', 'establishment']",1,-5.143126,104.3829777
"GJ4C+JP3, Kuripan, Kota Agung, Tanggamus Regency, Lampung 35384, Indonesia",Hotel Ks Samudra,"[{'height': 1080, 'html_attributions': ['<a href=""https://maps.google.com/maps/contrib/116153060058922479835"">Muzhoffar Busyro</a>'], 'photo_reference': 'AUGGfZkpvZdqJTLD-MJrZo3omUvdciPo44aHC9JG7hQ7O_qWWDbrEF1xklG0f_6Oayq-QtESzaEf0bEmQButKzo2Xui3THt8Mwam2-a2c08MR0cyJc2uFChSPw5eHBPMY_fewntUprZsQdIU8batn9A0eevNbQS28-BCMLHbUHTe9SxG1_LF', 'width': 1920}]",ChIJG5FVwhofRy4RATiBu30AE-Q,4.0,"['lodging', 'point_of_interest', 'establishment']",33,-5.493500099999999,104.6218232
"Jl. Kota Agung - Bengkunat, Negeri Agung, Kec. Bandar Negeri Semuong, Kabupaten Tanggamus, Lampung 35386, Indonesia",Pekon kuta dalom,"[{'height': 4160, 'html_attributions': ['<a href=""https://maps.google.com/maps/contrib/116171183525318522433"">A Google User</a>'], 'photo_reference': 'AUGGfZkxxpEPVYXhGOUuAXKMjAo1soZGmMxWKZ-YdFoTH9FQ08WnGC-SRV3phNf-6kcWjoXugeT116jShxcDXshFnmosPRch9DUFLtrFgDZyit5K8QvUvewSENLW9km-K9IpoAF80ZCO_HMp1GGH6M_axvUpCjckxs-30f9KoMVjsRa5_A59', 'width': 3120}]",ChIJF_nRsZMbRy4R1VSi0HUFvNk,3.0,"['lodging', 'point_of_interest', 'establishment']",2,-5.4578528,104.4981285
"QF8M+C36, Sinar Banten, Ulubelu, Tanggamus Regency, Lampung, Indonesia",Hotel,,ChIJLazyzfwTRy4RYDgvY5gLZKg,0.0,"['lodging', 'point_of_interest', 'establishment']",0,-5.2339714,104.4826449
"FF3Q+8VC, margomulyo, Kec. Semaka, Kabupaten Tanggamus, Lampung 35386, Indonesia",Hotel,,ChIJHcJxKCsdRy4RbYjYNSJ4okA,0.0,"['lodging', 'point_of_interest', 'establishment']",0,-5.5467233,104.4888705
"GJ3C+36X, Baros, Kota Agung, Tanggamus Regency, Lampung, Indonesia",Hotel KS,,ChIJqTLrVQQfRy4RuMKGIGx6JHU,3.7,"['lodging', 'point_of_interest', 'establishment']",3,-5.4972701,104.6206277
"FF3Q+8VC, margomulyo, Kec. Semaka, Kabupaten Tanggamus, Lampung 35386, Indonesia",Hotel green VIP,,ChIJweD79kIdRy4RqhWaKfjwVWw,0.0,"['lodging', 'point_of_interest', 'establishment']",0,-5.5467002,104.4889502
"GJ53+GW9, Batu City, Kota Agung, Tanggamus Regency, Lampung, Indonesia",Rmh Maria Manurung,,ChIJKRipfsofRy4RU2MsIGzkY_k,0.0,"['lodging', 'point_of_interest', 'establishment']",0,-5.4912244,104.6048622
"Q7VP+4HJ, Unnamed Road, Gn. Ratu, Kec. Semaka, Kabupaten Tanggamus, Lampung 34872, Indonesia",D2 Hotel,"[{'height': 2448, 'html_attributions': ['<a href=""https://maps.google.com/maps/contrib/110543596605852255908"">anisa putri</a>'], 'photo_reference': 'AUGGfZnq9zR9lsz-aS4iin4EBCW6gWkvtpJDkq2YIufoU4bKZ-huGvtr3UfGs7ZcLOD8xXrnhJTLTF84StiBcBqjytSnHZLxj23r9A-tY9KHLYw9rx9AMy2f8rLxFUoMoPhhVSTwg6nI2jBB3d5n_rOlYEtYJhGUHdRyfFC-Vm2QB7K1yFSU', 'width': 3264}]",ChIJT-NFOWd1Ry4RUc3WjptLFP0,4.8,"['lodging', 'point_of_interest', 'establishment']",9,-5.2071504,104.2863798
"GJ3C+RFV, Jl. Samudra, Ps. Madang, Kec. Kota Agung, Kabupaten Tanggamus, Lampung 35384, Indonesia",Hotel Setia,"[{'height': 1080, 'html_attributions': ['<a href=""https://maps.google.com/maps/contrib/116071098424238681927"">Soerya Tjandra</a>'], 'photo_reference': 'AUGGfZkraobyWenIzGYYwPPTfVc1GY50dqZPlE2KDOIrb4p4EzMJL8SChN9yZ0S90wBBt9o4NIChOUi9Wsb2Ru3vrnbJ5y8QAMcUeC68UbI5Za3wC7z8iLYTKk_q085nwdW5O0ozZ_ADbQLBKjG42BB2yT_Wp9VjvD_woVDgBOpMYjYfnfFn', 'width': 1920}]",ChIJUb0pJAUfRy4RvQ7NvIMKEbs,3.7,"['lodging', 'point_of_interest', 'establishment']",130,-5.4953885,104.6211693
"W9PH+34F, Tanjung Raya, Way Tenong, West Lampung Regency, Lampung 34884, Indonesia",Pak Jok,,ChIJ9zYJBcR3Ry4Rn5xYeYkwSyk,0.0,"['lodging', 'point_of_interest', 'establishment']",0,-5.0648231,104.3778495
"FG64+6J2, Tugu Papak, Semaka, Tanggamus Regency, Lampung 35386, Indonesia",Tore hotel,,ChIJB4DE32QdRy4RdC-7El_kKsQ,0.0,"['lodging', 'point_of_interest', 'establishment']",0,-5.5395257,104.506518
"QF2H+C72, Gunungsari, Ulubelu, Tanggamus Regency, Lampung 35387, Indonesia",Yametee,,ChIJy7eJ9CcTRy4RHOIqLB7Oha0,0.0,"['lodging', 'point_of_interest', 'establishment']",0,-5.2489877,104.4781532
"PFWG+R2J, Gunungsari, Ulubelu, Tanggamus Regency, Lampung 35387, Indonesia",Rumah Wahyudiansyah,,ChIJ04nBjhYTRy4RX9D0bB8Vz_8,0.0,"['lodging', 'point_of_interest', 'establishment']",0,-5.253118499999999,104.4759374
"Pasar Madang, Kota Agung, Tanggamus Regency, Lampung, Indonesia",Wisma Osela,"[{'height': 862, 'html_attributions': ['<a href=""https://maps.google.com/maps/contrib/110593733038549105225"">A Google User</a>'], 'photo_reference': 'AUGGfZn8vawNjT3Ky4oo--OmKdr_WSjB0kL5wGNtoHQZDQcZBH37szVjuZLorvsj5rowyCalzLERjVlXViCclSGSqgaNQnIQxH1dVxcuJlAzq7Sq-EZlEH5gPa7_tvwp9R5N2S67K_MTVHCtR44s4ShUJqkhYEL5Q6kbfwkOsg9RJ0HyezIb', 'width': 1080}]",ChIJtX9yfAUfRy4RdTdAndiIkNA,4.8,"['lodging', 'point_of_interest', 'establishment']",19,-5.4967077,104.623454
"QF7F+2VQ, Karang Sari, Gunungsari, Kec. Ulubelu, Kabupaten Tanggamus, Lampung 35387, Indonesia",Karang Sari,"[{'height': 2600, 'html_attributions': ['<a href=""https://maps.google.com/maps/contrib/104724612420315195157"">Eko Prasetyo</a>'], 'photo_reference': 'AUGGfZmupRb3Ze889H2_lFj1UqQB1c2dYarPd1cfbRYLPN6HxSNFv8WPi03jBiy-karVK8HuuHciQEo2J7iMpI1oyRQDDv_2f6azwls6hRcFJXAbWowJ7meoKN0Ca2rqhV4PlJ0XTvm-Ah0Tcs-ixSzo15L9wtxZTT00VoH3kB-pXsM4PNuZ', 'width': 4624}]",ChIJk7VGJAATRy4RHQQ6HjhP4EI,5.0,"['lodging', 'point_of_interest', 'establishment']",1,-5.237439,104.4747321
"Jl. Ahmad Yani No.999, Pringsewu Utara, Kec. Pringsewu, Kabupaten Pringsewu, Lampung 35373, Indonesia",Urban Style Hotel by Azana,"[{'height': 1280, 'html_attributions': ['<a href=""https://maps.google.com/maps/contrib/110820882971527916688"">A Google User</a>'], 'photo_reference': 'AUGGfZmHYlu1xr-ygeu3XPernEvdKM8LkHo-IpqhYxQCmU7V9jS1m_WtjvynZG7AlMOnuQPb_GUGwf2_4euTzZt96YlJEwKoUp8Cvx3ijurBJT9nKpBTBfaOGSwxRNpJ4HjoL8e8UgEnIuLWZbq0E7W7-aIX5cKzROd-xa5kTVke4fwek9k8', 'width': 981}]",ChIJMc9AumEyRy4RAFTVtcwr5Fo,4.4,"['lodging', 'point_of_interest', 'establishment']",1945,-5.356786,104.9836289
"Tambak Rejo, Gading Rejo, Pringsewu Regency, Lampung 35372, Indonesia",Regency Hotel Pringsewu,"[{'height': 427, 'html_attributions': ['<a href=""https://maps.google.com/maps/contrib/114423153401757325545"">A Google User</a>'], 'photo_reference': 'AUGGfZmRixmrk_jsBo-b8r4i1_zjRUmJNP9UnVtJElqQsxZHuFFndf7Kil3X9zXwYbji6RUjgHApNirytCE8f_UUGKougoTR_dFjxOPKrke5Ha5vnTlsJUD5hfVgc0CWW8wNsuGo6JGDnVJIhxyniQa8zzoRrb5BwLawJ4-6LAaSgyZuLYru', 'width': 640}]",ChIJoeITsVotRy4R2AlO6F6fOcI,4.2,"['lodging', 'point_of_interest', 'establishment']",873,-5.382586,105.0196974
"Jl. Mess Pemda, Campang, Kec. Gisting, Kabupaten Tanggamus, Lampung 35378, Indonesia",Hotel 21,"[{'height': 1536, 'html_attributions': ['<a href=""https://maps.google.com/maps/contrib/111887455470251813095"">A Google User</a>'], 'photo_reference': 'AUGGfZl8TtoxkwCCLrIO3YhpGbD0gMpI4sHKf_x3jGu6ei0J3lRHQFzbPpU3Z74wZMxONGRckrdM2EjCPZDkUVDpnM554RltTfudSIf2woUEuC1ZJIshRzzRxvPMLH23td9FrgNdNw4eF1OpjmJCZXcdxCpM8dnGzd_4EYxQbohToRrERKx8', 'width': 2048}]",ChIJa9nCG6AjRy4RQkcz6fQNswQ,4.0,"['lodging', 'point_of_interest', 'establishment']",555,-5.4215575,104.728901
"Dusun 2, Campang, Gisting, Tanggamus Regency, Lampung 35378, Indonesia",Urbanview Hotel Villa Q Gisting,"[{'height': 1920, 'html_attributions': ['<a href=""https://maps.google.com/maps/contrib/100264611399485006985"">Emanuel Setiyanto</a>'], 'photo_reference': 'AUGGfZkPM-lCr1RG-G-LpeW7Uuzc-sxEugb0WgYuTEWDOYagOT7JFacYV08Qo9SXKrlnYDi43IjNlwtN9kMWe_VXm31UA0E8Mwp_FLzzGlVCof8g8kIZCSQD28XRBbKzVPUjNV2On3pvHCZkMfi2wiICRiECKUa_Rg8A8wk--bA-Ngpbt3pX', 'width': 2560}]",ChIJTVnXzqMjRy4RfljPUNgg6dk,4.1,"['lodging', 'point_of_interest', 'establishment']",122,-5.4268125,104.7253125
"Jl. KUA Dusun 2A, Purwodadi, Kec. Gisting, Kabupaten Tanggamus, Lampung 35378, Indonesia",Arsenio Homestay Gisting,"[{'height': 470, 'html_attributions': ['<a href=""https://maps.google.com/maps/contrib/102244449412480206921"">A Google User</a>'], 'photo_reference': 'AUGGfZmdtaimkwmFL7o9FZGvaOd8YITjZpYEjiA0e3mohVboDkeLJwJS8RculS-DivWZD461zeg1JNLXfvss0R5elxJRHdP_tg07cpP8jyJRaD84YOHMmCmJyAUQMkz2EE1FxVBu7o4m4Pf1xX7FKcfViDqeA-ToL44ahc6PG7_Ks_ilQs-j', 'width': 1078}]",ChIJEannTGcjRy4RXONGiDjekEU,4.7,"['lodging', 'point_of_interest', 'establishment']",78,-5.4244089,104.7425555
"Jl. Melati 2 No.208, Pringsewu Tim., Kec. Pringsewu, Kabupaten Pringsewu, Lampung 35373, Indonesia",Royal Marisa Hotel,"[{'height': 3056, 'html_attributions': ['<a href=""https://maps.google.com/maps/contrib/105517375818156561978"">Finka Chriesty</a>'], 'photo_reference': 'AUGGfZkV9vux745LSx-dhMg6MvjHT11-p8QuPcChpp2VxF2wg_skX9uWm1SyNymyTzJxGNleipqxJ6L63D3OiB3ni1nGgcGiyD5kYgR9d6jSAmcWT6Rnd1DOQdMipIsscqx2gCQldLugAuQMJbWkwbf1gFYJwZwD8nBbTfFsBVFj22uZh9Jd', 'width': 4624}]",ChIJtS3mimEyRy4RwDcFZ-6DoJs,3.8,"['lodging', 'point_of_interest', 'establishment']",214,-5.3583646,104.9840614
"W Trans Sumatera Hwy No.1, Aek Tolang, Pandan, Central Tapanuli Regency, North Sumatra 22615, Indonesia",SPOT ON 2926 Penginapan Sariah Basamo,"[{'height': 2448, 'html_attributions': ['<a href=""https://maps.google.com/maps/contrib/117504715404370283111"">Kayla Sakhi</a>'], 'photo_reference': 'AUGGfZmWoAK1BelLOGntUokO-nsnM80uk5mty9wuiefdlQG_44XZHXlaF_-xIzoB9oyX_un1y1yz5VaD96bZeTSLGGuDK78ZDBYxYD2G2fB-7rAH68zMgrcM9UuUuI7JqVW7S76lPYU_0c6E79cCtsH8In5D9qdJMD8KIOVlmc8RDgtoZMvp', 'width': 3264}]",ChIJccgtXMUxRy4RzeRGGhYldFo,4.1,"['lodging', 'point_of_interest', 'establishment']",13,-5.3645436,104.9042802
"Jalan Jendral Ahmad Yani No.999A, Sidoharjo, Kecamatan Pringsewu, Jl. Ahmad Yani, Sidoharjo, Kec. Pringsewu, Kabupaten Pringsewu, Lampung 35373, Indonesia","Balong Kuring Hotel, Restaurant & Resort","[{'height': 4000, 'html_attributions': ['<a href=""https://maps.google.com/maps/contrib/112669188455937240699"">A Google User</a>'], 'photo_reference': 'AUGGfZlX0jPc0NqQ9IVej2PtA5ZjRNfdjbWudFhnwgKmvHHrNe5D92O9lGJE5Cu9703W39OBpo2DliAiJFoDEAtGh5mAFADwKJ3k2Zj31gTDKULf4GA_5QO0OBTJh6qRl7MLjKNMKRWDsR20EhE0K84QOhxkwSSps2PD36Adfm3VR1hbpb2a', 'width': 3000}]",ChIJ2ysV5moyRy4RcmPZsqefw2M,3.9,"['lodging', 'point_of_interest', 'establishment']",532,-5.358674499999999,104.9868774
"Jl. KH. Gholib Raya, Pringsewu Utara, Kec. Pringsewu, Kabupaten Pringsewu, Lampung 35373, Indonesia",Urbanview Hotel SLIP Pringsewu,"[{'height': 600, 'html_attributions': ['<a href=""https://maps.google.com/maps/contrib/117237997033532489267"">A Google User</a>'], 'photo_reference': 'AUGGfZkt1rl-orV3y4n86jjbfu6QghmETusE3IBEUhhXIfomhW9h7hP9LBS0yxKqu36xnNZuXGxSLsuDbPV1k7qfdGUrbqVvzameUFN5frJ76SM7fNO_TVthDk-2_NLp5k301-KkofHDGUju8LIHYrzXRa7ZVzKsZpTSXnpgCMweP7HFlJHA', 'width': 900}]",ChIJpRxUAr4zRy4RN_YQANpPgI8,4.9,"['lodging', 'point_of_interest', 'establishment']",8,-5.3539747,104.9770195
"Jl. Mawar III No.1, Pringsewu Tim., Kec. Pringsewu, Kabupaten Pringsewu, Lampung 35373, Indonesia",Cendrawasih Syariah Homestay,"[{'height': 1149, 'html_attributions': ['<a href=""https://maps.google.com/maps/contrib/113731886657190055344"">A Google User</a>'], 'photo_reference': 'AUGGfZn4tYzH8VSakzLziwq0UfahRAMAu0RhFs8__nYYheppygqajbtvXt6FkVX341_fXF6zJanWowqJhr2KYEBtkrZCWCnKQFuvTlpe4GJrAebvbLOSSwwRY8bWELLWKDTQYy76o2TR4GG7fFM88rl1cvfr3amccdW1yz9ryn4YshDU8G_F', 'width': 942}]",ChIJK0APx2MyRy4R0tUx5FyW18s,4.2,"['lodging', 'point_of_interest', 'establishment']",178,-5.3595596,104.9818304
"South Pringsewu, Pringsewu, Lampung, 35373, Indonesia",Urbanview Hotel Pondok Indah Pringsewu,"[{'height': 9216, 'html_attributions': ['<a href=""https://maps.google.com/maps/contrib/114135280890661694233"">A Google User</a>'], 'photo_reference': 'AUGGfZkvCq0EG17o2TSH4Iw_85l3ag2fPBXtGSUBdNT7rDgvhRABa5u3zixFa5b6IUPlEpSw0J33CIs9X8zhRWBcWkmJt-QIgt0raXehOY0inqKP_zBc9V2uDbcg7x_oWACF5q--j2YUjmyyIkfxIeaR7bGneb7Wtu4AyAEGClshgQt8SPaU', 'width': 6912}]",ChIJH4tvfvkzRy4RMRa98v91CRM,4.1,"['lodging', 'point_of_interest', 'establishment']",42,-5.3605113,104.966694
"Jl. Makam KH. Ghalib No.750, RT.1/RW.5, Pringsewu Utara, Kec. Pringsewu, Kabupaten Pringsewu, Lampung 35373, Indonesia",RedDoorz near Universitas Muhammadiyah Pringsewu,"[{'height': 3000, 'html_attributions': ['<a href=""https://maps.google.com/maps/contrib/101165212762606441459"">A Google User</a>'], 'photo_reference': 'AUGGfZmA-iDSV6UnU3BgrQISRueL1WYVr9Nas0IVx0_w3FaCt5CoVzmxXgZ_AvU2IKFp8Bmll0oTjuuJgYNG-q-OmtyzC1eoCtcFyKBAKLUk6IY8IvwY20YKNlnimz0bDBiNpZu-KYpwjby6odjpaMlcthAlaC9gSRWJ6iw40G7nHfdbOHSz', 'width': 4000}]",ChIJvRw0abEzRy4RzGdzdoL4heA,3.7,"['lodging', 'point_of_interest', 'establishment']",36,-5.3473811,104.9741349
"MXFG+VW3, Jalan Raya Sukoharjo I, Sukoharjo I, Sukoharjo, Sukoharjo II, Kec. Sukoharjo, Kabupaten Pringsewu, Lampung 35373, Indonesia",Hotel Bukit Sarinongko,"[{'height': 1952, 'html_attributions': ['<a href=""https://maps.google.com/maps/contrib/117115573760381805983"">A Google User</a>'], 'photo_reference': 'AUGGfZlzCY5chHB_NNVQHx07hWbQiv9JrZ75zn7deVXLVRuAW3ybKbAgDiliwPnDcTkLtA2wEAvTqMvNz-5CrwZQpKsXZNzKmHTMH0THc3iU4wEaOjWDhFxF4DaYOM084jccfcQ_xIQBly2JGSlqvUyx11pXiSC6e05Ak5RwU9b6Bj4OLHSo', 'width': 2592}]",ChIJq6qqqr4zRy4R89Rs-jMr5Jc,3.9,"['lodging', 'point_of_interest', 'establishment']",74,-5.325355800000001,104.9772959
"Jl. Mawar III, Pringsewu Tim., Kec. Pringsewu, Kabupaten Pringsewu, Lampung 35373, Indonesia",Urban Point Penginapan & Kost Exclusive,"[{'height': 3024, 'html_attributions': ['<a href=""https://maps.google.com/maps/contrib/114350884689201578205"">A Google User</a>'], 'photo_reference': 'AUGGfZmIho88dDAjVZrITUNSw1AUYbHlu29kSEkP1ixcY0kbdTFVnebTnHybMEeGRYX9wJMnBOSKC978UVIHIgfsnM-y4zPrRKYkVAVRSdfDhbNdY0YsLwnALDFH8zfEPCb4exUVa-9UvPUBPB-IhAicpQN-duuhHsplUmYuxe-WwDdhRl2x', 'width': 4032}]",ChIJp7Lyx2MyRy4RwYH9j9mb370,4.2,"['lodging', 'point_of_interest', 'establishment']",180,-5.359885999999999,104.9818255
"Jl. Melati 1, Pringsewu Tim., Kec. Pringsewu, Kabupaten Pringsewu, Lampung 35373, Indonesia",D'Grand Melati,"[{'height': 3096, 'html_attributions': ['<a href=""https://maps.google.com/maps/contrib/105267850813639562522"">A Google User</a>'], 'photo_reference': 'AUGGfZlv6g5YJeeXlBCbXmTgcbksQOdT3jmwZYGne5QNDCvzijZFhAntFKmSu1oRpqnVZWPBP-ULVOwhJw3FD36Mh0iMF5HLYxDozZp-x4b7ZSSWGnh1rHFfEGlVbKcI_CArSDcOFUpPiSjyO6tK-bbHZadKLV_haW9RU2FOd1HGt_8l6Ehk', 'width': 4128}]",ChIJ5Vfhc2EyRy4Re3UL-Jwzk_8,4.4,"['lodging', 'point_of_interest', 'establishment']",125,-5.357652499999999,104.9823414
"Jl. Johar 1 No. 69, Pringombo 3 Kel, Pringsewu Tim., Kec. Pringsewu, Kabupaten Pringsewu, Lampung 35373, Indonesia",Pringombo Homestay 2,"[{'height': 1080, 'html_attributions': ['<a href=""https://maps.google.com/maps/contrib/106079378687839284305"">A Google User</a>'], 'photo_reference': 'AUGGfZm6qCNbrlGzpNGbH690dlxDyuMe3sbYpKLe3zfUhYlmMYv-AiUq-8lvtya3m_L1yuK_ty1x-IW05Pi_rjEbW4KZsucFui5Mvw0FfwAJ_ppNtlOcc972bl7v-B_EHbjvKe-m2zXfNCK87o4BaM45gfV93iLWN91GmAsSLBIaba5jX0q0', 'width': 1616}]",ChIJ_zRUqSozRy4RCksa-Nr9LaI,4.3,"['lodging', 'point_of_interest', 'establishment']",101,-5.359967999999999,104.9843445
"Gisting Atas, Gisting, Tanggamus Regency, Lampung 35384, Indonesia",Villa Butterfly Syariah Gisting,,ChIJWVVVVc4jRy4R38mI9kmyp8g,1.8,"['lodging', 'point_of_interest', 'establishment']",6,-5.443417999999999,104.7283746
"JXX3+5X7, Gg. Tani, Fajar Esuk, Kec. Pringsewu, Kabupaten Pringsewu, Lampung 35373, Indonesia",Junaidi Homestay,,ChIJJbM96dkzRy4RnxxqC02-YB4,5.0,"['lodging', 'point_of_interest', 'establishment']",1,-5.3520766,104.9549219
"Jl. Ahmad Yani, Sidoharjo, Kec. Pringsewu, Kabupaten Pringsewu, Lampung 35373, Indonesia",OYO 3983 Balong Kuring Syariah Pringsewu,"[{'height': 427, 'html_attributions': ['<a href=""https://maps.google.com/maps/contrib/115173782883784715931"">A Google User</a>'], 'photo_reference': 'AUGGfZnmJ1LZOmE_talo7pO-dVvrvxcY-ZyoNahMg4gv0wO5mvCC5aTs8LrohuExhC5t-CpdSan8dJPKIHi5tVCZRuMdKpeqG_SBcL51SJksrsYOmXgPyB5l_ymZuoK-tafu4ooC5aaSS1I1K7sO_jDwRqGWAjTSicBRxg_qaDHD-XGkaEhv', 'width': 640}]",ChIJI8jzrDczRy4RFoIvQoekHiQ,2.5,"['lodging', 'point_of_interest', 'establishment']",11,-5.3580304,104.9872319
"35372 Purworejo, Pesawaran, Lampung, 35371, bandara raden inten II, South Sumatra 35372, Indonesia",OYO HOMES 91255 Desa Wisata Embung Purworejo Syariah,"[{'height': 427, 'html_attributions': ['<a href=""https://maps.google.com/maps/contrib/103397947551060490417"">A Google User</a>'], 'photo_reference': 'AUGGfZlijolni-UyoPjkeQWmi8gh8rl_mNQYTadMlmEVPgWfKYCpjq-_ZDZIqDQ-jEalcD0hIalhLRxIe031XwG6AeT0Rfs0jT5SX2WuHSIdA_jSiAQTG3CnOHJl55VeHqnf83ye6pP35aRWLUvwC_tGH23FV4UFb3EZLl8eDsyVgObVrD6N', 'width': 640}]",ChIJ8SCO6GLNQC4RkVgbm7XiQFk,2.8,"['lodging', 'point_of_interest', 'establishment']",4,-5.3556225,105.0758243
"Rejosari, Kec. Pringsewu, Rejosari, Kec. Pringsewu, Kabupaten Pringsewu, Lampung 35373, Indonesia",Losmen Grand Wisata,"[{'height': 3120, 'html_attributions': ['<a href=""https://maps.google.com/maps/contrib/107155537289983705723"">A Google User</a>'], 'photo_reference': 'AUGGfZkfg__fZjFlpxXo6dsunoXXAJS7pTuYbt60uf16og618cYu5mdCS5SlyIhsHSnhLoBj_YwKKFwljegyvOoL5j7hea_VXYM4qTzLp4ZVAHSlEoh3lypOi4EH2y6Z8pukHLw9O9sOuiWZJTdQtKDngbMkmjZ_m3wz57372DuI9hV1DlnX', 'width': 4160}]",ChIJcya1Ok4yRy4ROKyDeOFaDGM,4.0,"['lodging', 'point_of_interest', 'establishment']",180,-5.3403496,104.9731791
"9V63+R66, Pekon Doh, Cukuh Balak, Tanggamus Regency, Lampung, Indonesia",Pantai Indah Ruguk,"[{'height': 4140, 'html_attributions': ['<a href=""https://maps.google.com/maps/contrib/102558111472981083442"">Iman Muda</a>'], 'photo_reference': 'AUGGfZnC2q_HGCjDsgZgZQiLs4FgM_7VE8UBj1-c__MbS4W2t1s2thYbgr1kXZ5Q-2HB3Oc-3sM7w7QkHm4ZJOd5pFLjYloIpB5vdSSTx_TyQaLPpGwcLNUb9AGjM-qOeiPM1Obf6pYx4LeAmHr5Qm44X1VpAmpkqmrlNfG7UWMhxjYfSsyW', 'width': 5520}]",ChIJz4JEvqPQRi4Rleb0JqG0nqE,4.5,"['lodging', 'point_of_interest', 'establishment']",34,-5.637969,104.853009
"9WH5+5RR, Jl. Raya Kacamarga, Kacamarga, Kec. Cukuh Balak, Kabupaten Tanggamus, Lampung 35683, Indonesia",Rumah Taqin,"[{'height': 3840, 'html_attributions': ['<a href=""https://maps.google.com/maps/contrib/102183423373876441719"">A Google User</a>'], 'photo_reference': 'AUGGfZky7KJVpipi9J0TJraGVRT3YjCd8LsBTbl1U7eXHHg9CGWyVrEhkk0CijV-zckpXGGywFVWBexhXgQX75DwFWVjyTGJr3yGAVJn84FQZlkiXqd8NPoDpOGmCZEhQCO6GUuEksRtPnvZz0Y3sORBDLNRVCqIWawazedKao4sg0oa5qH6', 'width': 2160}]",ChIJgwO6ObHRRi4R2F5fqjmWddU,0.0,"['lodging', 'point_of_interest', 'establishment']",0,-5.621983999999999,104.9095327
"8WM3+HH3, Tengor, Cukuh Balak, Tanggamus Regency, Lampung 35379, Indonesia",DHAFFA FIKRI & ALFAN,"[{'height': 1920, 'html_attributions': ['<a href=""https://maps.google.com/maps/contrib/109881187830321212930"">mifda vs mumifda</a>'], 'photo_reference': 'AUGGfZkGLlvK5tk7O20DZNycOQrLXxJGDcU78Pq6RkLK8nMSRSCDW7ZG0gQb9HLlwVgbghZYzoLcNB3VBuInGsL7x7xak0Oy3vuTfNX_KLd1CfzewLdncxlV-9OzL6C1aUu-bHN6suaEqFp693-4zdYeGzeiiy9iYVluAUvP8-decKw164R6', 'width': 1080}]",ChIJwwqSyYTRRi4RG2QTmTQkrGY,0.0,"['lodging', 'point_of_interest', 'establishment']",0,-5.6661148,104.9038346
"8W7C+5HC, Way Rilau, Cukuh Balak, Tanggamus Regency, Lampung, Indonesia",Pantai Umbar,"[{'height': 3016, 'html_attributions': ['<a href=""https://maps.google.com/maps/contrib/104324224546918585290"">Masdar Manto</a>'], 'photo_reference': 'AUGGfZn8a-lqyE0KESQdFCwEq-hnGfEbh_lZW4NBXx5lbZ_F2YHe5h4VJD_1rflrG20CbKlfN0UYr2m3WXsPY4fmiinqbU4D0yyq2GvqAxkjks7L4Z0zzubVgcG1t0z1dl5Qxkaqz_LNd19hjjMtwdtwgv2l96StcpXq_IPDKFa-3rfwhK7V', 'width': 4032}]",ChIJ-82todHRRi4RiyTEHG94_7I,4.1,"['lodging', 'point_of_interest', 'establishment']",16,-5.687072199999999,104.9213849
"9WJ7+VR5, Jl. Raya Kacamarga, Kacamarga, Kec. Cukuh Balak, Kabupaten Tanggamus, Lampung, Indonesia",Rumah Maulana,,ChIJVcUNhzTRRi4Rlwt0Ed7O3JU,1.0,"['lodging', 'point_of_interest', 'establishment']",1,-5.6178668,104.9146107
"7XPQ+MQQ, Pantai Teluk Paku, Pekon Paku, Kec. Kelumbayan, Kab. Tanggamus, Kampung, Paku, Indonesia",Pantai Teluk Paku,"[{'height': 1836, 'html_attributions': ['<a href=""https://maps.google.com/maps/contrib/110364032510636429601"">moehamad yogi</a>'], 'photo_reference': 'AUGGfZnmDhnIMh9jw8OGoYFmVrulj792ctk1MYxVgst0YfUR83sNIVfJuq94BdG0X1qOr6l-YSIi4Xx5VHNNAzWWzP9np_SwFJdIfdBXUmBLRj7EU2YXrqw5gZcVHWO5XEJzXCOUl0-lUO16sFY2c8FfXU2RYjz_N-qZl9byA4lvYo_EQUx_', 'width': 3264}]",ChIJrT_h7HbNRi4RYtz6vgQG3zI,4.7,"['lodging', 'point_of_interest', 'establishment']",27,-5.7132892,104.9894694
"Jl. Ir. H. Juanda, Terbaya, Kec. Kota Agung, Kabupaten Tanggamus, Lampung 35384, Indonesia",Urbanview Hotel Juanda Kota Agung by RedDoorz,"[{'height': 4032, 'html_attributions': ['<a href=""https://maps.google.com/maps/contrib/116290365417120234224"">A Google User</a>'], 'photo_reference': 'AUGGfZkcytsQxXOcaQLEl2Pv49IwcWM8WFz7ESG1fXWYBO-pp445zfDK5L6Qx3MYWBJ6YS1_jmWUdTG67Nx-sV-dkH-RfunH9tVAl_gMrgKQxQKgtaQ0fnmA3zdu7NyJbtOldneuzK3_nIH-FS-hds-yrptjB5agGnCuHgp3MphcGMG_Br-K', 'width': 3024}]",ChIJ7zKFOkEfRy4RoqwxTgLtm40,4.7,"['lodging', 'point_of_interest', 'establishment']",24,-5.4979272,104.6288555
"Kali Rejo, Kalirejo, Central Lampung Regency, Lampung 34174, Indonesia",Penginapan Tukimin,"[{'height': 3120, 'html_attributions': ['<a href=""https://maps.google.com/maps/contrib/109013310408998852242"">Fitria N Prasaja</a>'], 'photo_reference': 'AUGGfZns9kXWRe8xopufd4d3oVxLjwbLwbJnW6-q-4R2W21c-JzWAbEozmt_6qgAmkBj4SoeIa3UOhUq38atN2cGefzlZ1t3hVOp7QRAMEocmIOL3-YeL6s9VQWOmkqdNRNUse3a0Oa7HNxc9TlUdkOZObPaZdTKbBPLiQPkBKiSeQSejklA', 'width': 4160}]",ChIJN6yV9Os1Ry4R2yfxLA63jec,3.8,"['lodging', 'point_of_interest', 'establishment']",56,-5.2276274,104.9578489
"64H4+R79, Kiluan Negeri, Kelumbayan, Tanggamus Regency, Lampung 35379, Indonesia",Wedanta Inn,"[{'height': 3096, 'html_attributions': ['<a href=""https://maps.google.com/maps/contrib/115726073273367956405"">Kunto Wibisono</a>'], 'photo_reference': 'AUGGfZkJi1zim0Sk_5mNmVpMp85lUqdHmHPJVo7iH6Ziop4ay90FV8Rm027skaEnGG7DKpqnkUYdfJp2SOnYBN3CIFcNBupjQzECV60WEZnQgKkdtHGnRWdTi6KSvmstpQZcVOJeFRxnk7IUUfP1TtM3Bk9EUKZlhhv9m0lgod8aQP7xGrC5', 'width': 4128}]",ChIJ5U8dVfIzQS4RfqrfDlVLz1M,4.4,"['lodging', 'point_of_interest', 'establishment']",53,-5.7704695,105.1057445
"Kiluan Negeri, Kelumbayan, Tanggamus Regency, Lampung 35379, Indonesia",Villa Dio Kiluan,"[{'height': 809, 'html_attributions': ['<a href=""https://maps.google.com/maps/contrib/105551972763850202511"">A Google User</a>'], 'photo_reference': 'AUGGfZme78LCvkNGZob8Nad-OdUuzLeyqO7fhdeJj2XxZ9wZFoPnwXsBBeQVI6FvUizvwvmSl-DJ-_4Dik4ebe8Cn8jopAwZE0QlF90yEH1F9l53Gh0DM_8RK9LhU4zm30cld7hHF3_uXw7JjcVANHnGFmsKOUpyg4ZnJGxEYpAJqDGH_pmL', 'width': 1440}]",ChIJDdlgOowzQS4R2Uv7rZeplmY,4.2,"['lodging', 'point_of_interest', 'establishment']",240,-5.7714548,105.0972824
"64H4+R2F, Kiluan Negeri, Kelumbayan, Tanggamus Regency, Lampung 35379, Indonesia",Penginapan Manik Ayu,"[{'height': 3024, 'html_attributions': ['<a href=""https://maps.google.com/maps/contrib/115737006849404407621"">Micky Kie</a>'], 'photo_reference': 'AUGGfZnmGmER3Mp-HBwWO2TkHErpJy78j2369tWJu4zRHMzxZi2zb3XTmhwu6nbohzNM8A2nefOwTy_fUo_k2wSmIkf1iJvbjk0nNK1sAJ93CfuiIOz33qd1JbsJF3GQ0QN0ctz1ARs-NFrbPnyjsYBPUjVvsCrZRhgw2RyzI8uRz8l4ywtu', 'width': 4032}]",ChIJvUV2-6kzQS4Rwpz3hvFpcW4,4.6,"['lodging', 'point_of_interest', 'establishment']",78,-5.7704399,105.105032
"Pahawang Island, Pardasuka, Pesawaran Regency, Lampung 35453, Indonesia",Andreas Resort,"[{'height': 1359, 'html_attributions': ['<a href=""https://maps.google.com/maps/contrib/103075714220928053550"">A Google User</a>'], 'photo_reference': 'AUGGfZlwNRhAp9XceN5jfoi4RkeUffMqJoqU_apdaOaziGg-PFdFpW5x9WLIXCDpLmnr2RW-FF83gNe9uxv7cozBHCw0C3EIGRFN2xNRk8E6VqN2US2kBfrICtu2fhncGUb0b1i82hGO-MErn9Z6b7d3Gj21CrEhxry6vCZVIiPP4tzqXQ3-', 'width': 1125}]",ChIJIfnbMo4vQS4RPrFNTxVCHBE,4.6,"['lodging', 'point_of_interest', 'establishment']",722,-5.664562500000001,105.2099768
"C66H+MX7, Pulau Mahitam, Desa Batumenyan, Batu Menyan, Lampung 35341, Indonesia",Pulau Mahitam Resort & Cottage By Hotelku,"[{'height': 4032, 'html_attributions': ['<a href=""https://maps.google.com/maps/contrib/101938429245958928547"">A Google User</a>'], 'photo_reference': 'AUGGfZmrS3aP956XSKVBxO0DuFQR3bCf3P6whiJLTju-StLuHdH1ILdeovgP8k8I7A0dHGzpO6r9dasPT6kw3iPhVXMxt83Y2XEoZsGef7qvBFpHuANKoU4g4ts4Jy64rNQlu_XVYU7vNaKs6ZsxkrUZIobiub6EP2aXgVLveDoqS9kOUR8r', 'width': 1872}]",ChIJ_coaISMmQS4RflQwXFG4fvE,4.0,"['lodging', 'point_of_interest', 'establishment']",4,-5.588339599999999,105.229933
"Jl. Kelagian Lunik, Pulau Pahawang, Pardasuka, Kabupaten Pringsewu, Lampung 35453, Indonesia",Teras pahawang,"[{'height': 853, 'html_attributions': ['<a href=""https://maps.google.com/maps/contrib/104844648701418943881"">A Google User</a>'], 'photo_reference': 'AUGGfZkDhalFAkVEtAQe_EjDyfdLAPZp_Hsv6gna9h-zoEvWB7ttDjh5EpeO-uXXMcUfikPPDncXgxEuawct8FzRtWz6P3rdACUb6zTNIAs80Bu543_RoxkqwTbLb-PGboZ-pqvEcoRQjH0-disr4f8s8HI1xSuc-y2Y0HiAOt-LzDxZPasm', 'width': 1280}]",ChIJPQta1QUlQS4RBjGPwawCepw,4.7,"['lodging', 'point_of_interest', 'establishment']",48,-5.6630688,105.2267614
"C67G+6F4, Jl. Mahitam, Gebang, Kec. Padang Cermin, Kabupaten Pesawaran, Lampung 35451, Indonesia",Homestay Pahawang - Homestay Edo,"[{'height': 2304, 'html_attributions': ['<a href=""https://maps.google.com/maps/contrib/108261300621571305782"">A Google User</a>'], 'photo_reference': 'AUGGfZnEu1ykhWHU4Jt44QQGlj5_X2nraTHMmoahjasUhYLua65BZh3moISdC4INXai8ZFlms6z09noCgLAMSPLIYHer4w2TRAlShmBGBbNJtARxdu-hxW9BVah4-bibbsp0_en38MxBVc5ltaeiH7M6I9RL2-B6S2Ijowzb02L0ymFaq9W_', 'width': 4096}]",ChIJ07deM-IrRy4Ryj1OuozIe7I,5.0,"['lodging', 'point_of_interest', 'establishment']",21,-5.586867499999999,105.2262211
"Sukarame, Punduh Pidada, Pesawaran Regency, Lampung 35453, Indonesia",No,"[{'height': 1860, 'html_attributions': ['<a href=""https://maps.google.com/maps/contrib/107080011886394351510"">Herman Agif agifok</a>'], 'photo_reference': 'AUGGfZkFbxprvFZYs8PCGntobhHmO9RRDoNs4j7VnqvEFTj_9Tk3Ep3Couo9OE3Yl-AjGHwkdEbBh_0VTwqp5MsNgOcMW_wlmHVnx-rumgqtThs7ObGG_OuFE6DDNCNi5QVyjq2GNwaAt0Z5G3Bdkfn8FuEBCv4icMj_Pdjf4KJJXBUgiY8a', 'width': 4032}]",ChIJBwBT5RkwQS4R3BtpUXlNUNU,4.5,"['lodging', 'point_of_interest', 'establishment']",67,-5.7032962,105.2011869
"Pahawang Island, Punduh Pidada, Pesawaran Regency, Lampung 35453, Indonesia",villa kembar,"[{'height': 4032, 'html_attributions': ['<a href=""https://maps.google.com/maps/contrib/113410437898620128869"">A Google User</a>'], 'photo_reference': 'AUGGfZlApGYFaMq-50M0neNnuEpcFar6q_JF52fbd_j8TcHovmgDdJCLzVEf9zyDd28BTl7umL_IwXTxYiixObJOfmmssPdJnRcLYXVx4d7gwLQp6pL17ltKmln9myFAxQx2w3zRu4KmdB0QSh5EkWH__gWnyXHQi1GF6SZo1KW3Ov-26MxV', 'width': 3024}]",ChIJ-29tpfslQS4RPc_ZGs1PcuQ,3.7,"['point_of_interest', 'establishment']",3,-5.675150899999999,105.2260704
"Unnamed Road, Punduh Pidada,, Pahawang Island, Punduh Pidada, Pringsewu Regency, Lampung 35453, Indonesia",Turi indah homestay,"[{'height': 3543, 'html_attributions': ['<a href=""https://maps.google.com/maps/contrib/112825976544060714077"">A Google User</a>'], 'photo_reference': 'AUGGfZl40xVIXLyCHAZZrCsdXB6vm-AZYUyshuWnGZJhi-8_0KBrM3OPQ8nAPDi8sMWdD6HrPscHClwroWygTknACKa7IXIWU_tQrrqIv1NMAD5Wjhvq6kgmrCduPmnommy7LCcVoHRUJO5nVY-g5qfLj0OR2Cwunqk4-5N92dfqh4lsVD6c', 'width': 4724}]",ChIJmU2SGVElQS4RQbYI8Az3u9c,4.3,"['lodging', 'point_of_interest', 'establishment']",123,-5.685941499999999,105.227147
"C67H+37W, Unnamed Road, Gebang, Kec. Padang Cermin, Kabupaten Pesawaran, Lampung 35451, Indonesia",Beny Homestay,"[{'height': 3072, 'html_attributions': ['<a href=""https://maps.google.com/maps/contrib/101469460756177412719"">Ahmad Fauzi</a>'], 'photo_reference': 'AUGGfZkjgH9_WwMQPXzFTxQyNQgJGi-3Wllsxq50Jl9KAjC3kDWNj6hoiwR0s0l42qZKaN9vOuZ56Q_7fnedr16PdsPBHyOhML4yp4QH5UQ5EG8qLRZ4t1pVpyDVxpZgR3Q1iqx01nsA-k4PRy2WbyJ_YahPJL00O6lHVqb-AdBP21lsGl1j', 'width': 4096}]",ChIJPd3znyMmQS4RxiAnRrBUA5Y,5.0,"['lodging', 'point_of_interest', 'establishment']",2,-5.587263699999999,105.228202
"Jl. Way Ratai, Gebang, Kec. Padang Cermin, Kabupaten Pesawaran, Lampung 35451, Indonesia",Homestay Meisya,"[{'height': 3120, 'html_attributions': ['<a href=""https://maps.google.com/maps/contrib/113976380374151901525"">A Google User</a>'], 'photo_reference': 'AUGGfZkSqk1T7jM3mM_MnbLSyYa5JAVspvgn3TS-1kAZ2FowpsAoTbCfpdky3B7mO4NNcnQ34fQXAKDnnaTpqSnpXjv_W1h2fJBf-eZasWJaQLrEEcT1UQeyER9fb-2ilQeWlhWH8cyWHlYl2m1AWfOT85I5fbcnXrUCVUNNs5C4LhF_yibV', 'width': 4160}]",ChIJ18UxBM4nQS4R8uuSWqdmZFo,4.3,"['lodging', 'point_of_interest', 'establishment']",16,-5.5652569,105.231739
"F6CP+2PP, Jl. Way Ratai, Hanura, Kec. Padang Cermin, Kabupaten Pesawaran, Lampung 35450, Indonesia",Homestay sari ringgung,"[{'height': 3456, 'html_attributions': ['<a href=""https://maps.google.com/maps/contrib/111176826956077177984"">Khasanul Bakharianto</a>'], 'photo_reference': 'AUGGfZnS2Yp_eFYNnanV9NVCkBDBKOTmdFndLOftJ7Jct5_3U_3Timm6dxAKBv4RpSxDkBcbjzNR3kVvGT6OJg5bFcBA8ASmJnTpKpdvY_tUPpjyqRYQ9cqgSDhqe4bDEKptxbIXkyWUxCYWFMxVyIYcuLvR4qciB3nrZSwwfY8QPxZkUsmg', 'width': 4608}]",ChIJVavHwvonQS4RDuSX9hb3Eno,4.2,"['lodging', 'point_of_interest', 'establishment']",5,-5.5300533,105.2369672
"Q7MV+F97, Margomulyo, Kec. Semaka, Kabupaten Tanggamus, Lampung, Indonesia",Villa Tharista,"[{'height': 720, 'html_attributions': ['<a href=""https://maps.google.com/maps/contrib/112660064831632259015"">A Google User</a>'], 'photo_reference': 'AUGGfZln4gp2EsnewOdhoy6t6U9GMxK0hdfp7PtYlQc2Oap6ptngltfq5hx4U44eoA_vI68nTe-QlXV3-uuPZWcCKuvWVtFxQ5Y897_n4ODFOBldBRxkrwo49WfJ0rBGt5wGI_W9wrZ1UITwhrGDEGLB1NqdJ19S-5CWdW_B_cWWTT92N3b0', 'width': 1600}]",ChIJ4ZplKqd1Ry4RIteUHWFoUM4,0.0,"['lodging', 'point_of_interest', 'establishment']",0,-5.216330200000001,104.2934328
"CGF8+FCJ, Pesanguan, Pematang Sawa, Tanggamus Regency, Lampung, Indonesia",Rumah rio,,ChIJKXB_5CbjRi4RPbxs9xhntGs,0.0,"['lodging', 'point_of_interest', 'establishment']",0,-5.5762874,104.516009
"M8QH+7JW, Banding Agung, Suoh, West Lampung Regency, Lampung 34875, Indonesia",NAW HOTEL,"[{'height': 3120, 'html_attributions': ['<a href=""https://maps.google.com/maps/contrib/102439144444016341632"">Basuki Liwa</a>'], 'photo_reference': 'AUGGfZn3oN_ubKL_AtySKbuiwCWtMt_6rUiHZf95FP3aFXAT7FFEapz0aahQI9YxgWa-QapSycf9luOfeopH2K39hUr4j6jiLiTAz6Ba_u3_WLN4_6zq1WGFyKrxWX5B9DMaqjPGI5VsrOThonGvkaud6yGplmRPwteiIUrjvE5poB394soC', 'width': 4160}]",ChIJuwAVRNgJRy4RLWVdyPvDKcY,4.1,"['lodging', 'point_of_interest', 'establishment']",14,-5.3117318,104.3290335
"QC56+897, Rejosari, Ulubelu, Tanggamus Regency, Lampung 35686, Indonesia","Rest area ,gardu sidorejo",,ChIJIXvCLmYNRy4Ric2fXJkxxd8,0.0,"['lodging', 'point_of_interest', 'establishment']",0,-5.2423964,104.410763
"CH36+7X4, Way Nipah, Pematang Sawa, Tanggamus Regency, Lampung 35382, Indonesia",Pantai Teluk Semaka,"[{'height': 3120, 'html_attributions': ['<a href=""https://maps.google.com/maps/contrib/105890424716550532424"">Agus Salim</a>'], 'photo_reference': 'AUGGfZke_nl-o8hElhZIXpT3x07fxFfwPyRJDI4ojSQd6HwHwMXSH0FRspLZ-KgBjfsjveRdPyxAb4WEGj-4lau8yalhAWg5-GHdBM4Z7MmLXURqbV4ssjP7nYiNOfuFZem4SrfgYCSKmFFEQ5ThyjcDspVHJgdsDcj89DrPr_k_FkTmI06g', 'width': 4160}]",ChIJh1O1CtfjRi4R3_mH_GWrMo4,4.2,"['lodging', 'point_of_interest', 'establishment']",25,-5.596875,104.5624661
"M8XG+7JX, Unnamed Road, Tugu Ratu, Kec. Suoh, Kabupaten Lampung Barat, Lampung 35686, Indonesia",Hotel Grand JONO,"[{'height': 576, 'html_attributions': ['<a href=""https://maps.google.com/maps/contrib/111830458715885159595"">Agung Purnomo</a>'], 'photo_reference': 'AUGGfZlSKqP_w7j41xtSekulYV9VFEA9IiAs56Q4LATc5jeg66Yc1sNLQ9gFZOCkMy87PVDDgxJyXJD1txyM2TlN-MSDkfvLGYOFo03UDOcsO4dSCmqKEx7kdgKdL6IcZPzMhe2BHqExhISGlCzbQ7Oni1qTe1gPFxT1uypI-L_n7qe40yuB', 'width': 576}]",ChIJeUbTnEwLRy4RGYrAGlyxslY,4.3,"['lodging', 'point_of_interest', 'establishment']",8,-5.301773799999999,104.3265973
"Jl. Banyumas Km. 4 No.2, Wonorejo, Kec. Selomerto, Kabupaten Wonosobo, Jawa Tengah 56313, Indonesia",The Cabin Tanjung Hotel,"[{'height': 575, 'html_attributions': ['<a href=""https://maps.google.com/maps/contrib/110164137370252273448"">The Cabin Tanjung Hotel</a>'], 'photo_reference': 'AUGGfZlhaD-uEOgUnX8B_3IZM1YVoGkWgfomraQbYaMwxfAmGYLZBnf7f5lSPdYG3jvo8hdhKWU-rzqasOQtACWelscGv36YefYWbGWLngYNlyeRl5AWPXZFshe1HCaDcI8xqWFiLqV4WRE8FwzdM2lo1hAqBRpJg3_NkzudJh02fRjs9zGX', 'width': 1024}]",ChIJAeJgu3Ghei4R3I0_dSxzvCs,4.2,"['lodging', 'point_of_interest', 'establishment']",710,-7.3938629,109.8922108
"Jl. Lintas Sumatra Km 2 Sukamenanti, Sidomulyo, Lampung Utara, Kabupaten Lampung Utara, Lampung 34556, Indonesia",Hotel Bedugul,"[{'height': 2610, 'html_attributions': ['<a href=""https://maps.google.com/maps/contrib/112773223507900723411"">elsyam priyatna</a>'], 'photo_reference': 'AUGGfZmfKcQsS5sGm0WvTAPKaVBq4ut9xauCwb93B05-Ux6vbvnTzzDhnuRE-Ak_GiDwhHIL6x0Za2q_LraI3xg0NnvfsUNwdgPGUu83HUT9nPfaikep7fdh8szE_EPYtl4cw3Oc7D7LJ0qT_nD2mAHlr9uI5sgp5czdCAujo0hvFAOLfU_E', 'width': 4640}]",ChIJ02HfhVWeOC4RsJjONEAnJ0s,4.0,"['lodging', 'point_of_interest', 'establishment']",147,-4.8659592,104.5926897
