formatted_address,name,photos,place_id,rating,types,user_ratings_total,lat,lng
"72FX+83Q, Onotali, Rote Tengah, Kabupaten Rote Ndao, Nusa Tenggara Tim., Indonesia",New Hotel Ricky,"[{'height': 6000, 'html_attributions': ['<a href=""https://maps.google.com/maps/contrib/118332260983900861236"">A Google User</a>'], 'photo_reference': 'AUGGfZmobY2EAEw6egDc3b5f-aTjvMnqyodMJ3PhRxmfK5YMu_C-AcndlIuU0OCTHHsOl_p8jwtM8JcnY6f5WJDOY9Y0iHqkncogax1fXf3y-DxnRCTo8plizAb3GqBu_Xi2OGGjhI_OHDnM_i93trk9pWhFLAcgnJlcZgcQRlnS-iTOtRkM', 'width': 8000}]",ChIJkVT4HW0rUSwR9GQ8ELyHc40,3.7,"['lodging', 'point_of_interest', 'establishment']",543,-10.7266703,123.0477274
"Metina, Lobalain, Rote Ndao Regency, East Nusa Tenggara, Indonesia",Hotel Freas,"[{'height': 855, 'html_attributions': ['<a href=""https://maps.google.com/maps/contrib/109068832230005214818"">Hotel Freas</a>'], 'photo_reference': 'AUGGfZlLuipSyAVdZRy7nXpIXIj7oAph_dtsSya_tSdhznxlwWGCne5BODZtLACSBiCwVNLvVb0qAt7FNIGnwN9Kww3i9hmw2CSYt0PUr4ApOVztvA72KUb6-mizqGRczNH0xUd6dX_wJHD0cpHNBRpIu5eceAFQ3Fl-C7m1Oup_LhgUbmwe', 'width': 1280}]",ChIJpYUqWWwrUSwR6Zxu8qoDKHc,4.1,"['lodging', 'point_of_interest', 'establishment']",167,-10.7253976,123.0490178
"Metina, Lobalain, Rote Ndao Regency, East Nusa Tenggara, Indonesia",Hotel Grace,"[{'height': 3680, 'html_attributions': ['<a href=""https://maps.google.com/maps/contrib/115894350578245177379"">A Google User</a>'], 'photo_reference': 'AUGGfZmUqeNAZBFyTixmxnC-yAzcWrQBS4RuExEO5DmnFjbP2luVzS9RHCut0t5YyvZuqxSRSycbfyyh8UVpx3LWyqle1Tlw8RTkZfZD8j62qVQEd-koMDrmAbx37eCi1X1p2zm43WQYB4ydsSQDLyPRhUEu2q2hwGhZ35F7fsYuuuQgY27A', 'width': 5520}]",ChIJV2FfQWwrUSwRY54KrAsg93s,3.9,"['lodging', 'point_of_interest', 'establishment']",102,-10.7246026,123.0490964
"7324+2Q3, Mokdale, Lobalain, Rote Ndao Regency, East Nusa Tenggara, Indonesia",Hotel VIDESY,"[{'height': 4608, 'html_attributions': ['<a href=""https://maps.google.com/maps/contrib/115289307183141107108"">Christian David</a>'], 'photo_reference': 'AUGGfZmVOVWfcOXuwKJgzm5XDs6QRNZqdJu7E29OLhZ94HlIKs0jGztaEVBFTSA30F62QVjQxlDs9e5Nyfvd2LuNjuzQgb23XFgsYj7OTgH7-PnlNVFvJV__gffyE7loyYUYOriJBk_G6nbiccAyO1Z8Oj4gsibTnQIBh80LvtxVidDgGtMa', 'width': 3456}]",ChIJr6LoI94qUSwRrtR02Kl-kAU,4.1,"['lodging', 'point_of_interest', 'establishment']",234,-10.7499981,123.0569219
"Jl. Ba'a Pantai Baru, Metina, Kec. Lobalain, Kabupaten Rote Ndao, Nusa Tenggara Tim., Indonesia",Four'i Hotel,"[{'height': 3120, 'html_attributions': ['<a href=""https://maps.google.com/maps/contrib/117655931295076449505"">Ronald Markus</a>'], 'photo_reference': 'AUGGfZl8rm7sshKzWx4EJqVpf96iBdT8OmjslU2AoJJo0Q8BHq2mmrpsbrs3OkD2YYidc6I2hLRWFCK3OUFFHKT1jKnU7YUPCMWcAhARNINIDecpo2w9emQ2icjUZvoDCflZUpk_8BelSJ7CyDj0c-RGVLnizi19pkB5SIv-6GqVYvdxYxHJ', 'width': 4160}]",ChIJw-Dr_GgrUSwRGKM_7SwXFVI,4.2,"['lodging', 'point_of_interest', 'establishment']",69,-10.7199335,123.0529556
"Mokdale, Lobalain, Rote Ndao Regency, East Nusa Tenggara, Indonesia",Well Homestay,"[{'height': 1800, 'html_attributions': ['<a href=""https://maps.google.com/maps/contrib/104446433982910280138"">yogsan bessie</a>'], 'photo_reference': 'AUGGfZmL_gGTkOIYRzN-n2Q7yQfhGHdJIJpjo-dc46GDfY9FL5GPZgq3DvCcURMRMtI5xmQP9ytA-mgmBljgnXgvfI5LxfUyc08gvZG-qsEsNUGxLVQV7UZwBIBSFiNMF_2QFQY3YtSAfw8_1SV4VeO_72EmsJuRlqijbGbK8J-mck7itutY', 'width': 4000}]",ChIJdQNgIf0qUSwRt1eXBHujCWE,4.1,"['lodging', 'point_of_interest', 'establishment']",118,-10.7503173,123.0439893
"Rote, Lidamanu, Kec. Rote Tengah, Kabupaten Rote Ndao, Nusa Tenggara Tim., Indonesia",Rote,,ChIJQ_DudgDVViwRLWHMnp8WiVY,0.0,"['lodging', 'point_of_interest', 'establishment']",0,-10.7386421,123.1239049
"3VPF+724, Boa, Rote Barat, Rote Ndao Regency, East Nusa Tenggara, Indonesia",Eliana Resort & Spa,"[{'height': 720, 'html_attributions': ['<a href=""https://maps.google.com/maps/contrib/109769341479511814341"">A Google User</a>'], 'photo_reference': 'AUGGfZmRA4vh7whmgU9V-2CgSLJY_FynISMjStlB-u9TdYyutNKeVNl6DTrN5L0sFBBvPnG0bjeMGu31Cqr2C3G0u-EwD9HeCVqoHbUczbBvAUeHup9Py9CMz6JU1OoZcWcy4n-VITKBLOrv0319hKMWkzCUH6Ve7OChN3bY_02YOYSVa44R', 'width': 1280}]",ChIJf4nc49vbUCwRvzvxsCo0BKE,5.0,"['lodging', 'point_of_interest', 'establishment']",10,-10.9143859,122.8725919
"Baadale, Jl. Nemberala, Nemberala, Kec. Rote Bar., Kabupaten Rote Ndao, Nusa Tenggara Tim., Indonesia",Anugerah Surf and Dive Resort,"[{'height': 1000, 'html_attributions': ['<a href=""https://maps.google.com/maps/contrib/102771565476482216552"">A Google User</a>'], 'photo_reference': 'AUGGfZnkgdocHIFm4eDh0vt-luuymAeaj1yYE5yxdiSaQ117wSXl7Atp-YnEqsLvghQSNivh1mxeaomDVaYP_Nm-M1Roledtm1yp-tr7ayhWuL1o6u6D7OW6WgtCTJ8W2izB8NbZWFt-rLOIyikAAHSaq0FtVK1lj9fRf97Q3HMsMGYer6fA', 'width': 1400}]",ChIJQRcn8ljZUCwR_EOBpk66qKQ,4.6,"['lodging', 'point_of_interest', 'store', 'establishment']",139,-10.8906129,122.8231501
"Sedeoen, Rote Barat, Rote Ndao Regency, East Nusa Tenggara, Indonesia",Mulia Bungalows Nemberala Beach,"[{'height': 1152, 'html_attributions': ['<a href=""https://maps.google.com/maps/contrib/116069735740582113409"">A Google User</a>'], 'photo_reference': 'AUGGfZleMWTKM34X9vZrs3j5kr-cjX1egvsw3SgVW53EId-NqFea6IVJ3jdoQmNQPJ5YiaR9lctbuT9ppMBXFibYxlUMGDa623HIml9vSUWRbDlitJfEthD9kvURVEbLrHaeBCgS_4eGWAseoc53Z5ZnfxorbrtxjGseQ08mQnrRhUn-57Vh', 'width': 2048}]",ChIJkVQQcXnZUCwRDldCPWsjdeU,4.6,"['lodging', 'point_of_interest', 'establishment']",58,-10.8712797,122.8312683
"Vida Rote, Jalan Lellendo 2, Boa, Kec. Rote Bar., Kabupaten Rote Ndao, Nusa Tenggara Tim. 85982, Indonesia",Boa Vida Rote,"[{'height': 852, 'html_attributions': ['<a href=""https://maps.google.com/maps/contrib/108116776726164338662"">Boa Vida Rote</a>'], 'photo_reference': 'AUGGfZlAwQiGr9BjR2GPcg2-NAR-vi-5ztZ0TJuW80YjqzR_GrLib9N47rKbUa3Ww5Fj83sbTleaH3WqmRWaAmWyddyX4JV-dtEjxMOC8nFxh9vrw9ITNyOn4DcSkbVhVetw-9X9ZQ4qVsROfHhU-89tedXcdlLMef1CxYSR_2JROgLmqh-I', 'width': 1271}]",ChIJ0TmJMgXbUCwR-gYWsVJwIT4,4.8,"['lodging', 'point_of_interest', 'establishment']",74,-10.9387393,122.8441423
"Rote, Nemberala, Kec. Rote Bar., Kabupaten Rote Ndao, Nusa Tenggara Tim. 00001, Indonesia",T-LandResort,"[{'height': 768, 'html_attributions': ['<a href=""https://maps.google.com/maps/contrib/102474252444713640638"">T-LandResort</a>'], 'photo_reference': 'AUGGfZlYoVjkSjF7FOCMdbYyNcJcEjRqNqnHkSPe1xICsTcNE2HGL1RtjRHgEl4Qs_SFuGdN41dkyf6pwnIv2gkYh7j4K9v-NnjJrKrvOuUzF09OYspzP49ESgov-UJ_-kj06Wn3S8km4ZSL77kNayPqakC1o5CEpLofvpol_IEBFTAhO0pR', 'width': 1024}]",ChIJO8IQlVvZUCwR26X5muSX4TQ,4.7,"['lodging', 'point_of_interest', 'establishment']",126,-10.8875088,122.8239054
"Landu T'ie, Oebou, Rote Barat Daya, Rote Ndao Regency, East Nusa Tenggara 85982, Indonesia",The Serai Inar,"[{'height': 1066, 'html_attributions': ['<a href=""https://maps.google.com/maps/contrib/112174002860614762702"">A Google User</a>'], 'photo_reference': 'AUGGfZnj1NR0MZZ0mMZwzu8Y00aBr-QdNM5NWtfX_C2hVbkH18TZhVbT1-0zMz9i9dQASGJ-HskhWe3-pnnpQY_nOkiYjUuyYrHr4tZ9uEuGrWDtFOJDPGwyJKsB5oQES2kITfBwgwGV_A6b3aLx3JK6eIhyIToOfxdI_uBoGrvdFdi1vy_n', 'width': 1600}]",ChIJHSFFb0_QUCwRNLxw1YLLUls,5.0,"['lodging', 'point_of_interest', 'establishment']",6,-10.9314395,122.9333696
"Jalan, Nusa Tenggara Tim. 80810, Indonesia",COCOKABANAS,"[{'height': 1124, 'html_attributions': ['<a href=""https://maps.google.com/maps/contrib/107022210035534350294"">COCOKABANAS</a>'], 'photo_reference': 'AUGGfZkxWxntrTns4GLoFlwok9AiaeornMjmJWTPYddcOUZvsbnK4g5Hl20Ptvw2jn-6b8uU_AZ8qOUHRS64OT5dpF-lnq4RBB07AopV21c24BljXRjYMZ1zfBniuzE0rc8Q6WdbbPl2xVK9vCDEcq9BtDuX8FFxeE-PB8c5v_TG-FDAyiqG', 'width': 843}]",ChIJO5ofQznbUCwRAgDHdXbNiW8,4.8,"['lodging', 'point_of_interest', 'establishment']",30,-10.8926199,122.8239602
"Nemberala, Rote Barat, Rote Ndao Regency, East Nusa Tenggara 85982, Indonesia",Sunset Bungalow,"[{'height': 720, 'html_attributions': ['<a href=""https://maps.google.com/maps/contrib/106747848107605829731"">A Google User</a>'], 'photo_reference': 'AUGGfZlSmLwirMvMky5bWAPBBiR_5qvApi_IQp0_MB1uavhBJtNtGYlTPtlW9ig4hh7P8XwBI2fUJKg68vw5Ig3xoMynDXVGZCilF14SWkl3bP1nAnVO0pT5Cd2IGsIaq0zZ_My0tvk7PZUZSfsUCy48beEAfmevwK9BIQnmBJCS9OHbS9qS', 'width': 1280}]",ChIJZ9v4znjbUCwRTvpxRCszMss,5.0,"['lodging', 'point_of_interest', 'establishment']",15,-10.8943259,122.8252325
"Nemberala, Rote Barat, Rote Ndao Regency, East Nusa Tenggara, Indonesia",Namolilo Surf Hotel,"[{'height': 3096, 'html_attributions': ['<a href=""https://maps.google.com/maps/contrib/115635806981925886739"">A Google User</a>'], 'photo_reference': 'AUGGfZnNnz0nvSl6v11EC0Lj0Zw60aJVIBSUis5xzXVi7NqzFiPj0eYvIbEAdfCBoVbu0p6lfN7RizAz7suW8YSxMvvUGZ0cfp4_c6Mb5Q0yYcWmIz3f57trvV7NVVT36CtBgigQHcl66r2XTrKO6wce4_t-fJ-Uarv7kBENDYBY-cGaahem', 'width': 4128}]",ChIJ24i-TEPZUCwRCyCTWV13cZ8,4.2,"['lodging', 'point_of_interest', 'establishment']",15,-10.8818684,122.8264199
"Jalan Raya Nemberala, RT02/RW01, Oenggaut, Rote Barat, Rote Ndao Regency, East Nusa Tenggara 85982, Indonesia",Manduna Resort,"[{'height': 2000, 'html_attributions': ['<a href=""https://maps.google.com/maps/contrib/105034893217496214800"">A Google User</a>'], 'photo_reference': 'AUGGfZkGBM6SlQdVjnPGLRKe9DocDjxgolxrPfVsPDWQFdxiH5OxMtZHRqg-4rvfciv9s8e-kHKGYWXR6FM_3b3M-o4RM-g9LS2Fwe5PasQB-4MHC6jNwfrhh1NxyoGkqC4AHORoZXBnIuuix2eX5uQE5lVlcAlf62NcBQUalbjM5uaR0isi', 'width': 3000}]",ChIJRTbCpqHbUCwRmfSO8moPQlk,4.7,"['lodging', 'point_of_interest', 'establishment']",89,-10.9239168,122.8272171
"Lualemba Bungalow Resort, Nemberala, Kec. Rote Bar., Kabupaten Rote Ndao, Nusa Tenggara Tim. 85982, Indonesia",Lualemba Bungalow Resort - Nemberala Rote Island,"[{'height': 3900, 'html_attributions': ['<a href=""https://maps.google.com/maps/contrib/115106955609664265444"">A Google User</a>'], 'photo_reference': 'AUGGfZm_MJlzLcsSj1SBI8ciaktFU6D9csVGmGywNa2D_dqWl80tdBoyaQcKfnKfYPZNlMAUT9hk51yUG4DanuwXYclpY0YfAunFbfJQTTDUMHYRhVw0datStH6Mm31OD7SUuu3x1OVaBBut9xNy2F7sms0soZ2bYw5fb9pb9EAqKSLSYkds', 'width': 7094}]",ChIJo1B6UV7ZUCwRIaqFB8EvuP0,4.5,"['restaurant', 'food', 'lodging', 'point_of_interest', 'establishment']",23,-10.889101,122.8284006
"Nemberala, Rote Barat, Rote Ndao Regency, East Nusa Tenggara 85982, Indonesia",Keong Villas,"[{'height': 5741, 'html_attributions': ['<a href=""https://maps.google.com/maps/contrib/117078695870440297518"">A Google User</a>'], 'photo_reference': 'AUGGfZk4BhUBAEh10XIs2cDTQ2Ev2GYQYIEcMBoU89q0EA1_Brx5iLf18rZin-mTyrEwomfz4ScvZfOOgTU8TZsJBK4AASmJmxFUwlmJYgFdCINi7jjtfliRnnDXbAarrl7GxuARqHvuollOSTPezpzoeN8lmhwSulDO8dSxvAejJtc0QyQ7', 'width': 4592}]",ChIJoeT73QbZUCwROb0m7workMA,4.9,"['lodging', 'point_of_interest', 'establishment']",50,-10.8903916,122.8241459
"Jl. Baa Busalangga No.31, Nemberala, Kec. Rote Bar., Kabupaten Rote Ndao, Nusa Tenggara Tim. 85971, Indonesia",Villa Santai Rote Island,"[{'height': 1936, 'html_attributions': ['<a href=""https://maps.google.com/maps/contrib/111555733693255599085"">Villa Santai</a>'], 'photo_reference': 'AUGGfZnBuR7rJw-IhgoWVNnRNOPzdkQVTU5cZzhG8aiuXbYuclexiMqnIZuoT1JLKX1VV79xxScPc3MPYgK478n4S647hPd9_BidFCpIaIpe1KQ8S90GzJhJVaBeBDDevRcpcWz-_bgpt3gUKX2hCf8n6Dtk8pqelx8CS3KGUEHs8DwtJIm5', 'width': 2592}]",ChIJK1T1WljZUCwRbeLOdwUMCAM,5.0,"['lodging', 'point_of_interest', 'establishment']",51,-10.8908054,122.8220132
"Pantai Loedi, Boa, Rote Barat, Rote Ndao Regency, East Nusa Tenggara, Indonesia",Loedi Bungalows Rote,"[{'height': 2667, 'html_attributions': ['<a href=""https://maps.google.com/maps/contrib/113892977742712114157"">A Google User</a>'], 'photo_reference': 'AUGGfZnkrer9kX5aVV6Yb-TWL-4pkvi0eTg_bPOMeXuuhpVomrgBNYhvU1b24bdTecoA5vUFMF-7Pc4T0tPS9i7lb9Xuqrg72-ROa48-zPYICbx_dMqaAmtFF-XWE16S8Ts5YeMK3_qCpCScIy5RG91LjtT8rxXmWrfWkw0ja8Sea14Z05q6', 'width': 4000}]",ChIJ2w-czk7bUCwRRmf9FI0bYr4,4.7,"['lodging', 'point_of_interest', 'establishment']",46,-10.9249772,122.8576828
"4R5C+FP2 Beach Resort, Nemberala, Kec. Rote Bar., Kabupaten Rote Ndao, Nusa Tenggara Tim., Indonesia",NEMBERALA BEACH RESORT,"[{'height': 1440, 'html_attributions': ['<a href=""https://maps.google.com/maps/contrib/108693311518452327457"">jonacito vernandez</a>'], 'photo_reference': 'AUGGfZkF6aNSZdkvgXcqhYGIvQ5mEBbcf_AjRtbkAWHOy76wECP2NZrZe9IVcFRftsvln9yP4ODipYMfgQkTC4038m4KelcOhWX57Mgg5Pj1zioMsru1Eo11o233anfTSjAqJmnClBZRwlXe8gBffZklO1Ee1mkVJ0uw8An18pLZeVvPBRFT', 'width': 1440}]",ChIJ4Tq4aFjZUCwRu-m5UmNgAg0,4.7,"['lodging', 'point_of_interest', 'establishment']",109,-10.8913591,122.8217792
"Sedeoen, Rote Barat, Rote Ndao Regency, East Nusa Tenggara, Indonesia",Utopia Rote Lodge,"[{'height': 724, 'html_attributions': ['<a href=""https://maps.google.com/maps/contrib/110875427110397342759"">Utopia Rote Lodge</a>'], 'photo_reference': 'AUGGfZmuExE6aJwTNJtNTTAf1qAUhJEpDSkSpEoeB3rYpRWAa8A7Kn3hKI2HF5yZ9T6LZBnlk1mM9svjMusy9QKfMl9mGpnuFIXPrCzs9yBn-jj8z2fRjwleFnJEhwN3Lasn_3b0sQF8r_vZpF2-GdiB6lGa7EPG9PWDpChQoVLukaVaFA4I', 'width': 2000}]",ChIJXV87iILZUCwReDAzaWXpKy0,4.7,"['lodging', 'restaurant', 'food', 'point_of_interest', 'establishment']",36,-10.8809702,122.8543907
"85983, Nemberala, Nemberela Rote, Rote Ndao Regency, East Nusa Tenggara 92103, Indonesia",81 Palms,"[{'height': 768, 'html_attributions': ['<a href=""https://maps.google.com/maps/contrib/109492375933649969351"">A Google User</a>'], 'photo_reference': 'AUGGfZlVrawZTnYhIGmW_sai_-hOmKB6-HCuAJYrWxkNUQcsd6obq2gVhP1dUo-gkU8lCO5N86BFcnrsLvTdCm8tN7Os7chKUjpp7uAUEHxXLIHaG2da8TswjA7KL31mVlo0wRccvrdTfNcQgM3BVoFIlpe702HcLV_kym9M5dvYmBrFdn66', 'width': 1024}]",ChIJUSuITUDZUCwRJ9IE9BRZZic,4.9,"['lodging', 'restaurant', 'food', 'point_of_interest', 'establishment']",74,-10.8840164,122.8261264
"Jalan Oenggaut, Bar, Oenggaut, Rote Barat, Rote Ndao Regency, East Nusa Tenggara, Indonesia",Casa Narrow villa,"[{'height': 375, 'html_attributions': ['<a href=""https://maps.google.com/maps/contrib/110511842517713492482"">A Google User</a>'], 'photo_reference': 'AUGGfZmlmHSk7LBnrrn4Efh4ker8LDcbPF1u6O7vI8S60xNXYuY0vcpQocNDFi-Cz7o11jpSulivfIsjlum3-KUXsdSDntcCXKW10lYfrqwnE6-4Cyg81bAfWpPOfaIQArYwGMcS6c7Wc95kzsCr6eYHYYJdp2aYyGL6x9hYUBC9A_7xpc1G', 'width': 500}]",ChIJJ9x6gfHbUCwRjNKxDmh_XZ8,4.4,"['point_of_interest', 'establishment']",1221,-10.907176,122.8227761
"RT 008 / RW 004, Desa Oenggaut, Kec. Rote Barat, Kab. Rote Ndao, Oenggaut Rote Barat, Oenggaut, Rote Barat, Oenggaut, Rote Barat, Nemberala, East Nusa Tenggara 85982, Indonesia",Seed Resort,"[{'height': 1703, 'html_attributions': ['<a href=""https://maps.google.com/maps/contrib/110198197256822081077"">A Google User</a>'], 'photo_reference': 'AUGGfZleC_MTxO637czXr7PpOcWQNYMoAs9owvorIxrKFJm6f6uGBlVu9vQYSjKjEGX-_Yr4PujPw2A5Wn-K89lck78tKVrrYv9JM8MJxy0ykadt4zxkKaj8ruprS9Hv191fBdaelNJTSr28oUbi0MRg83IW7e-0qVo776uyWBo_nHu4z_mS', 'width': 2555}]",ChIJaZJEAeXbUCwRglL13xSfwGY,4.6,"['lodging', 'point_of_interest', 'establishment']",208,-10.8997954,122.822253
"rw 004 rt 002, Sedeoen, Rote Barat, Rote Ndao Regency, East Nusa Tenggara 85983, Indonesia","Blu Oceano, B&B, Italian Restaurant, Rote Nembrala","[{'height': 1200, 'html_attributions': ['<a href=""https://maps.google.com/maps/contrib/110167136582074419524"">A Google User</a>'], 'photo_reference': 'AUGGfZkJdewOjw9pWt2uo3YCHfcZZe4scttjDqQJd_TscQ7Ad9rJ_141fGIxaLyugLl2JfB6qQH9LUfR1JbkhJQ5Xta6VfioeB5pFjf60O4vY1IPlvvGAUJquMLAsaApH_97y87cE9wbBn2Tn1DQ9ehFHcw_t_J5tFgoAX5xVursXmbCyyV-', 'width': 1600}]",ChIJo4a4ABLZUCwRBbGTH3zeOHs,4.8,"['cafe', 'bar', 'lodging', 'store', 'restaurant', 'food', 'point_of_interest', 'establishment']",51,-10.8792601,122.8298024
"4R6G+J9G, Nemberala, Rote Barat, Rote Ndao Regency, East Nusa Tenggara, Indonesia",Ovabaluk Bungalows,"[{'height': 4624, 'html_attributions': ['<a href=""https://maps.google.com/maps/contrib/117963812724552709519"">T Bosse</a>'], 'photo_reference': 'AUGGfZl2pHJyYFQoH7tCtnPG8IbzjkveNLIYOkpMGEIUEEQi7X0zVR8RzDKwS7SZTPGKLjfIdkIg6Jm2DjNrNAziuMKuM2O3B01GffyVA3KvJgVnR30U0pgiAEnFpjqUt35rm6_Pgvee4nMeXmDvh75YS77yKX3fzTEWrXEU0hx-e0iOojlt', 'width': 3468}]",ChIJWzclz17ZUCwR9jBgDQQb08w,4.1,"['lodging', 'point_of_interest', 'establishment']",37,-10.8884476,122.8259445
"jln baa, Nemberala beach desa nemberala kecamatan rote ndao, nemberala, Nemberala, Kec. Rote Bar., Rote, Nusa Tenggara Tim., Indonesia",Belar Reef Accommodation & Resort - Rote Island,"[{'height': 3024, 'html_attributions': ['<a href=""https://maps.google.com/maps/contrib/104316506277091103006"">A Google User</a>'], 'photo_reference': 'AUGGfZmDjIuwKd7jXCtQqTNJ9YsF7Bf1jbZuzz-yDNWiBVaRhc6oUTPztLDI_aQBmuTIGE1c0UuPk9Hb5kQR-Lp_FTwcbwiR9Q0tzeVaOLprXuFjKqNOytvlW1tIABey-Nhb0t1VokRldwTPRCJbZPrDFbqvFRB_fnyHhGiOX9uqPdzm9r7y', 'width': 4032}]",ChIJ-_-1EVnZUCwRpvUVdKzPV8U,4.6,"['lodging', 'restaurant', 'food', 'point_of_interest', 'establishment']",22,-10.8879989,122.8238315
"Jalan Raya Nemberala, RT02/RW01, Oenggaut, Kec. Rote Bar., Kabupaten Rote Ndao, Nusa Tenggara Tim. 85982, Indonesia",Villa Tunggaoen,"[{'height': 2448, 'html_attributions': ['<a href=""https://maps.google.com/maps/contrib/103730688406916762754"">Ade Christin</a>'], 'photo_reference': 'AUGGfZl0n1sllBbAJFjJtQXeF3UG10sI9MXqaXvES9SCmuehp1WxnCh9HdagtWj5V5n36pQpZdjIAN76v21mPU4m7UsDj8pSHgUZX7KF3im58rUicswYDxxjeOp_rPdO_C_OXNDPtUdlelnpZ5zS_iXkS781QTTEqv7i8if8dD_sR6z7EBeG', 'width': 3264}]",ChIJydgZ-WbbUCwRltY9mml8XaU,5.0,"['lodging', 'point_of_interest', 'establishment']",5,-10.9239918,122.8269443
"Oenggaut, Rote Barat, Rote Ndao Regency, East Nusa Tenggara, Indonesia",Narrow Joglo House,"[{'height': 2304, 'html_attributions': ['<a href=""https://maps.google.com/maps/contrib/114922582798899891731"">Guntara Rudi</a>'], 'photo_reference': 'AUGGfZmEfZpm5KWjlpaX06KOQzrIs-vxTwlslfzTCFdJNZN8LZ9xCUHt-NBceHUo-4iNwK4HZt-pGP-4KUYAIiC6OyzTGkyPW5FBF4YoD-4RYHyJ8uoA0k_KXHmal-r8yy_tlAVd090slXAzF4EwVVXNaa8Uc1r85gfOzv1MzSEuRL_QyL1P', 'width': 4608}]",ChIJWwbxK-zbUCwRRMTYJJ04ZdI,4.6,"['lodging', 'point_of_interest', 'establishment']",12,-10.90711,122.8229088
"Jalan Pantai Desa, Boa, Kec. Rote Bar., Kabupaten Rote Ndao, Nusa Tenggara Tim., Indonesia",Bo'a Gardens Rote,"[{'height': 959, 'html_attributions': ['<a href=""https://maps.google.com/maps/contrib/112951809098291681903"">A Google User</a>'], 'photo_reference': 'AUGGfZlLeTTe90RHdTmhwUHsSIx_EF8JVd0VV19PSb349oVamihXoWuoTuBgl63IG_V8nnGLSfSKmQShC5a548Plj5P9d0HcC-CqxrBFlmj3mn1B3_Xt2TGxMiW9UduRBZpXNy3BfAIVLc-rCSZpABNarqpURNou5UtFZNS_cnNs_wobCHO3', 'width': 1440}]",ChIJg9Ls4zjbUCwRFDtZI7Bmn_Q,5.0,"['lodging', 'point_of_interest', 'establishment']",50,-10.9322566,122.8414603
"3VG5+C5, Boa, Rote Barat, Rote Ndao Regency, East Nusa Tenggara, Indonesia",Villa Oemodo 3 bedrooms,"[{'height': 3060, 'html_attributions': ['<a href=""https://maps.google.com/maps/contrib/114100205381329426165"">A Google User</a>'], 'photo_reference': 'AUGGfZmtvYsgJ28ZC-ler2O2HNqYy0vd0TF7KlLoDX-3GWeSBgPUJLd4-0SkG1lfmeY13YqrdbWM4UZSGwwOaG3ebhu6-poUIMjhFWD-vEScl-YiuJJB294ijBnP-9HL3x9vqd07m_aEjT5UPIsiq2dEst6LkmAIj7Iu-VKfAHfHxylOA_Ci', 'width': 4080}]",ChIJN49cCDLbUCwRa4yRVRqiN20,5.0,"['lodging', 'point_of_interest', 'establishment']",4,-10.9239455,122.8579795
"Nemberala, Rote Barat, Rote Ndao Regency, East Nusa Tenggara, Indonesia",Malole surf house,"[{'height': 1283, 'html_attributions': ['<a href=""https://maps.google.com/maps/contrib/106378181539300258397"">A Google User</a>'], 'photo_reference': 'AUGGfZlk2c_6nDcgIo5e7sGHEB4vNkTfncTw0_7aSL89lrenmspl7U8cVSJwBmBxPIipDg4Vrpo9n1q_ZNs-yB552quWmhPEBLKUmg-4NaNP_EMlecPptJjNiVy1IfM7LDvdtLcqHICgs-mNWNesqFvORGrsT03c7H1FmQl6MuPrQ6BZECYg', 'width': 1283}]",ChIJhVEK41jZUCwRb_xlYV5rJMI,4.8,"['lodging', 'point_of_interest', 'establishment']",33,-10.8897321,122.8234121
"Jl. Lelendo, Boa, Kec. Rote Bar., Kabupaten Rote Ndao, Nusa Tenggara Tim. 85983, Indonesia",Boa Hill Surf House,"[{'height': 3274, 'html_attributions': ['<a href=""https://maps.google.com/maps/contrib/113572035863762778340"">A Google User</a>'], 'photo_reference': 'AUGGfZlKBfzV2yVkIrCmVFEZxS-NOvWEz1Ugn5pLsrWkBhSsOGSJBcfu4FtSRxe2oFVOIeTI6su5WJ0L3hbpN_NW5xWsZhDAabnCeJzWiDxMG2GTmf_L24KuRP8yn2mS0NSacFlKRlPutSE_Epm0J0BLkPOQ1nBAo27C3Cb-Qfn9B5H8uU5v', 'width': 3273}]",ChIJY-rlIAXbUCwRqr6Pn_3ow0Y,4.7,"['lodging', 'point_of_interest', 'establishment']",36,-10.9375749,122.8449523
"3RXF+X43, Oenggaut, Rote Barat, Rote Ndao Regency, East Nusa Tenggara, Indonesia",Edotel Umehita,,ChIJac_rN7_bUCwRCTiXHv1FMgY,5.0,"['lodging', 'point_of_interest', 'establishment']",1,-10.9016925,122.8242309
"4RVJ+V67, Unnamed Road, Oelolot, Rote Barat, Rote Ndao Regency, East Nusa Tenggara, Indonesia",Villa Kembali Oelolot,"[{'height': 1856, 'html_attributions': ['<a href=""https://maps.google.com/maps/contrib/106688768636649087868"">J Namazia</a>'], 'photo_reference': 'AUGGfZnRbr1PAnFNMjHtc242Uvoh4hNWS-XErXWcONKGv0QWcz3UgYw70Taj0HpWmmDTzKb2PmPCJcuY4dFc_pc3AwJMC2Nkdfs3XVU4Ks1yFUledCoyaj_-fCqKE5vPRYIjMG9KXy2CotYwQ6hvTpB2Ec_QQJ2RiHD6epOSIAtN7YlAiMp9', 'width': 2784}]",ChIJt1jFbJXZUCwRpF90mYuii98,4.7,"['point_of_interest', 'establishment']",3,-10.8553266,122.8305388
"Rt. 003/Rw. 003 Desa Sedeoen, Nemberala, Kec. Rote Bar., Nusa Tenggara Tim., Indonesia",Villa Sedeoen,"[{'height': 3088, 'html_attributions': ['<a href=""https://maps.google.com/maps/contrib/104298111218064842117"">A Google User</a>'], 'photo_reference': 'AUGGfZl-DLLV19ACAG1NSGnRyjDT_b9IolEkAw44TR9r9VEMGwg5hT1Wdm5dj45RQVGmTF5-igbtpYTgMRUGp4nLSUL1zCYhr1iFsDRwoMBDhx2UGxJsyyIfu3aStrrNw4YFfn8wlhjYbCOoS6pjeWpsZGMs3uT-fiGBy3wuDZgMvfsddeP8', 'width': 3088}]",ChIJ2SA5pVzZUCwR5u1DPS23DP8,4.6,"['lodging', 'point_of_interest', 'establishment']",26,-10.8825172,122.8260285
"3WQ2+5VG, Oeseli, Rote Barat Daya, Rote Ndao Regency, East Nusa Tenggara, Indonesia",Homestay Mamamia Oeseli Beach,"[{'height': 1088, 'html_attributions': ['<a href=""https://maps.google.com/maps/contrib/116206413030240497466"">A Google User</a>'], 'photo_reference': 'AUGGfZlvpTNkQsB8ppBXMhBRee8E_4Vm5HXY_Xt866-ufjplcS2vqoILJggoj57PR5fkWBBv_WoXCuY3glAoBwPIG-6HEFT1Mc52APSKdBaEGGKiZJlcm2pQH68-U7VNPwCczcljeDjXGclzCsyeOhLsI68NdzqVFy3itrR8YqHlvOLOPRow', 'width': 1632}]",ChIJFaiKEqHRUCwR_LYFYLmOKRI,4.6,"['lodging', 'point_of_interest', 'establishment']",9,-10.9120617,122.902243
"3RGG+FQX, Unnamed Road, Oenggaut, Rote Barat, Rote Ndao Regency, East Nusa Tenggara, Indonesia",Villa Tasi,"[{'height': 1088, 'html_attributions': ['<a href=""https://maps.google.com/maps/contrib/104703599098952986865"">A Google User</a>'], 'photo_reference': 'AUGGfZn9FW6yqm7W82q5KIJleReUWhO8zJsV05Yrv02pFj9e2jFmLC2sEDnEDk4WTsv7_0n3ChK7IBiFeauhk0BqIjDCWR0svmh87HWBaBnHRGGqOhxTpojPqblJzgRC3s6XGOi8C3jhSo2G6RsSfwkIi9nzVTnry3iX8HinahjoTA0iDtku', 'width': 1920}]",ChIJjdR7B2bbUCwRaYyXW-jdYmo,5.0,"['lodging', 'point_of_interest', 'establishment']",2,-10.9237774,122.8269908
"4R7G+9CC, Nemberala, Rote Barat, Rote Ndao Regency, East Nusa Tenggara, Indonesia",Talenta Mas Hotel,"[{'height': 853, 'html_attributions': ['<a href=""https://maps.google.com/maps/contrib/109783368256601362731"">Roby Giri</a>'], 'photo_reference': 'AUGGfZmQM2v3cS4vSr3MXPVEVpuc6wil8AHXuOih17UP-0rGQVbjUsW_MOzoNXTgenhZvuRR4Gbkmg_HUxoJbTsUlkgCznVsgdRHxuKbxIB014YHC2_XhcC63eu2tOBpNvAgka_JTvS_Im1x-WLtjlJPDSfWp-vBPn75UejckrGOVoAUKc8s', 'width': 853}]",ChIJhShfA1zZUCwR_jlAgogf8_8,4.7,"['lodging', 'point_of_interest', 'establishment']",3,-10.8865588,122.8259655
"Jalan Desa, Sedeoen, Kec. Rote Bar., Nembrala Rote, Nusa Tenggara Tim., Indonesia",Kampung Kakak Eco Lodge Rote,"[{'height': 667, 'html_attributions': ['<a href=""https://maps.google.com/maps/contrib/104996806975028488176"">Kampung Kakak Eco Lodge</a>'], 'photo_reference': 'AUGGfZn5qiXfHf8Src2fr9VuSc9AF7uF_Yt6TxcptMGUS3ajgAYQu-IgZLJkLlHyiMXdjH3Gg0XBFZyuxZ6xl8ihw_MUEKgBPy36Lw60cI0KRqvo1Sr2a61yv_pHXaML0yVXoLWxlNqasOmEvbfZN0d1Xo5S-76xfTxH043VISP5_-_zKIWF', 'width': 1000}]",ChIJAc_HJUDZUCwR-Dr2weHAa70,4.2,"['lodging', 'point_of_interest', 'establishment']",9,-10.873122,122.830612
"3RGH+5CX, Unnamed Rd, Oenggaut, Rote Barat, Rote Ndao Regency, East Nusa Tenggara, Indonesia",Villa Jati,"[{'height': 3712, 'html_attributions': ['<a href=""https://maps.google.com/maps/contrib/114804455422158422272"">Florensye Angelin</a>'], 'photo_reference': 'AUGGfZnht43QqgWLSgQvH51QzI3l_gHZ8VFmthZVtu4D-F5KMN6C1z2dAYo7cMRctnlsoP4VnrYEnRXwzPeOXodeKiKHQK0QqzHHiuc_V2Du09c5uECUBqOfCM3HpSL_1tnrk_TMom606fzLS8sM-df_FIHedi2M9zOSsQRkyiGGPCqGJFQW', 'width': 5568}]",ChIJ04iLSWvbUCwROV4_qOmO4PE,3.0,"['point_of_interest', 'establishment']",2,-10.9245024,122.8285977
"Nemberala, Rote Barat, Rote Ndao Regency, East Nusa Tenggara 84591, Indonesia",Homestay Cocokabanas,,ChIJYZEjWjzbUCwRIroRv7ayyoM,0.0,"['lodging', 'point_of_interest', 'establishment']",0,-10.891935,122.8451159
"C6VR+9HQ, Bolatena, Landu Leko, Rote Ndao Regency, East Nusa Tenggara, Indonesia",Tirza Amseke,,ChIJyfc0QADPViwRwsaPynKLNx0,0.0,"['lodging', 'point_of_interest', 'establishment']",0,-10.5565001,123.2413976
"89C7+8CG, Mukekuku, Rote Timur, Rote Ndao Regency, East Nusa Tenggara, Indonesia",Ayang,,ChIJ662tEQDfViwRHBbnX6a2K7o,0.0,"['lodging', 'point_of_interest', 'establishment']",0,-10.6785939,123.3641525
"C9QF+727, Daiama, Rote Timur, Rote Ndao Regency, East Nusa Tenggara, Indonesia",Pantai Lokonamon,"[{'height': 4096, 'html_attributions': ['<a href=""https://maps.google.com/maps/contrib/104212209199257602896"">A Google User</a>'], 'photo_reference': 'AUGGfZn-LVPnivG5iEkXxSbPmCrW4e1aRb2-PVOhvi0WHGSzkTgOqq9QJDEjN7jtqS7HlBKhHy-tReN4JgYP9LdMr8aUuqWXZFSOVspHZDC1siWSRPAohZQoN5faatZFwqMUZQW93fyI9XNGYC4lCQ0SrFPg13BCRxTcj5VKrqIeVVZ3FTgw', 'width': 2304}]",ChIJ1yJrag3DViwR-5HQPvIoijg,4.7,"['lodging', 'point_of_interest', 'establishment']",90,-10.5618305,123.3725337
"64PH+48H, Oematamboli, Lobalain, Rote Ndao Regency, East Nusa Tenggara, Indonesia",Reska Lekeama,,ChIJPejcRYfVViwRIyhvJayKM-U,0.0,"['lodging', 'point_of_interest', 'establishment']",0,-10.7646968,123.1283598
"5MV8+PPF, Ndao Nuse, Kec. Ndao Nuse, Kabupaten Rote Ndao, Nusa Tenggara Tim., Indonesia",Om dion,,ChIJRcXLim0fUSwRNNaQ0RUB1as,0.0,"['lodging', 'point_of_interest', 'establishment']",0,-10.8067888,122.666861
"669J+8H2, Unnamed Road, Tebole, Kec. Rote Sel., Kabupaten Rote Ndao, Nusa Tenggara Tim., Indonesia",Nando kolloh,,ChIJ3aXbqLspVywRvGTRyZ9Snp4,2.0,"['lodging', 'point_of_interest', 'establishment']",2,-10.7817353,123.2313996
"667P+352, Tebole, Rote Selatan, Rote Ndao Regency, East Nusa Tenggara, Indonesia",Jhega deku,,ChIJO5ogMMYpVywRJJeO8tTBkMI,3.0,"['lodging', 'point_of_interest', 'establishment']",1,-10.7873702,123.235386
"668J+7J, Tebole, Rote Selatan, Rote Ndao Regency, East Nusa Tenggara, Indonesia",Danila Adetiara,"[{'height': 1114, 'html_attributions': ['<a href=""https://maps.google.com/maps/contrib/102410998612776612600"">A Google User</a>'], 'photo_reference': 'AUGGfZkhn_JJupeI07n1Gx38EDN2Eya6O-T6RBzJmgomiJ3XFgAXAdL8GrRuHJ8LHd7mwyjp4J5o21BPX4ps0WAeaqxAV0ZAjsv2PQb8DsPrcGXsfiR9mWiOdkH4n9OrjNOimYYvQQGRt93wtI4Lfn1PdDw_wBwTeEHlgw5urBweDvtoOgeg', 'width': 661}]",ChIJMx1OlTgpVywRNhWCq-nUgWY,0.0,"['lodging', 'point_of_interest', 'establishment']",0,-10.7843099,123.2315971
"746F+GHR Rote Dale, Lidamanu, Kec. Rote Tengah, Kabupaten Rote Ndao, Nusa Tenggara Tim., Indonesia",Paradise in Here,,ChIJr753ia3VViwRmVS5w5C1GAE,0.0,"['lodging', 'point_of_interest', 'establishment']",0,-10.7386421,123.1239049
"84C8+CC9, Onotali, Rote Tengah, Rote Ndao Regency, East Nusa Tenggara, Indonesia",D.M,,ChIJlaAodOnTViwRftJ9H8PlJ48,0.0,"['lodging', 'point_of_interest', 'establishment']",0,-10.678981,123.1161286
"64VJ+67, Lidamanu, Rote Tengah, Rote Ndao Regency, East Nusa Tenggara, Indonesia",Ayu Mandala,,ChIJmbVefADVViwRBSiebRgcixA,5.0,"['lodging', 'point_of_interest', 'establishment']",1,-10.7569664,123.130734
"65GX+77W, Lenguselu, Rote Selatan, Rote Ndao Regency, East Nusa Tenggara, Indonesia",Ebiy Sanu,"[{'height': 504, 'html_attributions': ['<a href=""https://maps.google.com/maps/contrib/102885419666165920565"">A Google User</a>'], 'photo_reference': 'AUGGfZkkv2Hieq6Edi3gJr_r0kQZrNsYtY8g0ycx4fx7Hko8aWL2s09hXAA1q3xETxOv2m-ck_5yrz98vrN8mPSN9EfMNFgWEWRZakdHdGJHA9VtE1bjn6DPwxDXNv4nHGoWdYDvISG0Wjxh4lYuhcbibzcKZlxO8zdl5cpdh3dGm_QR7fgk', 'width': 403}]",ChIJZXkp0agpVywRd-knS53TUhY,0.0,"['lodging', 'point_of_interest', 'establishment']",0,-10.7742886,123.1982421
"62WR+VM7, Mokdale, Lobalain, Rote Ndao Regency, East Nusa Tenggara, Indonesia",Hotel Kezia,"[{'height': 4208, 'html_attributions': ['<a href=""https://maps.google.com/maps/contrib/109027006105195794785"">Yopi Gasele</a>'], 'photo_reference': 'AUGGfZlAZXgW__m_OCymWIZmrSjwAmhjes4toEraRF9pmJYQHVksBtOlxVLYIJRaHr4GkSiIz1qIvQssOr3q9HZEr-MFpNQt0VbKYUef-d-drWVTmdgGzzLTTsbIUVMOYt0m4QzEeAOPVDehJSr53VDZupLDWcxfcNzSktAn9R-dAx2RLFdS', 'width': 2368}]",ChIJJfiRevwqUSwRrefvNEJbEp4,4.4,"['lodging', 'point_of_interest', 'establishment']",17,-10.7529026,123.0416607
"6578+9CV, Daleholu, Rote Selatan, Rote Ndao Regency, East Nusa Tenggara, Indonesia",Chiko Manafe,,ChIJQ0PQJscrVywRPaj_Z4m_50I,0.0,"['lodging', 'point_of_interest', 'establishment']",0,-10.7864932,123.1660324
