formatted_address,name,photos,place_id,rating,types,user_ratings_total,lat,lng
"Piru, Seram Barat, West Seram, Maluku, Indonesia",Penginapan Piru Permai 1 (Hotel),"[{'height': 960, 'html_attributions': ['<a href=""https://maps.google.com/maps/contrib/104707177521044319019"">She Graceful</a>'], 'photo_reference': 'AUGGfZmehXBXuOveW31kdt5paszdSERP6KZX8hQoi0GXw38rhFBlzVicQ2abSrb0dC-B2VU6A8j6QbPaSxFYs5pR8-PZ6gmbNZPsRrnpAAafvItiMMiuO53gsC2z2aLOPfb6LsSOv_92JMEOnKwlwmY7JXk2I3xTgx8rWUsowffEh6Px1JEj', 'width': 1280}]",ChIJt0GTJUYlbC0RsTWXC1D8oxU,3.7,"['lodging', 'point_of_interest', 'establishment']",42.0,-3.0683639,128.1987219
"Jl Waititiri, Suli, Salahutu, Central Maluku Regency, Maluku 97582, Indonesia",Maluku Resort and Spa,"[{'height': 768, 'html_attributions': ['<a href=""https://maps.google.com/maps/contrib/109206263240505526810"">Maluku Resort and Spa</a>'], 'photo_reference': 'AUGGfZmEolDoe4kH40fH2sz0ePfz_3GqZSp4II9PRZMhu4PHev-GV1nYiT7EKatfUzJyc0hkjViCiv158Uxjy4FHYAnIDocK38zIqn4Gk0KkywW5WXg5Zzwv-wFHSgYrSOiTMFX1qBqO6ytqJyqWXw19sCXmYTLJdSlnIpemwfz9fdaXZta7', 'width': 1365}]",ChIJKZv9xAHtbC0Rd2Lfki_2mzk,4.3,"['spa', 'lodging', 'store', 'restaurant', 'food', 'point_of_interest', 'establishment']",382.0,-3.6167962,128.2776551
"M958+49W, Kairatu, West Seram, Maluku, Indonesia",Victoria Guesthouse @ kairatu,"[{'height': 2268, 'html_attributions': ['<a href=""https://maps.google.com/maps/contrib/104843262209702246264"">djemi ferdinandus</a>'], 'photo_reference': 'AUGGfZkk0eTfabbPDMbFMWbPUAc2LfEpAiJDj2ETlFYAH1F9e-mhjhInywqCR9l5xCIvCUYjIVqDOKCEs1bwAgRq0yujgj4VBibO9nlm4OAKqymiuhKPVl5_-dZz2t5tGY0vbZDpgUz2F-T5LQdntM2mJWozx_K-_Bc1mjBd45MmBZZWuGVx', 'width': 4032}]",ChIJEYqw3U5mbC0REpL60orHkM0,3.9,"['lodging', 'point_of_interest', 'establishment']",33.0,-3.3421201,128.3659838
"VCF2+48P, pelita jaya, Kec. Inamosol, Kabupaten Seram Bagian Barat, Maluku, Indonesia",Rahma Moluccas Resort,,ChIJEZNG3DsXbC0RVvGXhx3bQfs,0.0,"['lodging', 'point_of_interest', 'establishment']",0.0,-3.1271575,128.4008356
"Taniwel, West Seram, Maluku, Indonesia",Nakaela Lodge,"[{'height': 1416, 'html_attributions': ['<a href=""https://maps.google.com/maps/contrib/107693917891933186573"">A Google User</a>'], 'photo_reference': 'AUGGfZkppRzokuSWg1RVKzIAw63lhPu_TVRBzeaG3a_DXQm0fr2nLGa-mp6-aNfZe-XPGpzMHhVFHmjM_WikLQXxbH1foxmc5nvlVH6D29-PiiJ7h0TxQUmfsqxlAPTBwiMHI3ouzg6hor9d9kzsHVaTcQyNqrFpXMP4s4BSxIcR0emwCjpk', 'width': 1868}]",ChIJvYK-R2Klbi0RUOWaIWVpMjw,4.7,"['lodging', 'point_of_interest', 'establishment']",6.0,-2.8470515,128.4527411
"4HVW+M2, Nukuhay, Taniwel, West Seram, Maluku, Indonesia",Jalan Tani Poros Timur,,ChIJN46GC2mtbi0RNuVYpNQjl5I,0.0,"['health', 'point_of_interest', 'establishment']",0.0,-2.8558317,128.5951202
"24R9+922, Saleman, Seram Utara Barat, Central Maluku Regency, Maluku, Indonesia",Bellarizki Resort,"[{'height': 2608, 'html_attributions': ['<a href=""https://maps.google.com/maps/contrib/108734173190571837657"">badakgunung</a>'], 'photo_reference': 'AUGGfZkHpxwfQV7SjdMIEMpDUSl3kO7fp79caxQb1WnyH1Ek8_pX0qAt9xGcbyY6wzt7RgTQmrBLzetA00Cu8x37LcyP1MTBXlBm5mZJWJCVrE0mu-kWuCkWT5AwnCmKsHic7fAZFF_ruE5_4u6dWJUmYkS8z1S0cLuZyf02Xih_M2WLrYyw', 'width': 4624}]",ChIJk3MCcZzZay0RsdRCkctI28Y,4.0,"['lodging', 'point_of_interest', 'establishment']",82.0,-2.9591081,129.1175123
"4FXH+G4R, Jl. Kabupaten, Taniwel, Kec. Taniwel, Kabupaten Seram Bagian Barat, Maluku, Indonesia",Restoran Dua Putra,,ChIJu81RS6albi0Ru4YfF-gskeY,3.8,"['restaurant', 'food', 'point_of_interest', 'establishment']",4.0,-2.8511598,128.4777529
