formatted_address,name,photos,place_id,rating,types,user_ratings_total,lat,lng
"Jl. Merdeka, Gundaling I, Kec. Berastagi, Kabupaten Karo, Sumatera Utara 22156, Indonesia",Hotel Sibayak Internasional Berastagi,"[{'height': 1000, 'html_attributions': ['<a href=""https://maps.google.com/maps/contrib/102110970708494797228"">Hotel Sibayak Internasional Berastagi</a>'], 'photo_reference': 'AUGGfZlvU0MM5BlhrnzNuOWrVn9vF47mmJLgxQ_K1BO5aI2tWmnRYQscnJmz_Pq4PJZ6HP0e2x5KNi4phiF-h5nR7AFr1K6Tw1r7M0WVXTV8q4n99-cQP9MW__PZsTgrevuSkrwB7Gj2naQkfFw5L-gRjAeuNAPy13aXRBWLXEpnDUohWmH9', 'width': 1500}]",ChIJz1TjJpUCMTAR0NQrS8yrLIc,4.3,"['lodging', 'point_of_interest', 'establishment']",2458,3.200599,98.50513900000001
"JL Pendidikan, No. 6, Jarangguda, Gundaling I, Kabupaten Karo, Sumatera Utara 22152, Indonesia",Hotel Enasti New,"[{'height': 600, 'html_attributions': ['<a href=""https://maps.google.com/maps/contrib/113490839435087953055"">A Google User</a>'], 'photo_reference': 'AUGGfZlw-lGWQlc6UgGS8CRZ8Ixuse6nmKTh8u12UaPs1q8UrA7CkFVQu3TKe_VgesWVC_C-2HLPlRCf8alngSBqtkKP0dGg7SYZaw1W1l1yUtw_6kA-IXxR7L4iO_My_bh3oj3oO-Yz5ud_DnohXg27OIj8OtsnVWagyGwhWHwnkJh8HUPX', 'width': 900}]",ChIJ0Sxk2ZQCMTARR3P4hg_7Qds,3.8,"['lodging', 'point_of_interest', 'establishment']",265,3.2036128,98.50421019999999
"6GC6+X72, Jaranguda, Merdeka, Karo Regency, North Sumatra 20354, Indonesia",Pariban Hotel,"[{'height': 2592, 'html_attributions': ['<a href=""https://maps.google.com/maps/contrib/112280826091497882897"">112280826091497882897</a>'], 'photo_reference': 'AUGGfZlxRvDWvZY9kqRGDufe4alpfEGV2uWuVdxSPNlgtle0SHH-1y-EaqZDDk2PfVYcW7ejGgMOvTNYOWo48YAkb8bpc5kTGy8VSVy7n6TVfrqGWMC7U2DAmqQ5eHoyCZgftX2Y9TOMdHtMDjTMa8KYuVXSy3ZcIlbg_ba8oDA9zAP9G_xs', 'width': 4608}]",ChIJ-w0FIEcdMTARnjRcmQbrOfM,4.3,"['lodging', 'point_of_interest', 'establishment']",35,3.2225988,98.51186799999999
"Jl. Kolam Renang, Gundaling I, Kec. Berastagi, Kabupaten Karo, Sumatera Utara 22156, Indonesia",Hotel Sinabung Hills Berastagi,"[{'height': 3744, 'html_attributions': ['<a href=""https://maps.google.com/maps/contrib/111123776341201517379"">Sinabung Hills Berastagi</a>'], 'photo_reference': 'AUGGfZkxYs3LCRgp1-I6ElgOqMruuGiD1_heSRFBIBLhml9071pWQPafLNCPW4L7XAMN2tmUR8QvZ1RFf8v2eS27uAWpgGz0WRgb7HW8zCyTTNBuRJMs4rCPqGDSRvtXVuRsVsqDEi8Om0Rk2iIo2z6bHOCYyCqdTVJwctQWQF1wJBX7Dbyw', 'width': 5616}]",ChIJU8C9Ys0xMTARrAZDDBP3gFI,4.4,"['lodging', 'point_of_interest', 'establishment']",2783,3.202316,98.507699
"Jl. Jamin Ginting No.16, Kec, Sempajaya, Kec. Berastagi, Sumatera Utara 22152, Indonesia",Rudang Berastagi Hotel,"[{'height': 4000, 'html_attributions': ['<a href=""https://maps.google.com/maps/contrib/117516798831921102777"">muhammad taufan</a>'], 'photo_reference': 'AUGGfZkwKVJW5UE3wF3nFRDXfCey5sx6dlL5RiEKkeQfukVkbMw9lfHl9jbEqxNZUR2puU4_YqBWVVCP2h1ZdfpuJtIdaFX7jCI9J3kp1uP6_XO1gwyWKJPnsI4g4MisWWvUIWPlTYT-KcOJvpijISJTPL6RxTsine6wpNOLgei2YRkYDFc-', 'width': 3000}]",ChIJ1ZBEsu4CMTARV-USGYw5JYg,3.7,"['lodging', 'point_of_interest', 'establishment']",246,3.1977504,98.5132196
"Jl. Jamin Ginting, Sempajaya, Kec. Berastagi, Kabupaten Karo, Sumatera Utara 22152, Indonesia",RedDoorz near Mikie Holiday Funland Berastagi,"[{'height': 600, 'html_attributions': ['<a href=""https://maps.google.com/maps/contrib/106051442741272909149"">A Google User</a>'], 'photo_reference': 'AUGGfZlj85lo_OUKhqobhSiMKlp4oRjqBLSf0ajIqr5AHf-ZYTg5_kv75d8UKDMvDx_cJxVq0Q_0gCcKq8MB_r_EEdDT-yqqV6gjiCjulNOykTfFKImzHcKpceEwDEw9sLTpZr0vpC5iueJBNSzukUDhn54teOAiQI-Rfd9wnXbiYLD9sKWY', 'width': 900}]",ChIJD7CxLtgDMTARm-dcA__X4C8,3.6,"['lodging', 'point_of_interest', 'establishment']",51,3.1997117,98.5256024
"Jl. Yos Sudarso Ujung No.43, Ombolata Ulu, Kec. Gunungsitoli, Kota Gunungsitoli, Sumatera Utara 22811, Indonesia",Kaliki Resto & Penginapan Jokowi di Nias,"[{'height': 4053, 'html_attributions': ['<a href=""https://maps.google.com/maps/contrib/116837663076498868065"">A Google User</a>'], 'photo_reference': 'AUGGfZmSURDTQuH2cJzn5mjrumPsO-kYTjSWTZ5yprxr7Yeq3yMoAsW2Vc8F0RT9Qz07AkiHnKDJ4JHmTPRmWHVK2gzttag1VKZc121bmC8Ko9pU6iFwvwSzSJEXwdVzREVTLW8yygelBYFLxPtyUxmsvhXJruEROUFvvHC8cF6DuyHO6QCT', 'width': 6079}]",ChIJ7ZQdnNTkJTARalWR8TVsqdg,4.5,"['lodging', 'point_of_interest', 'establishment']",826,1.3115065,97.6096907
"Jl. Pangeran Diponegoro No.432, Miga, Kec. Gunungsitoli, Nias, Sumatera Utara 22815, Indonesia",Hotel Soliga,"[{'height': 3024, 'html_attributions': ['<a href=""https://maps.google.com/maps/contrib/110019408554858741108"">A Google User</a>'], 'photo_reference': 'AUGGfZl4ubOOHJJkI6iZePc5UsYLciJceAJQN2zFe2j0xbQ5KEuQQ7KdDBgZMM86w_KMIxn5DlzqtuSXSE_agPvMXkxD5_xOsfGcD5FD6Mm2To9fi2nQstcs65PHNDbrRpx4hCcF_-xqc3RfDbogWj30V7mfebu2AMG3vTRN2owIdO0J5i4S', 'width': 4032}]",ChIJBaj1fkjjJTARSpOKZhdveOE,4.1,"['lodging', 'restaurant', 'food', 'point_of_interest', 'establishment']",411,1.2629184,97.63839879999999
"Jalan Raya Pelud Binaka km.8 Desa Laraga Luaha Laraga Gunungsitoli Selatan, Luaha Laraga, Gunungsitoli, Kabupaten Nias, Sumatera Utara 22851, Indonesia",Mega Nasional Hotel & Restaurant,"[{'height': 4480, 'html_attributions': ['<a href=""https://maps.google.com/maps/contrib/104506680200844824137"">Mega Nasional Hotel</a>'], 'photo_reference': 'AUGGfZmWobjuK0d3UjgATqKBSdgg5FHJs8UGKM2MIy1ImSCn9p1EpTHeOMo0iLx3XwZXXrYp3AOwRAsiq_HEcAXmlLM3bb4HUFIHCyIw1yozDiNghl35dXDocRd0CFynNzgHiAMLVQw8uTca3_MvqowEtDDm-XMNG1q1QlUGK6nupD06omCV', 'width': 6720}]",ChIJuwcl2QH9JTARDbVSM65sFgc,4.1,"['lodging', 'point_of_interest', 'establishment']",144,1.2395491,97.65097689999999
"Jl. Kelapa No.55, Ps. Gn. Sitoli, Kec. Gunungsitoli, Kota Gunungsitoli, Sumatera Utara 22815, Indonesia",Hotel Nasional,"[{'height': 2250, 'html_attributions': ['<a href=""https://maps.google.com/maps/contrib/118010267548172885847"">Nasional Hotel</a>'], 'photo_reference': 'AUGGfZlDY2VfKf3p-WrzsZAwaWujjikje9Mix4SsFTUFV3ixPty041ghNrD77O5oAQBj4tdU5hQj_XxvWifaRfN25N0qyzTLAiUutouRET7QGtsgufgEL8TDI3Hq36d7BS_R5MBkL88nYqlnQoCyFNsNghJhzX9Fk_a6E3xMyBx-4kDO_t9r', 'width': 4000}]",ChIJg_Zkxlr7JTAREcM_J1pchwI,4.0,"['lodging', 'point_of_interest', 'establishment']",605,1.2864366,97.6245225
"7JFM+72H, Ilir, Gunungsitoli, Gunungsitoli City, North Sumatra, Indonesia",Sthree Hotel,"[{'height': 1920, 'html_attributions': ['<a href=""https://maps.google.com/maps/contrib/117524100005377192097"">Isnaeni Sutanto</a>'], 'photo_reference': 'AUGGfZkf4fmRGihGk78lZprrfoVe6gZVig8X56BsMOqA3JFJ7svrvHkm9ebdDRpn90M4lH93BxF0eCnAojFulvkoMf3D6ZtDGuRhIjDMyaLM1bb1V46mqiGb5ZQXAK8RpeN98JNULcK_0RAhxID1vk8VRI3PHeYoOd_wZsG-cDrwzOLNP9sL', 'width': 4160}]",ChIJL-Nu-aH8JTARyT3geI6Cwn4,4.1,"['lodging', 'point_of_interest', 'establishment']",361,1.2731834,97.6326165
"Jl. Moh. Hatta No.42, Kel. Pasar, Kec. Gunungsitoli, Kota Gunungsitoli, Sumatera Utara, Indonesia",Nias Palace Hotel,"[{'height': 2250, 'html_attributions': ['<a href=""https://maps.google.com/maps/contrib/110593378195056063475"">azhari</a>'], 'photo_reference': 'AUGGfZntABiBIFikINCtvQmc9kAPvZKx8q2abvCzOA0oGcvv9J5dsoVBvQzD1WS3PmIxW7uE9_fKM4yVc_wKeDkqFmMMvjZyCw6ZbB7IkYJGToF73Cy3Nk7O9ahT26vlaOotu5Rvl4k9QRGJsYbDJoCpMyTFJQNLP0nk9KNcMtYm4Kt1KnEI', 'width': 4000}]",ChIJFff1kE37JTARS1PenKpCV2g,4.0,"['lodging', 'point_of_interest', 'establishment']",185,1.2880346,97.614948
"Jl. IR. Soekarno No.22, Saombo, Kec. Gunungsitoli, Kep. Nias, Sumatera Utara 22810, Indonesia",Tundreheni Hill Hotel And Restaurant,"[{'height': 1080, 'html_attributions': ['<a href=""https://maps.google.com/maps/contrib/107044133266455888968"">Nura Sombolinggi</a>'], 'photo_reference': 'AUGGfZlBOlB5h7oWQvUVfqHBPIyonWesrjI6fujcQdpzUXfXaL2QJOMRv0Whyrj_rcFJUsDIMDdxC7r2oMS9CFnZShrrnLV5915bSuasBOTQzSSwLa35_tlMRhzF43hx6pjCPEx1hA34Sg39_hMoxWrsK7rmA37DdFFVzyh8_MKQ1LeZKqK_', 'width': 1920}]",ChIJaZ2hn_r7JTARFRjGKix9ISQ,4.8,"['lodging', 'restaurant', 'food', 'point_of_interest', 'establishment']",76,1.2887885,97.6170405
"Jl. Diponegoro No.507, Fodo, Kec. Gunungsitoli Sel., Kota Gunungsitoli, Sumatera Utara, Indonesia",Miga Beach Hotel,"[{'height': 1860, 'html_attributions': ['<a href=""https://maps.google.com/maps/contrib/102842886855591499299"">Agus Irawan</a>'], 'photo_reference': 'AUGGfZkrVEtHhMPPFCOmlzj0RfoVioNDO7HyLLbLlVbgNy5ZBQvp0T55w9VAwJp9zl_XGCHmXEHyP-FNRJ798glFIt3BrLJLfXWt0087Pe2GOtgV-ubCQxrBJ1R2_Y7AatxkUG1k7nYAhHu4HhnMOpt1wUFmExkkTMbEU7E6G2amyLZc-baq', 'width': 4032}]",ChIJCdrXauz8JTARVHjAPOqMEsM,4.2,"['lodging', 'point_of_interest', 'establishment']",315,1.2551969,97.63963310000001
"Jl. Yos Sudarso Ujung No.134-A, Iraonogeba, Kec. Gunungsitoli, Kota Gunungsitoli, Sumatera Utara 22812, Indonesia",Museum Nias Lodges & Guesthouse,"[{'height': 1536, 'html_attributions': ['<a href=""https://maps.google.com/maps/contrib/100179884261485150672"">Henra Saputra</a>'], 'photo_reference': 'AUGGfZl210fs18u3oHpYSEF0-JvpRtoH21Gv64tpL96uC2BW2lXspCoVqc0vYUN6tYU0SU6RF46IRAhiGqbZAj1NoqAPzO287jUtB1IzusCmBFaXHBqmrJlrZTafGZD7gHHC-sn3dnmUOk5VknVZnkfEiFBuN8SwYY5IIhwh35XoKzqphSgx', 'width': 2048}]",ChIJi-oV9srkJTARMYhhi0IX-CY,4.5,"['museum', 'lodging', 'point_of_interest', 'establishment']",1551,1.2986655,97.60804530000001
"Jl. Diponegoro No.103C, Ps. Gn. Sitoli, Kec. Gunungsitoli, Kota Gunungsitoli, Sumatera Utara, Indonesia",Libi Hotel,"[{'height': 3024, 'html_attributions': ['<a href=""https://maps.google.com/maps/contrib/100122280575213673049"">Lilys Nias</a>'], 'photo_reference': 'AUGGfZmMJINfZIGirfYEK5MnOdcoIB3VufQieHzACQCDly8dOHIegl715rgv3wOmS7k4FTpOjiAgTqNkGY2ETiZbtE3U6vQ-Jm4DHF7MbGLWXaLsc5ayBmHB1Gffk1dpR-64YG_oWdG41Jc2uFgvie1g7D9kx24pvxkLfuOWKsUX8kKOyFrx', 'width': 3024}]",ChIJl2tdq1r7JTARRnvAGDSJtSE,3.8,"['lodging', 'point_of_interest', 'establishment']",161,1.2872985,97.62263329999999
"7JJG+XMH, Jl. Diponegoro, Ilir, Kec. Gunungsitoli, Kota Gunungsitoli, Sumatera Utara, Indonesia",Hotel Ocean,"[{'height': 3264, 'html_attributions': ['<a href=""https://maps.google.com/maps/contrib/116560898679480330786"">A Google User</a>'], 'photo_reference': 'AUGGfZlSWgW7_gWthC1BjnRSJTmVsoZ8GQU0CE11-zRF4m726snqqHsqkBBPT6badTJlxLaDQh2D7v-MyT2mdQWnRTHNRDfO3NbJjwdVWzTZu7JVwEY7xQWP2o7_T7XMBhMiUkuBVE3kc1B2naOOjobLZ3BW9Rm6fhs8dXfaTjCrSjqvCdoh', 'width': 2448}]",ChIJYd2kWFn7JTAR5u838pScJhw,4.1,"['lodging', 'point_of_interest', 'establishment']",61,1.2824686,97.6267616
"Tab, Jl. Diponegoro No.391, Sifalaete Tabaloho, Kec. Gunungsitoli, Kota Gunungsitoli, Sumatera Utara 22811, Indonesia",Sangehao Hotel,"[{'height': 624, 'html_attributions': ['<a href=""https://maps.google.com/maps/contrib/117716247014832204904"">Darius Zebua</a>'], 'photo_reference': 'AUGGfZn-7E15ImSU8Op3Fe_Nh3-lwFnjskJxMxguCqrSF9a9POkDJCF8hZi3nqKS4q_d5wKv6GDOskk4yznEhM57Fu353PdacWi9NYowGS9yI8-vlDMpvA60y3nE_CTno75nX_Z8IP52NPoahCSl3MOtiOtK8r8y95xbR8jneAMYjghiuQA3', 'width': 1248}]",ChIJNzwRvpj8JTARK9PUiVOuuRc,4.3,"['point_of_interest', 'establishment']",53,1.2715503,97.63436089999999
"Jl. Raya Pelud Binaka No.219, Binaka, Kec. Gido, Kota Gunungsitoli, Sumatera Utara 22870, Indonesia",Gonias Hostel,"[{'height': 4032, 'html_attributions': ['<a href=""https://maps.google.com/maps/contrib/110006084990470567381"">A Google User</a>'], 'photo_reference': 'AUGGfZmZoGtcsDL2_UgngdBZFr_5Ld-bUveQgNNk5G0pUDWFBjw-tevLWMeSUIoMEtscy_n4ZueLkC_LR-boJK18rHcTzAG-QfP29-bmE-cfK_oibapjC79hLR_E4b72BEDGkBHdPKPdFU9HOsgUpE4dLLzSG_rKv8EBWkMwjW9XXkAYTxgZ', 'width': 3024}]",ChIJd-BzIZEHJjAR0Xei65akJCE,4.6,"['lodging', 'point_of_interest', 'establishment']",74,1.16952,97.6931475
"Jl. Yos Sudarso Ujung No.Km. 3, 2, Ombolata Ulu, Kec. Gunungsitoli, Kota Gunungsitoli, Sumatera Utara 22811, Indonesia",Dian Otomosi Hotel,"[{'height': 3456, 'html_attributions': ['<a href=""https://maps.google.com/maps/contrib/116911691550831376482"">joko suwarno</a>'], 'photo_reference': 'AUGGfZl7-qA-I4lO8pAG8zja0DKeFg00vooGg53vIxPAcZnaT1-OFR3PqYvZMeQBGKd-uVVk9s0fqN1tnrwUdgvnG5rKNOu5vrA-BW1fWt-gYy4-x7Z47VzUeVX569KgOiG9tJeDo35VlaiYeEAOKbb4-8BVIxInYB5mKkoSa9x0jkCUovwR', 'width': 4608}]",ChIJReYdStTkJTARbilNjX9Ir90,3.9,"['lodging', 'point_of_interest', 'establishment']",108,1.3137076,97.60710689999999
"5GWQ+F7G, Unnamed Rd,, Dolat Rayat, Kec. Dolat Rayat, Kabupaten Karo, Sumatera Utara 22171, Indonesia",Villa Berastagi Dinisari221,"[{'height': 4160, 'html_attributions': ['<a href=""https://maps.google.com/maps/contrib/106163149699791991906"">A Google User</a>'], 'photo_reference': 'AUGGfZnF2LREmYnVC7zMq7tiKccaeolTgI-ypNfji3NuWnttt7V0BzOJzyZqYvZ62sOyVfhPDgljuzBpXzPpJEr0vTyFqGJ419ErctYbwkssuINV4tbuPwjZmzQ_q8YK_20MxWuPXxGDHzgnB02krKU7RXoLfYlnRn0iCj9-3lqhNZC_y4Wu', 'width': 3120}]",ChIJaUG4bBoDMTARKYKoHAgzcsc,1.3,"['lodging', 'point_of_interest', 'establishment']",84,3.1961783,98.5381938
"Dolat Rayat, Dolat Rakyat, Karo Regency, North Sumatra 22171, Indonesia",Villa Bali Dolat Indah Berastagi,"[{'height': 810, 'html_attributions': ['<a href=""https://maps.google.com/maps/contrib/101556242839652627757"">A Google User</a>'], 'photo_reference': 'AUGGfZn-uENs0cDT-bUlddakxAqz8_0V9n9MBlFtMkLE5xEaL9CsL-7TgtNxOAvjstSEe9r5jhgWBRSI-GyJDPtDtv6N4DuiWLBCHJfoALUgsRAoQ5UNMNjpiA19u06qT7G1JwcVSOB9N06Ltg7VJswavp5hVjE9LHIjykf8DGhsr1OllMsv', 'width': 1440}]",ChIJtVlUphsDMTARmVWnLMH_BEk,4.4,"['lodging', 'point_of_interest', 'establishment']",83,3.1952785,98.53535339999999
"Sorake beach Kec.Luahagundre Nias island, Sumatera Utara 22865, Indonesia",Hotel Toho Nias,"[{'height': 1377, 'html_attributions': ['<a href=""https://maps.google.com/maps/contrib/105264376625517336183"">Hotel Toho Nias</a>'], 'photo_reference': 'AUGGfZmojobx7D88Y-4RHv5BjJIdsp1v-9mr8PCnTKd3p0gCiNlGp0-fUEQV7waER0ZiBvLny_n_S_HWSHxTF-8sKTjTnQvBO_sHPHNYOyh0NwaQ22JLnIJoMh0A8MKWGCMJfjK-Sk8Q6z2CfWF5bLOOoI22qhNh5odfoM9myevEamSzct9b', 'width': 2448}]",ChIJI4IDxox_KDARWZxkFLlHqz8,4.6,"['lodging', 'point_of_interest', 'establishment']",32,0.5737778,97.7318341
"Sorake Beach, Botohilitano, Kec. Fanayama, Teluk Dalam - South Nias, Sumatera Utara 22865, Indonesia",Dolin Cottage - Booking Hotel - Nias Island - Sorake Beach - Nias Room,"[{'height': 2448, 'html_attributions': ['<a href=""https://maps.google.com/maps/contrib/109425871904483349820"">Dolin Cottage</a>'], 'photo_reference': 'AUGGfZkk2C0Hdf3XqEjIDRPb1OQtzJei-lDMnp0q9j2ZU4m-yl44l6nJZzsqGpqnxF-u-kZ3-UC9QaGz2Cy5ThBqxBxAygbxcx4-MLPbVRGyhSNFrGDnmU953gBk0Jc5UD2q16QcApcc5mPO-VIAdm0lRaM5YP5n2R1v2F4EaSRXLPaE3yap', 'width': 3264}]",ChIJRw227eXUJzARUBARfDTQ3Pk,4.9,"['lodging', 'point_of_interest', 'establishment']",15,0.5712781,97.73139409999999
"HPCJ+9P6, Botohilitano, Teluk Dalam, South Nias Regency, North Sumatra 22865, Indonesia",Sanali Losmen,"[{'height': 768, 'html_attributions': ['<a href=""https://maps.google.com/maps/contrib/103618042271888426028"">Hugo Lassalle</a>'], 'photo_reference': 'AUGGfZlRihRVQ35jhqvNQyzCqsj7M48geoJMX5o5WmKVJ0aQtQ6m11bNNuviPsq6T8DmzkfmCQM146PXb1-hy3vqjPQp6RCGzFI796g36jbF9hlSxc7drchGYoQZ6sGs_q0BFWxK1vE5V-H-PVtHDw6e0rF8WqwVTkwr9VGHvvMta4b6k0yr', 'width': 1024}]",ChIJu7F1BmfVJzARGG3JfEdY_Z8,4.8,"['lodging', 'point_of_interest', 'establishment']",4,0.5709160000000001,97.73175789999999
"Jln Pantai Sorake Botohilitano Teluk Dalam, Botohilitano, Kec. Fanayama, Kabupaten Nias Selatan, Sumatera Utara 22865, Indonesia",KabuNohi Sorake,"[{'height': 4000, 'html_attributions': ['<a href=""https://maps.google.com/maps/contrib/103209484289749569198"">Kabunohi Sorake</a>'], 'photo_reference': 'AUGGfZkd8n-kmPsE1QLQoX-k0VOngB8g3X7GsHDW_CzEO1LtmcfvM3Y9M92JvdAc_LQi5yBZ0fWRSbG4b78i-1WYmb1E0vwUki9EzB1kje5OSZ-UEU9p7b8EFa5UnG9mMUSn4FVCr9N4FTPBD3pyyDVyTDuyCPZfJgnMzilCTpOGmvtKdztv', 'width': 6000}]",ChIJ8VlO8uXUJzAR511TBSozjDw,4.7,"['lodging', 'restaurant', 'food', 'point_of_interest', 'establishment']",67,0.571554,97.731527
"HPFJ+6WR, Pantai sorake Tlk. Dalam, Botohilisorake, Kec. Fanayama, Kabupaten Nias Selatan, Sumatera Utara 22865, Indonesia",Crusoes losmen,,ChIJZbHx4i_VJzAR3ivj33pkNd8,0.0,"['lodging', 'point_of_interest', 'establishment']",0,0.5731014999999999,97.7322786
"Jl. Pantai Baloho, Hiligeho, Telukdalem, Kabupaten Nias Selatan, Sumatera Utara 22865, Indonesia",Baloho Beach Resort Nias,"[{'height': 3024, 'html_attributions': ['<a href=""https://maps.google.com/maps/contrib/117162164851946786039"">A Google User</a>'], 'photo_reference': 'AUGGfZmW-dnjNly7gOSuamPwnAT5cTgJhVFU8RACDrXh1r1DI3eLmmvECCKCMf1VS0GwRG88xKqWZtAJQXkkTxDf7CwHkrCowD2CdYcWdLzK4Do_awe9xKxt2ZElfuD-ChHd96NHpX9Pt_GHDvpBLayngzZqsyUjbumHpofZ7ewFXwzD0JyQ', 'width': 4032}]",ChIJV5QYT71_KDARGaKBTNKhZ88,4.2,"['lodging', 'point_of_interest', 'establishment']",119,0.5584583,97.8053486
"HPJM+36V, Tlk, Lagundri, Kec. Tlk. Dalam, Kabupaten Nias Selatan, Sumatera Utara 22865, Indonesia",Harus damai inn ( Lagundri beach ),"[{'height': 4160, 'html_attributions': ['<a href=""https://maps.google.com/maps/contrib/103660190760237184861"">A Google User</a>'], 'photo_reference': 'AUGGfZkwz6mlTD86A6XGcUjNqjkTW_ew4g-BYXjm7YqxRhCoz46ohbLp03Wn97Y21KA1Q_iDJODYlfYth26GJlEzYuKl2gAgUAAcxR54RbPlKNMfFuwQ_lf53viXY0SSmOd7ZeavYZjkjMv17lTsyjn59uvSopT4aF9ZrR6Pj9_tepIVxc2E', 'width': 3120}]",ChIJjQqi8NzUJzARMhwk-BTsdBA,4.3,"['lodging', 'point_of_interest', 'establishment']",216,0.5801993,97.7329919
"Jalan Dinas Pendidikan, Hilizihono, Kec. Tlk. Dalam, Kabupaten Nias Selatan, Sumatera Utara 22865, Indonesia",RedDoorz @ Ryan Hotel Nias Selatan,,ChIJE38Vw9l_KDARl8DTJ4ZGy9M,5.0,"['lodging', 'point_of_interest', 'establishment']",1,0.571106,97.79214929999999
"5H3V+9GH, Fulolo Lalai, HiliSerangkai, Nias Regency, North Sumatra, Indonesia",Rumah william,,ChIJX034COYJJjARm5g7Yt08UU8,0.0,"['lodging', 'point_of_interest', 'establishment']",0,1.1534234,97.5938707
"5H94+CHP, Hiliwaele II, Botomuzoi, Nias Regency, North Sumatra, Indonesia",Rumah Fidel,"[{'height': 1080, 'html_attributions': ['<a href=""https://maps.google.com/maps/contrib/110809011540701217790"">A Google User</a>'], 'photo_reference': 'AUGGfZkzCFYZgN0QcnPr8_GthW5yXbJhx-2NZ31Oej5RYW6dslPl5dKgKeGnEikJI-7MMk-9tz4cMIX2PaYg2aXXJN6VaEXW6ZK92r6pepxSFJr8dBGzXpsEqygxN_Z-CH403mvUBQ2vbURjBQ8rVrmjZWT4m1br5nUenO1EknmCFii9NyQ2', 'width': 1920}]",ChIJW9zGojEJJjARFQhvDmKAU50,5.0,"['lodging', 'point_of_interest', 'establishment']",2,1.1686258,97.5565048
"3MQ9+R92 dusun 2, Sisobahili, Kec. Gido, Kabupaten Nias, Sumatera Utara 22871, Indonesia",Rumah a/i krister hulu,,ChIJR5a9JgAFJjARAKosMf7T2oY,0.0,"['lodging', 'point_of_interest', 'establishment']",0,1.0895077,97.66837559999999
"3RWJ+QP3, Bozihona, Idanogawo, Nias Regency, North Sumatra, Indonesia",Best camp MJ Bozihona Beach,,ChIJsyvnIgCpKDARF0E8Zc1geTA,0.0,"['lodging', 'point_of_interest', 'establishment']",0,1.0968875,97.8317969
"Onolimbu, Lahomi, West Nias Regency, North Sumatra 22863, Indonesia",barang,,ChIJYxILzbUTJjARFLrWiNLTsyM,0.0,"['lodging', 'point_of_interest', 'establishment']",0,0.9949840000000001,97.50577369999999
"2RX2+35X, Unnamed Road, Maliwaa, Kecamatan Idanogawo, Kabupaten Nias, Sumatera Utara 22872, Indonesia",A.rinda ndruru,"[{'height': 2560, 'html_attributions': ['<a href=""https://maps.google.com/maps/contrib/112285741510660191230"">A Google User</a>'], 'photo_reference': 'AUGGfZkHW7-f0vYueCOGZkqtHLl0fSChFQkWXWovML7QF44qt04GRE5uVCddnkJBV3s8Ou_vyc9dxXZFXgnQrHkEzrxwCMc7fMJ42Y8ekPEGBq80DRDaR4oJBughTEokBRMcPeA9Sy_-H8HeTuwQVnWEDPSSFx8oF3yGz1SdQ55r2e8lvizE', 'width': 1920}]",ChIJ_zr2j8ynKDAR0U52mTgWbtY,5.0,"['lodging', 'point_of_interest', 'establishment']",1,1.0477267,97.8004733
"Jl. Raya Pelud Binaka No.120, Siwalu Banua II, Kec. GunungSitoli Idanoi, Kota Gunungsitoli, Sumatera Utara, Indonesia",Ama Grace Larosa,"[{'height': 1836, 'html_attributions': ['<a href=""https://maps.google.com/maps/contrib/115028215587739467971"">A Google User</a>'], 'photo_reference': 'AUGGfZkd2ZV34suYgVGE88wry2x_-sdXSVAtCqvm1zCMUrRMRF9bwK5z9YWXSuheMTJV9EORbiZNwbqQlNYEGuUwLFt8a2zTJxu0ZDmK0nQ8ygNObcvVWYAuwQFn0fn0JqiD0SKO42uhExGpTbhs6BwPpKJxm3jkFHzksXIzlWqnwpTAdtPH', 'width': 3264}]",ChIJSeRB1qIHJjARVH8PtShH8AA,5.0,"['lodging', 'point_of_interest', 'establishment']",2,1.1889997,97.6793514
"5P52+MW3, Jl. Raya Pelud Binaka, Umbu, Kec. Gido, Kabupaten Nias, Sumatera Utara, Indonesia",Kosan Ina Teti,"[{'height': 3120, 'html_attributions': ['<a href=""https://maps.google.com/maps/contrib/118243704185654582982"">A Google User</a>'], 'photo_reference': 'AUGGfZkfWesHpb3xg_Pd6D8q6Nw1jOEmxNEeazf_XnQ4wiAASIBq-0hVjvyOw8YQF0ZA5QFLzBAGhOT_UB5RtIsQXn2L1rmKIjStOYd-W4S74x66-GDNb1iLdhB0Febil0MMNxYm1p3IKVSSyfDgrrjlk9Y8wQqWydFdQcMxvfqJBRvJnFZE', 'width': 4160}]",ChIJxTiMN7oBJjARDs0nwr8QDDM,4.0,"['lodging', 'point_of_interest', 'establishment']",2,1.1591357,97.7023116
"XFRV+QC8, Onolimbu, Lahomi, West Nias Regency, North Sumatra 22864, Indonesia",Gres,,ChIJ0ydLpSYTJjAR035YtT-KBnE,0.0,"['lodging', 'point_of_interest', 'establishment']",0,0.9919108000000001,97.4935794
"7JJ6+9W5, Pasar Gunung Sitoli, Gunungsitoli, Gunungsitoli City, North Sumatra, Indonesia",Ama Lestari Zai,,ChIJHWGxDp77JTARqJM6i-jB5K8,0.0,"['lodging', 'point_of_interest', 'establishment']",0,1.2808747,97.61229290000001
"2F2V+HHJ, Onolimbu, Lahomi, West Nias Regency, North Sumatra 22864, Indonesia",Tokosa Hotel,"[{'height': 2184, 'html_attributions': ['<a href=""https://maps.google.com/maps/contrib/104577246201111444077"">frans lewio duhe harefa</a>'], 'photo_reference': 'AUGGfZksFooQYx3Qbrg8SBNEq5g_yvnmyVMLA1rrttzu8PI4RuBfs3PfjaMfiSh989LliwmGuH3xHMAevpkisDVFpTK2AEz3IpSxAEOBqfIfysnygKgdZrSaDDdfjR_FiSKccAHG8MJyWl5CKesYa4nKcL1hQM7B-zu7Do1MDn4kiwgvllHz', 'width': 4608}]",ChIJjYrKkLoTJjARGnyFcJjrz54,3.9,"['lodging', 'point_of_interest', 'establishment']",95,1.0014734,97.4938945
"7JJ6+8VQPs. Gn. SitoliKec, Kec. Gunungsitoli, Kota Gunungsitoli, Sumatera Utara, Indonesia",Ama Candra halawa,,ChIJbcI5f5T7JTARw5kYj5tkXSY,0.0,"['lodging', 'point_of_interest', 'establishment']",0,1.2808635,97.6123029
"5P9G+J74, Pulau Nias, Kabupaten Nias, Sumatera Utara 22871, Indonesia",Gowaena Beach,"[{'height': 2448, 'html_attributions': ['<a href=""https://maps.google.com/maps/contrib/113603013023001776534"">Mobil nias. Sanirental</a>'], 'photo_reference': 'AUGGfZlME61bZ7YkzZG_eQ7h6cLKFmM-ykBpy59_mc6HrDwlbFa2ozJkP6nRVv0T6ddiF2v7g20-_14xFiCapOQw3VTVjo45jF38EVVMMPmsPoZliyL8yWEg2hzz-krss4uoLHP5ZQIwCqh385p2z0YZ-QU6G9b7AhqiycjBkdvSYP8Ce4Jf', 'width': 3264}]",ChIJv5H_IeQAJjAR9ORSi0oycqc,4.2,"['lodging', 'point_of_interest', 'establishment']",5,1.1690032,97.72571239999999
"JL. P Diponegoro No.189, Ps. Gn. Sitoli, Kec. Gunungsitoli, Kabupaten Nias, Sumatera Utara, Indonesia",Berkemah Hotel,"[{'height': 3120, 'html_attributions': ['<a href=""https://maps.google.com/maps/contrib/114332944559774745950"">Sahrul Gunawan</a>'], 'photo_reference': 'AUGGfZni5VxqogjdylbxpwDr2ZhttO15s-PWrY74ly-iTDUEXYpduXPZEHVw8FZaHgipyV748ZdOdcwLlMe6-oYKySw0tjdqxJt1tUf-hwkosTQUc--G8cSUzis8QowveX60zJ27ErYz049NqdYh0wxBtyD5KT4XB3SdS4NLtCcL8Qb9PNpO', 'width': 4160}]",ChIJ77kV5lD7JTARc6Crx5XvDhA,4.1,"['lodging', 'point_of_interest', 'establishment']",16,1.2845504,97.6252526
"Jl. Raya Pelud Binaka No.km.19 5, Umbu, Kec. Gido, Kota Gunungsitoli, Sumatera Utara 22810, Indonesia",nadine homestay dan penitipan kendaraan,"[{'height': 640, 'html_attributions': ['<a href=""https://maps.google.com/maps/contrib/117968451553218942714"">A Google User</a>'], 'photo_reference': 'AUGGfZkBwV78N2e0vx-y6c3oYcqzCNw-8g_gu3e6Z-V-O8IyvSFAIu1u8GNhil5VWkQm2FPS-dAA8XyNw3MG_YtUgEFA08mhb00t0ZxFRQDhHaFwqn1MvjnYeL7LkiVCDJO9d-mMwav8cGVVMvkCa6AgqX8NLM3ZRasEGgCENhBIW3NlMbRt', 'width': 1280}]",ChIJh0nN96MBJjARpQN9IMHTEF0,0.0,"['lodging', 'point_of_interest', 'establishment']",0,1.1614367,97.7037785
"6MM2+C73, Luaha Laraga, Gunungsitoli Selatan, Gunungsitoli City, North Sumatra, Indonesia",Ardin laia,,ChIJ98owFQD9JTARXhGzxo3XD2Y,5.0,"['lodging', 'point_of_interest', 'establishment']",1,1.2332291,97.6513186
"7J2R+5CP, Fodo, Gunungsitoli Selatan, Gunungsitoli City, North Sumatra, Indonesia",Rumah A.I Berkat Lase,"[{'height': 1080, 'html_attributions': ['<a href=""https://maps.google.com/maps/contrib/102700021278525634409"">A Google User</a>'], 'photo_reference': 'AUGGfZmepkqOFCUpZa-cDTU7dKwRndM1AhsG4PiUQBUIhohUQjftUOU3Moicvh5zghfkYOlabSMuZIeztLUJ5Aly53JeTaqZhLGrg5mt51qfefFhVZLbXTKsj81fPD4fVnK2vDcG_M_S0iLZMu1-gcYLhCu-Wf8jTDmKbNNLSf-sy1GPUo3Z', 'width': 1920}]",ChIJ5ThXIwD9JTARbqwOW7bVO90,5.0,"['lodging', 'point_of_interest', 'establishment']",1,1.2504433,97.641077
"7JJ7+6R5, Pasar Gunung Sitoli, Gunungsitoli, Gunungsitoli City, North Sumatra, Indonesia",Alfan,,ChIJq1aYDgD7JTARyRTLTaIzHL4,0.0,"['lodging', 'point_of_interest', 'establishment']",0,1.2804858,97.61459359999999
"7JJ7+6R5, Pasar Gunung Sitoli, Gunungsitoli, Gunungsitoli City, North Sumatra, Indonesia",Amir Hamza,"[{'height': 1640, 'html_attributions': ['<a href=""https://maps.google.com/maps/contrib/109601642280485478711"">A Google User</a>'], 'photo_reference': 'AUGGfZl8xEwpGUWNrsmLVSQoPcXH67V1oiX2wFqWw3cJiP8tt59-9v5m86vAF6Deypd5Gxobr-5PE8m3MnZxDTS7UgS0WD90Fl8W7vBm7wSvNxTKvvQYuVwk5pN1c8VMvTr18fD5YKDJ0SQWOuOI249giPbJ52ABTXKSJs_SpPrf6HILRGL4', 'width': 720}]",ChIJc_QnqJb7JTARdqxzMWouJmE,0.0,"['lodging', 'point_of_interest', 'establishment']",0,1.2804859,97.6145935
"Jl. Yos Sudarso Ujung No.82, Ombolata Ulu, Kec. Gunungsitoli, Kota Gunungsitoli, Sumatera Utara 22812, Indonesia",Hotel Masa Kini,"[{'height': 7296, 'html_attributions': ['<a href=""https://maps.google.com/maps/contrib/107080743700213525461"">A Google User</a>'], 'photo_reference': 'AUGGfZlvw1ENUcc_ggwNDoxnqQ233tvHd6neOGQDmxbOyhMUUGJaTyMw7hSMY47YDiYok5mWinC4rUoQz5qqjcZjtO3GOpCXxmCE-VWsSd6j3rKaY3vUDGNRxHIlxUmCZ7rnODN2XhVhLb5ltEJ_3mPu0NbJ4ZBFOXvaPCafgvFrpxoUEzKY', 'width': 5472}]",ChIJM0uLnc3kJTAR_Tu4QRzt3y4,4.3,"['lodging', 'point_of_interest', 'establishment']",9,1.3066415,97.6088442
"JL. MAGIAO No.28, Iraonogeba, Gunungsitoli, Gunungsitoli City, North Sumatra, Indonesia",Medan,,ChIJr3y5y9zlJTARA-pjiHMHD50,0.0,"['lodging', 'point_of_interest', 'establishment']",0,1.2925881,97.6097715
"9G7P+Q5, Gawu Gawu Bouso, Gunungsitoli Utara, Gunungsitoli City, North Sumatra 22853, Indonesia",Ama Feni Kawaigi,"[{'height': 4080, 'html_attributions': ['<a href=""https://maps.google.com/maps/contrib/117744365633632776354"">A Google User</a>'], 'photo_reference': 'AUGGfZm7mEsoBvOMVxfILPyIrTw2bNctSLykXAamXdeDGget2qImEZ9HJnNCj68tU6YTpkklet-RzuUzbpRY08jILeqnNunuQlDULsXSM4baJbeuujS3DMyAoYL9hJ3YPnnKWbN_ERb6VXCWfa1LslHQgfTQWixrsGnrCNpYl24Zelqm0B0U', 'width': 3072}]",ChIJJSKbObPvJTARbaoZv4eCJnk,5.0,"['lodging', 'point_of_interest', 'establishment']",1,1.3644895,97.53547069999999
"6JWV+52F, Fodo, Gunungsitoli Selatan, Gunungsitoli City, North Sumatra, Indonesia",Oktoberlin,,ChIJHUshGyL9JTAR0ihewKo-kns,0.0,"['lodging', 'point_of_interest', 'establishment']",0,1.2453607,97.642517
"Jl. Sirao No.6, Saombo, Pasar Kota, Kota Gunungsitoli, Sumatera Utara 22813, Indonesia",Hotel Serasi,"[{'height': 4080, 'html_attributions': ['<a href=""https://maps.google.com/maps/contrib/106514612111937672401"">A Google User</a>'], 'photo_reference': 'AUGGfZlmjxvZuAK934GyBPPp6d1JpL-XOVYr-MErtIEq8Fse5tTiFznhcgdRfo1RhcB0kgDdxuMRN5yuwdaluKG-qOS13Tg7mktnFkLNgObuc_gy4dhabeUSjY3BzMjpuKb3SltWCTTudWDHO6WcanmPfzUdArm7rTbXkJY1NJiiIfZR267x', 'width': 3060}]",ChIJBaj1fkjjJTARlVhMVIzwHW8,3.0,"['lodging', 'point_of_interest', 'establishment']",1,1.290322,97.6160005
"7JJ7+6R5, Pasar Gunung Sitoli, Gunungsitoli, Gunungsitoli City, North Sumatra, Indonesia",Hotel Kaliki Gunung sitoli,,ChIJ-YFDZwD7JTARXwlPNc-R6D0,4.0,"['lodging', 'point_of_interest', 'establishment']",1,1.2804858,97.61459359999999
"7JPF+8WH, Jl. Kelapa, Ps. Gn. Sitoli, Kec. Gunungsitoli, Kota Gunungsitoli, Sumatera Utara, Indonesia",YOSUA Hotel,"[{'height': 328, 'html_attributions': ['<a href=""https://maps.google.com/maps/contrib/108684660199876702266"">Daeli Schein</a>'], 'photo_reference': 'AUGGfZkcp67hrgPajVO0cfGENeJ9ZBiazY_UMi6QP8AAbGs6yzo6jUOb6ickwieAL9gxxKg0FEC0KNK36YTVj1bul_-Z2E8u8sILgXTjJQeaFCO1mCOEY0l80W8ftBg5z_GU3hlgzysKBZbOIFY8X15Nyb0xTDB2W9aGM3ZuHv37MKPXjU8V', 'width': 476}]",ChIJRyIl4lr7JTARkSGQ4ZgOsOA,3.8,"['lodging', 'point_of_interest', 'establishment']",78,1.2858226,97.6248785
"RP33+FQ5, Ramba-Ramba, Ulususua, South Nias Regency, North Sumatra, Indonesia",Gubuk elman,,ChIJq_v7nMonJjAROOww6UEZDNc,0.0,"['lodging', 'point_of_interest', 'establishment']",0,0.8036111,97.7044792
"JL P Diponegoro, No. 78, Ilir, Kec. Gunungsitoli, Kota Gunungsitoli, Sumatera Utara 22815, Indonesia",Laraga Losmen,,ChIJdSS9vZj8JTARidOrg18zADc,0.0,"['lodging', 'point_of_interest', 'establishment']",0,1.2717991,97.6340067
"9G8H+8WQ, Gawu Gawu Bouso, Gunungsitoli Utara, Gunungsitoli City, North Sumatra, Indonesia",TOWER,,ChIJ1ZMxBwHvJTARDkM3HbSyZT4,0.0,"['lodging', 'point_of_interest', 'establishment']",0,1.365841,97.5298454
"JV8R+X2X, Hiliamaetaluo, Teluk Dalam, South Nias Regency, North Sumatra 22865, Indonesia",rock star resort,,ChIJeZwNwIWHKDARDQMWdqqX8GY,5.0,"['lodging', 'point_of_interest', 'establishment']",1,0.6174801,97.890112
"Jl. Pattimura No.14, Mudik, Kec. Gunungsitoli, Kota Gunungsitoli, Sumatera Utara, Indonesia",Hotel Binaka II Hotel,"[{'height': 4160, 'html_attributions': ['<a href=""https://maps.google.com/maps/contrib/106448934439884497835"">Edison Laia</a>'], 'photo_reference': 'AUGGfZnOEFB0ymFWRbset2no7ZFsBlS7dSPUKw4oUql0lfHX1Ob_UfLfHaZSzG2aqlJ8Psgwme0hSdoqkmdkQguo67aiEQoBu8D0t4bvA0Ch9IHaHhW_yD186U82MrKViuNhi7ERi3JkVSzLLsiP7gK0WbtpZ-EmbwrPtOo3ibQ-8qmeRSwA', 'width': 3120}]",ChIJD1dUEFT7JTAROPpfD-ELIRY,4.0,"['lodging', 'point_of_interest', 'establishment']",149,1.2813841,97.61545230000002
"WGG4+77, Ombolata, Sirombu, West Nias Regency, North Sumatra, Indonesia",Rembo,,ChIJ68EwV_0VJjARr8qgreQN_w8,0.0,"['lodging', 'point_of_interest', 'establishment']",0,0.9256574999999999,97.50565999999999
"7JJ7+6R5, Pasar Gunung Sitoli, Gunungsitoli, Gunungsitoli City, North Sumatra, Indonesia",Penginapan RD. Boris,,ChIJHQjqYeH7JTAR7947Z_6HtrA,0.0,"['lodging', 'point_of_interest', 'establishment']",0,1.2804859,97.6145935
"JL Karet, No. 32, Ilir, Ps. Gn. Sitoli, Kec. Gunungsitoli, Kota Gunungsitoli, Sumatera Utara, Indonesia",Mess Pessengerhan,"[{'height': 1944, 'html_attributions': ['<a href=""https://maps.google.com/maps/contrib/104453296920046365810"">wan zakaria</a>'], 'photo_reference': 'AUGGfZkbwwqO-VX38-H4M4Z-6JhJiX8RmCoSMfKyJoMk88oMP045m59akUoN1BLMBGk1qqjYnkf7O9YOQrWXG1hdizOOKsOg9wFAbz_Kw0r_5c4HwUHQUmWBC83rEB6rut_3tfGTkArXrVOYnlz72M6nq_2T4i_LA8l-P3lUcQNDbKsD8D76', 'width': 2592}]",ChIJVyCJcVr7JTARRMDIIVJbV5M,4.8,"['lodging', 'point_of_interest', 'establishment']",12,1.2841628,97.622406
"9GFV+VCH, Jl. Afia, Afia, Kec. Gunungsitoli Utara, Kota Gunungsitoli, Sumatera Utara, Indonesia",Nando/Jun Daw,,ChIJz4KwgiTvJTARrcAFfkmhpkI,0.0,"['lodging', 'point_of_interest', 'establishment']",0,1.3746987,97.5436065
"PR5H+CFR, Jl. Imam Bonjol, Hilitobara, Kec. Tlk. Dalam, Kabupaten Nias Selatan, Sumatera Utara 22865, Indonesia",Summarend Hotel RedPartner,,ChIJye1TsICDKDARBJMtLRCXLz4,0.0,"['lodging', 'point_of_interest', 'establishment']",0,0.7085625,97.8286875
"XF86+QW9, Fadoro, Sirombu, West Nias Regency, North Sumatra 22863, Indonesia",Ama/i.gavriel hia,,ChIJ74fQTgAVJjARTTFEcOkmZ-0,5.0,"['lodging', 'point_of_interest', 'establishment']",2,0.9670101,97.4623428
"MPR8+W8J, Sifaoroasi, Amandraya, South Nias Regency, North Sumatra 22866, Indonesia",Rumah Hermantorius Buulolo,,ChIJi8DbQHIpJjAR7KeUHeMMtzA,5.0,"['lodging', 'point_of_interest', 'establishment']",1,0.6923161,97.71576809999999
"Jl. Diponegoro No.78, Ilir, Kec. Gunungsitoli, Kota Gunungsitoli, Sumatera Utara, Indonesia",Otawa Losmen,,ChIJgUwuo5j8JTAR0VEoyiUu4dY,5.0,"['lodging', 'point_of_interest', 'establishment']",1,1.2719731,97.6338573
"7JM9+C6Q, Jl. Pattimura, Ps. Gn. Sitoli, Kec. Gunungsitoli, Kota Gunungsitoli, Sumatera Utara, Indonesia",Mudik,,ChIJQdWNt9H7JTARUkuauc_nRrU,0.0,"['lodging', 'point_of_interest', 'establishment']",0,1.2835758,97.6181295
"MQ3H+7H6, Bawogosali, Maniamolo, South Nias Regency, North Sumatra 22865, Indonesia",Rumah Si Om,,ChIJO60-SNQrJjARElJMqpdBh4M,0.0,"['lodging', 'point_of_interest', 'establishment']",0,0.6531736,97.77890269999999
"JL Diponegoro, No. 117, Ilir, Gunungsitoli, Ps. Gn. Sitoli, Kec. Gunungsitoli, Kota Gunungsitoli, Sumatera Utara, Indonesia",Bersaudara Hotel,"[{'height': 2988, 'html_attributions': ['<a href=""https://maps.google.com/maps/contrib/117242104387142750357"">Augus Kurniaman Telaumbanua</a>'], 'photo_reference': 'AUGGfZkwVvlEUPiay3r4Ks-KTQ3Hxs5JsK2fW_e5u1x_NKYvVI2kjqO7QvGzAfpORnFH-8z2Dt2foiTVh-9oaqeLwZ482BDdKETsHc2bJNMbmWW8mLvFVkJp8NQOK_sZFVSCb-15xg9wQYOjs1Z-M2v4KyX56qaE8aQvV6QOcW5HFbWrIVIh', 'width': 5312}]",ChIJt_JY_lr7JTARpOk-AeKea2Y,3.7,"['lodging', 'point_of_interest', 'establishment']",70,1.2850343,97.6248681
"6JXW+3GC, Fodo, Gunungsitoli Selatan, Gunungsitoli City, North Sumatra, Indonesia",PONDOK INDAH INA ICA,"[{'height': 2448, 'html_attributions': ['<a href=""https://maps.google.com/maps/contrib/102182799156617691652"">A Google User</a>'], 'photo_reference': 'AUGGfZky_KuSopCtJ1THlM4VFvn-tviteOpwGh8QNqnru2uvtFQ0fzzz6HsWquQmdaBsVb4E4XCPNYi4Yb4YjyMCjTtrwYC_eDSHmsvy4n9MTS7fSFDsOIdZCxxsobTpWM1XL6fJzWNFY7KLAJ_Cf4QbboJlf_IrwskPOl7SQTdW0n-a4ezF', 'width': 3264}]",ChIJq5V18_r8JTARWhFOIzQEkHc,4.3,"['lodging', 'point_of_interest', 'establishment']",10,1.2475809,97.64634579999999
"7JPF+4PR, Jl. Diponegoro, Ps. Gn. Sitoli, Kec. Gunungsitoli, Kota Gunungsitoli, Sumatera Utara 22815, Indonesia",Parkside Wira Gunung Sitoli,,ChIJCUg7job7JTARL0xsyap1ww4,0.0,"['lodging', 'point_of_interest', 'establishment']",0,1.2853701,97.6242782
"Jl. Ringroad, Sirombu, Kec. Sirombu, Kabupaten Nias Barat, Sumatera Utara, Indonesia",Joy Inn Sirombu Beach,"[{'height': 2304, 'html_attributions': ['<a href=""https://maps.google.com/maps/contrib/101853483002391523724"">gyar banget</a>'], 'photo_reference': 'AUGGfZla25xkTBha-tj7aZ8EnO36mPMBduKNTikYwGTSwh2BWuu_TVCmpnk56ZFb4Ach2EuwJqRQ5Zer4xyLtIyHRzalSCBcn3A1NoDslf3uD9TNj3nwj9gnXWAcRJ2WsOZqX-cpIQZ_rNQN6kyGUUgCFYZd08ADkS4g-b58t_fNqcCRAhcN', 'width': 4096}]",ChIJySS7bgBrJjARY8tOteanOXU,3.0,"['lodging', 'point_of_interest', 'establishment']",1,0.9562369000000001,97.4107732
"WCXF+XV3, Sirombu, West Nias Regency, North Sumatra 22863, Indonesia",Sungai Cinta,,ChIJZWE9ORlrJjARkILPAXSfQd8,0.0,"['lodging', 'point_of_interest', 'establishment']",0,0.9481696,97.42479379999999
"XC27+3R8, Sirombu, West Nias Regency, North Sumatra 22863, Indonesia",MARCO BEACH,"[{'height': 3000, 'html_attributions': ['<a href=""https://maps.google.com/maps/contrib/104322379947843074831"">wahyu pramusinto</a>'], 'photo_reference': 'AUGGfZmHLMvq6P7ttUEFSGL06-gwGsVBWkS3NgmGAyA4HB0zjMx5AcxUjaNrlH5krm2dVYzeqYow9Z-GcbwePl8d2_ufRHs08-WhH-oySHPpW3YHStMYA2tTZzumydPe_Bu0PcR6CCD3eg2C9tMWzzc73MYmsgbpTETHDY0BYZ-8Vm3ZGWfD', 'width': 4000}]",ChIJC0AFH-xrJjARIEJ9Qbjli10,4.6,"['lodging', 'point_of_interest', 'establishment']",30,0.9501782,97.4145648
"XCV9+CC9, Jl. Fabaliwa - Sirombu, Togideu, Kec. Mandrehe Bar., Kabupaten Nias Barat, Sumatera Utara, Indonesia",Johan Aja,,ChIJD7dIKQBtJjARzLgchfrX8zE,0.0,"['lodging', 'point_of_interest', 'establishment']",0,0.9935263,97.4185638
"Gg. Bersama No.55, Ombolata Ulu, Kec. Gunungsitoli, Kota Gunungsitoli, Sumatera Utara 22815, Indonesia",Homestay bang piyan,"[{'height': 1152, 'html_attributions': ['<a href=""https://maps.google.com/maps/contrib/108859321706970197593"">A Google User</a>'], 'photo_reference': 'AUGGfZl23jawMmWmpElB89Z8Fp8FMHvNhWSeRCVXmESI2q8hcLV6-MJ4hmnEjsM3g3W1x1hHZzr7PVMnWwaoeQqpKnwBTkiiVfEhUFU22rEPuOPsItXUU3qw0HMih5znulB1tNzx0lwH0WwPTxMpxy39zc_ebmZjBoJIglVpL1pSGQjkRWkQ', 'width': 2560}]",ChIJL5p3idnlJTAR9D5JH9vg-14,0.0,"['lodging', 'point_of_interest', 'establishment']",0,1.3074399,97.6107344
"WCQ6+PGF, Sirombu, West Nias Regency, North Sumatra 22863, Indonesia",Fathir Beach Barat,"[{'height': 608, 'html_attributions': ['<a href=""https://maps.google.com/maps/contrib/113468846282855520192"">Ofan Torong</a>'], 'photo_reference': 'AUGGfZk4vcRJ0KWUu2n_3Ouo_6aF7u-WJV6n3dDWwn5xrPJn1nE6eYH8S1_qqdRMaYo67f1921Y_UXKiAunM9orTJwqJcR1FtSo-Klq9ouL0J9J2OnZN_RixD9aEL71jnIgTYZZ6nz8XZOv-lD6jw6Fh_I2G7xuH97H8TK46IZn0cBeXgbMN', 'width': 1080}]",ChIJjT76LcprJjAR19pD4tokVgE,5.0,"['lodging', 'point_of_interest', 'establishment']",1,0.9393242,97.41128789999999
"8J45+2FH, Ombolata Ulu, Gunungsitoli, Gunungsitoli City, North Sumatra 22811, Indonesia",Hotel Vera,"[{'height': 3120, 'html_attributions': ['<a href=""https://maps.google.com/maps/contrib/110354215039956735496"">Gulo Fatisokhi</a>'], 'photo_reference': 'AUGGfZkybG3he6wy3lJ0MDVQ7jQ59qQhBHkX38Esyqd_E0jfYHnmqJ0OynuV-8LxBi1N7g6dIV8NpJOdU8FLW53GBlOeA3F5_0zrpId3AHXgsCPzxG9n3eGKjnm6NiXlFsV6hg9A6qFanGFLlvtiU-obstwPu0o9Wo_cnlMLyOOZbVBVqidD', 'width': 4160}]",ChIJMYm7n83kJTAR1xXgA7tWDL0,3.9,"['lodging', 'point_of_interest', 'establishment']",33,1.3050572,97.6087352
"Jln. botohili Sorake, Botohilisorake, Kec Luahagundre, Botohilitano, Kec. Maniamolo, Kabupaten Nias Selatan, Sumatera Utara 22865, Indonesia",Raffiel Nias,"[{'height': 2152, 'html_attributions': ['<a href=""https://maps.google.com/maps/contrib/109045162323578946820"">raffiel nias surf camp / accomodation</a>'], 'photo_reference': 'AUGGfZlq7qUP4QEbHevIVdlKE_OUbynkWi2zhyN132DA8mKOHAVZIWG6AkQtJHrt3SVr8b_nao_XS3WSIn-iGrE9yvP_eT38JhOiSL3FUu6q0ObFFHHzloxxa98H1sPDYva98T-oeUK9pq2s2r1QEX3toVrUke8Z2mu7Z8GStoPieY0QqxCT', 'width': 2152}]",ChIJMYSlqPbVJzARKYcH45igGZU,5.0,"['lodging', 'point_of_interest', 'establishment']",9,0.5730896,97.7314834
