formatted_address,name,photos,place_id,rating,types,user_ratings_total,lat,lng
"East Biniha, Bolaang Uki, South Bolaang Mongondow Regency, North Sulawesi, Indonesia",Bogani-Cottages,"[{'height': 500, 'html_attributions': ['<a href=""https://maps.google.com/maps/contrib/110343655639282707883"">A Google User</a>'], 'photo_reference': 'AUGGfZnhF4r5I-lq6d8gCEBftzKUg8eOF0y0VkPSPAF69gaq-9ZWV3VlxEjAkl_7-ETjivPHxqbP2b6SdPNZzR2mcwZiVPKkAhJfS9-mgYf-dA7wVZWeG-iAwfHFrZrcdtcWsbI4zei7EePvEIwCLlXuZDfeLzsM4gtK5NJqwvLCeiOJgFpa', 'width': 920}]",ChIJY2qBk-ClfzIRbrUz7zQZ9mM,4.9,"['lodging', 'point_of_interest', 'establishment']",27.0,0.348852,123.8900173
"Jl. Trans Sulawesi, Lalow, Kec. Lolak, Kabupaten Bolaang Mongondow, Sulawesi Utara, Indonesia",RedDoorz @ Lolak Bolaang Mongondow,"[{'height': 2304, 'html_attributions': ['<a href=""https://maps.google.com/maps/contrib/106902537800049153516"">Halfish Story</a>'], 'photo_reference': 'AUGGfZm24mHMBOdLpHGHwpvbC0MhhP8W1xd22znXR_A9vyfi7h6OCSVYDW5AXuELnayrXpUuM4X2293W2crOn4AECFbGb92U0Jx-bLa3uDyf2a1fKF-uigdMOiMocnY3Xvl2lLZY2mm_B1YdrXpezHdXEqq8WcwJsNDfxodf435RdvIKGGyh', 'width': 4096}]",ChIJAQAAANxxfjIR9YPGR348Uww,3.7,"['lodging', 'point_of_interest', 'establishment']",119.0,0.8820621999999999,124.0318858
"Jl. Trans Sulawesi Lintas Sel., Tolondadu II, Kec. Bolaang Uki, Kabupaten Bolaang Mongondow Selatan, Sulawesi Utara, Indonesia",D. HOTEL PINOSABARAN,,ChIJLwFBHWWxfzIRUZeetISbFf0,0.0,"['lodging', 'point_of_interest', 'establishment']",0.0,0.3831646,124.0125428
"C7V6+HPR, South Adow, Pinolosian Tengah, South Bolaang Mongondow Regency, North Sulawesi, Indonesia",Penginapan a an,"[{'height': 3060, 'html_attributions': ['<a href=""https://maps.google.com/maps/contrib/102446724844182626764"">A Google User</a>'], 'photo_reference': 'AUGGfZkvFjv2Is9egFqAne7NEYqikR3p1QrjYYpD6yKyidN69-4PFI5VuGR-o5ViKkrdy1Ci6nGMjEq-NXLtvOFyjbe80lnAhtqLob2EwEdl-bo9xFAyNOpWlxLEdn9LmqwDCHvPJxP6r4S9pG7TP9pXrhWvPaWTWksIQ0KVK8GipZwhUYRx', 'width': 4080}]",ChIJV0WWGRHNfzIRYDcorDhoKkQ,0.0,"['lodging', 'point_of_interest', 'establishment']",0.0,0.4439955,124.2617614
"9XGQ+J6H, Popodu, Bolaang Uki, South Bolaang Mongondow Regency, North Sulawesi, Indonesia",Rumah iswan,"[{'height': 1280, 'html_attributions': ['<a href=""https://maps.google.com/maps/contrib/101183789837002194007"">A Google User</a>'], 'photo_reference': 'AUGGfZmmIEvTqcHJjbfeJj2GWmt-kr8aw2VrooZzYL5-Enq0IQfCsGP-n1yT9Ux4xGEnD3C3TPDDLZ_z7hp6UwasQD36SKldJ8wocbHMjHPDDj4MyEMD5W9YV_HBbdxDmChJOedMa8piaUFo8htMZH8BXXB4qcgqmY2V_7hwfZXB9JM4S8Vn', 'width': 720}]",ChIJPwxPLIKxfzIRIWtrCvc8iTE,2.0,"['lodging', 'point_of_interest', 'establishment']",1.0,0.3767713,123.9884306
"9XPH+7WX, Toluaya, Bolaang Uki, South Bolaang Mongondow Regency, North Sulawesi, Indonesia",Ravila pangalila,"[{'height': 1920, 'html_attributions': ['<a href=""https://maps.google.com/maps/contrib/108778037464853398219"">A Google User</a>'], 'photo_reference': 'AUGGfZlKNXRAMMOfn53rOhkAZ5Kp9JCkBewn9eNOlhVRWSMUmueBMbjdFVKoz9Yor3UIfqowNYJKMB11xVo-Pu7lUV8Yctz6K-mqsuAm69o7mkjhcyiLoZxCXiwvbNGT30LzC94ntwkVkspsMXpA_V7eYBwDwy7YMcsX5-nyM_JiBNZ7pWJr', 'width': 1080}]",ChIJXfOkvDKxfzIRq2WlGE48Q9k,5.0,"['lodging', 'point_of_interest', 'establishment']",1.0,0.3850508,123.9791906
"FC2P+844, Modisi, Pinolosian Timur, South Bolaang Mongondow Regency, North Sulawesi, Indonesia",Uyo pamondolang,"[{'height': 3468, 'html_attributions': ['<a href=""https://maps.google.com/maps/contrib/104997769773996601358"">Uyo Pamondolang</a>'], 'photo_reference': 'AUGGfZmsNLpOwhqXAz6JWYCbHUT8EuuwdLsXngXeKXW4Kg7johMwc_y-9-vEkX2ojPiGmw9vn0yg77PmWgZSdccDAFWAawNTs2xAhkhI7KdPIfnrS3up-Yx9gCf5iRoK9-_5bJWuQvRRxWYKR8qvUzfIw6uUCzsFfDqp0gTYfCeHabc5Lr4c', 'width': 4624}]",ChIJnTrccSzVfzIRZ1sO2EYRjHU,0.0,"['lodging', 'point_of_interest', 'establishment']",0.0,0.4490891,124.4343408
"9XPH+8W6, Toluaya, Bolaang Uki, South Bolaang Mongondow Regency, North Sulawesi, Indonesia",Penginapan Alnacah,,ChIJz1R1GBexfzIR0EgjlqPdHOE,0.0,"['lodging', 'point_of_interest', 'establishment']",0.0,0.3857759000000001,123.9799028
"Jl. Salea No.13, Modisi, Kec. Pinolosian Tim., Kabupaten Bolaang Mongondow Selatan, Sulawesi Utara 95775, Indonesia",Rumah Allan,,ChIJiUk7yJ7VfzIRBtKhVtfc2aM,0.0,"['lodging', 'point_of_interest', 'establishment']",0.0,0.4518749,124.4372973
"FCF8+3Q, Onggunoi, Pinolosian Timur, South Bolaang Mongondow Regency, North Sulawesi, Indonesia",Rumah papa Noni,,ChIJreaL3iHTfzIRiNSOLGTkl1c,5.0,"['lodging', 'point_of_interest', 'establishment']",1.0,0.4726454999999999,124.4169144
"FCP5+437, Dayow, Pinolosian Timur, South Bolaang Mongondow Regency, North Sulawesi 95775, Indonesia",Rumah Yogi yapooo,,ChIJncpova7TfzIRhdDokqUhRDA,0.0,"['lodging', 'point_of_interest', 'establishment']",0.0,0.4860944,124.4077085
"Jl. Beriman No.3, Modisi, Kec. Pinolosian Tim., Kabupaten Bolaang Mongondow Selatan, Sulawesi Utara 95775, Indonesia",Trisno Hinondaleng,,ChIJ-_F_Qv3VfzIRlTFMpJ80VPk,0.0,"['lodging', 'point_of_interest', 'establishment']",0.0,0.451582,124.436071
"FC3P+2C6, Modisi, Pinolosian Timur, South Bolaang Mongondow Regency, North Sulawesi, Indonesia",Rikna Lahutung,,ChIJgUvTdenVfzIRs-mLKZkWboE,5.0,"['lodging', 'point_of_interest', 'establishment']",2.0,0.4533256,124.4365396
"9X7F+28Q, Unnamed Road, Salongo, Kec. Bolaang Uki, Kabupaten Bolaang Mongondow Selatan, Sulawesi Utara, Indonesia",Kost & Penginapan Pradipta,"[{'height': 1080, 'html_attributions': ['<a href=""https://maps.google.com/maps/contrib/116151169817478640475"">Recky Syamsu</a>'], 'photo_reference': 'AUGGfZksoYZzA6hAc2B6zoRrgxQMP--zUy0bXgEsRhAv8laQByWLTO8B9L_4A8AgHZKrkKnRig_BVsLSUs0EwWNVDbscOO9SCgPHPl5nVcVwqPKAE-CFGLrfk8V_DO1H1FHz3TcbjxYdkK43gRBXWYxShobDDfamj0AYEYxOHqM4VZ4QS7tX', 'width': 1920}]",ChIJ75veAsilfzIR79kktO03Hx4,5.0,"['lodging', 'point_of_interest', 'establishment']",2.0,0.3626615,123.973381
"CXF9+PQ7, Molibagu, Bolaang Uki, South Bolaang Mongondow Regency, North Sulawesi, Indonesia",R3 Home Stay,,ChIJKyXeFwCvfzIREowBgoYAfJo,0.0,"['lodging', 'point_of_interest', 'establishment']",0.0,0.4242972,123.9694276
"9XMH+X5M, Soguo, Bolaang Uki, South Bolaang Mongondow Regency, North Sulawesi, Indonesia",Gedung Green Fajar,"[{'height': 3120, 'html_attributions': ['<a href=""https://maps.google.com/maps/contrib/115102501505458272815"">Adhi Fadly</a>'], 'photo_reference': 'AUGGfZlfsIO6HbNa0mbTB0Bj3Op0pB1tpusnYY1LCFqA2ZLglXRXRnxxazcWR-7Wu8DKeb3ucwGZMr7TiIw69Rj-H0dhBkMUoHm72Db9ir8ABA-DkqI9uiNJMtNltXVhMtDw0gD3WJsFoT6c44eWyXGqcK5WxXHU8RnteYwirevR90daF-0f', 'width': 4160}]",ChIJr_QDKxywfzIRp4MOYxrQbtA,3.9,"['lodging', 'point_of_interest', 'establishment']",26.0,0.3849632,123.9779358
"9XVJ+XJH, Molibagu, Bolaang Uki, South Bolaang Mongondow Regency, North Sulawesi, Indonesia",Kos Puri Molibagu,,ChIJJYreQv-xfzIRrHjj8xdlyTc,0.0,"['lodging', 'point_of_interest', 'establishment']",0.0,0.3949381,123.9815634
"FXVF+28Q, Uuan, Dumoga Barat, Bolaang Mongondow Regency, North Sulawesi, Indonesia",Songkaton-karaseran,"[{'height': 3264, 'html_attributions': ['<a href=""https://maps.google.com/maps/contrib/104717144214974039959"">Tokz Echen</a>'], 'photo_reference': 'AUGGfZn2zxcNZmBYzmAxsxXPV08K161XArip6Gnw5w_Zhr_yVc9HHNFmD-Lc1A2ISoKVPFlzzWj-1kNZu2t9aiT-_I5SRyKbr234MLVcrfNvAueZJP-64NbhqXCZF1jFsw005fDpiVpk0cZ0VsCfpWcAEOsxaLvjxDOt2GncZV66tpGZnnI', 'width': 2448}]",ChIJy8smHy-tfzIRDZNmMhA8Uwg,0.0,"['lodging', 'point_of_interest', 'establishment']",0.0,0.4925425,123.9733799
"FC3P+2C6, Modisi, Pinolosian Timur, South Bolaang Mongondow Regency, North Sulawesi, Indonesia",Sekertaris Desa Modisi,,ChIJK1yQJQDVfzIRRnh5UJIK7so,0.0,"['lodging', 'point_of_interest', 'establishment']",0.0,0.4532872,124.43712
"Jl. Dermaga Jl. Pantai No.1, Modisi, Kec. Pinolosian Tim., Kabupaten Bolaang Mongondow Selatan, Sulawesi Utara 95777, Indonesia",Pante Modisi,"[{'height': 1440, 'html_attributions': ['<a href=""https://maps.google.com/maps/contrib/104997769773996601358"">Uyo Pamondolang</a>'], 'photo_reference': 'AUGGfZm4jYgVnG-45AdwZuQ6XpWYe0Dgp6x3184BxI3AsjYG5UekCW3glQJGB8XAl0U2Hz6K3b4XediMhNXpM64vZEbiwhXZxAwHs4WVnbI-Dg-aO2r7HO8c1TtGD4jT39gCbBXohx_wTllF2Wl49lY5Y7Xd0Y_fbYgCD-obeQ493u9zPd16', 'width': 1080}]",ChIJBaEXaN7VfzIRujSde-bTu2E,0.0,"['lodging', 'point_of_interest', 'establishment']",0.0,0.4484948,124.4319483
"J73Q+QFM, Bakan, Lolayan, Bolaang Mongondow Regency, North Sulawesi, Indonesia",Ijal Lantong,,ChIJVdwrLzQxfjIRB5RHfDhdQp4,4.0,"['lodging', 'point_of_interest', 'establishment']",1.0,0.6044371,124.2886893
"Jl. Raya Tomohon - Tanawangko No.1, Tapadaka Utara, Kec. Dumoga Utara, Sulawesi Utara, 95421, Indonesia",SPOT ON 92777 Leheran Homestay,,ChIJiQAAAABQfjIRvNPjIi4Br_E,0.0,"['lodging', 'point_of_interest', 'establishment']",0.0,0.6246929999999999,123.975001
"7JVF+C9, Luwoo, Posigadan, South Bolaang Mongondow Regency, North Sulawesi, Indonesia",Luwoo Mangrove Resort,"[{'height': 3360, 'html_attributions': ['<a href=""https://maps.google.com/maps/contrib/107083651698949520149"">Fajar Adriyanto</a>'], 'photo_reference': 'AUGGfZkdkKxz7emaesJa2LvaWer1v2eSpr7h50z2LIwhasnJobHopvlvWk1oceNxfeWkyW91rvEDIBYgwbIRFg8Jwce8fHaFYhSfW2GbxNCvKNLItw5XXskhgo4NTtOMpi1R_k4kxyoOrvogvkOmDjcR_zBrirEhRIsv3-Wct2ie7LgGX6ZR', 'width': 4480}]",ChIJwTgbs6QNfzIRxgG54V7YO8w,3.0,"['park', 'point_of_interest', 'establishment']",1.0,0.293601,123.62345
"8P68+VR9, Kec. Posigadan, Kabupaten Bolaang Mongondow Selatan, Sulawesi Utara, Indonesia",Jl Trans Sulawesi,,ChIJG-uGSQAJfzIReR7sMyfgsF8,0.0,"['restaurant', 'food', 'point_of_interest', 'establishment']",0.0,0.3121640000000001,123.717102
"HX64+6RG, South Mopugad, Dumoga Utara, Bolaang Mongondow Regency, North Sulawesi, Indonesia",RUMAH PAK MADE PAGEH,"[{'height': 4000, 'html_attributions': ['<a href=""https://maps.google.com/maps/contrib/106092621098986183715"">A Google User</a>'], 'photo_reference': 'AUGGfZmt_gL7CXP6q1h7BDXnGUDEuda1yjijBCUDcsx501bmCmHkJaqgiPKXU3seeM214zniFWJqnErXydsWzxO8ZhjluEQ4-I-kt7tIY0SyNg7hPzjNiJOgp-upVlaxMwjBg95TdQgUjZFze2a8pa5tTeL-RXFxD5FKLSbxEGDT1ZyA9-q-', 'width': 3000}]",ChIJea0NI7dTfjIR6aaXoL8Kxbc,5.0,"['lodging', 'point_of_interest', 'establishment']",1.0,0.5605647,123.9570937
"HX64+VV, North Mopugad, Dumoga Utara, Bolaang Mongondow Regency, North Sulawesi, Indonesia",Wartini,,ChIJ_aRxTwBRfjIRUR8qR_mncpQ,0.0,"['lodging', 'point_of_interest', 'establishment']",0.0,0.5621699,123.9571974
"Jl. Trans Sulawesi, Milangodaa Bar., Kec. Posigadan, Kabupaten Bolaang Mongondow Selatan, Gorontalo 96365, Indonesia",MARTABAK 97,,ChIJkY64JxwJfzIRRu0zwp_K6p4,0.0,"['restaurant', 'food', 'point_of_interest', 'establishment']",0.0,0.3306387,123.7155433
"8HC7+WFX, Meyambanga, Posigadan, South Bolaang Mongondow Regency, North Sulawesi, Indonesia",Ciput indah,,ChIJfwLwPgMRfzIR9hfdkTPnGec,0.0,"['restaurant', 'food', 'point_of_interest', 'establishment']",0.0,0.3219199,123.5644356
"8H6V+RHX, Pilolahunga, Posigadan, South Bolaang Mongondow Regency, North Sulawesi, Indonesia",Rumah Makan Sari Laut Berkah Faqinda,"[{'height': 2304, 'html_attributions': ['<a href=""https://maps.google.com/maps/contrib/103284585594968842764"">A Google User</a>'], 'photo_reference': 'AUGGfZnSTzAi6QkTRA3pih9Vp-4xj-xkQAkVdabBBBBMCmr63hHMrp9S5iI11OMxm_x-NWdkaaELK3CvJab-kC_QO5MXZJHO80dCvd8O2DhoTca79knvZ0OOTxWjP2EtCz_IheqhyShmtMgBZRY4xwAFDKZcZd004Hzk2A2gPKxUK6-yQFUj', 'width': 4096}]",ChIJK5AG0XATfzIRSI_reOPphG8,5.0,"['restaurant', 'food', 'point_of_interest', 'establishment']",1.0,0.3119266,123.5942968
"VHH2+FQ2, Jl. Trans Sulawesi, Bunia, Kec. Bintauna, Kabupaten Bolaang Mongondow Utara, Sulawesi Utara, Indonesia",Shanios Hotel,"[{'height': 3024, 'html_attributions': ['<a href=""https://maps.google.com/maps/contrib/110860222298325789707"">andri mula</a>'], 'photo_reference': 'AUGGfZna97MyU_Uw1YsgOg9X7c6hpoN9IkBFzltJToe48BO-8mi2VKbKse3RZuddG9G0zuFvBsh0UKgVSIyguGp5ZrrqWigDdu5H5Hw-zK8HxnPmpOhp3F-k5JqrOzDegUK3erkYsUgTaoFlR47G7VrcBmAMiFfTyGKbX1E61O7GVsmraXCS', 'width': 4032}]",ChIJXTSxMJ-QfjIRASWWwmuZ3Ps,4.2,"['lodging', 'point_of_interest', 'establishment']",91.0,0.8786451,123.5519043
"GXG7+MQQ, Doloduo, Dumoga Barat, Bolaang Mongondow Regency, North Sulawesi, Indonesia",MESJID AL MAGFIROH,,ChIJidT5SJJTfjIRrn0ydrCcUmk,3.5,"['lodging', 'point_of_interest', 'establishment']",2.0,0.5267238,123.9644698
"East Biniha, Bolaang Uki, South Bolaang Mongondow Regency, North Sulawesi, Indonesia",Pondok Coklat,"[{'height': 3456, 'html_attributions': ['<a href=""https://maps.google.com/maps/contrib/108433847075591501599"">Immobilienbewertung Hempel</a>'], 'photo_reference': 'AUGGfZmoYvsyBSxeDuhf3_fBBvcOAtElziRfB2TPjCeLBUmRWsJfdnjsWSY19tth2b_EtuqSyTJJGpJwe6YSLa2plv8dmQ5KDmILgKCvI9ijEzg9N17GuuyEOBKvO6tom3a5MSVtGCqm9YqfNGLz-QmSI1AVtqxVrZirGPjX31-rG-m_BST9', 'width': 4608}]",ChIJv2uzXb-lfzIRFotffNhvYHs,5.0,"['lodging', 'point_of_interest', 'establishment']",1.0,0.3487836,123.8900344
"8M46+9X4, Sinombayuga, Posigadan, South Bolaang Mongondow Regency, North Sulawesi, Indonesia",Angkringan ADIFA,"[{'height': 1080, 'html_attributions': ['<a href=""https://maps.google.com/maps/contrib/103590008652568231463"">Satu Anam</a>'], 'photo_reference': 'AUGGfZmWfrgx1of-L9rQFyIE6_5l_-o-Ax3g5ZXBkPkx4r86SH-T7JvjaN075HWiPZu4Lr2paayj6xHt7jAF8lBtsQMo_TB2ajPcr3aYswoHWviBdsAq12f7zTomWWU5WeIvw0IiwyDMmRagYvosEhKKQ4dZAtwIHuXaXeJ6QIgHaePiclm7', 'width': 1920}]",ChIJYd_8dQANfzIREx7-tGim4AA,0.0,"['restaurant', 'food', 'point_of_interest', 'establishment']",0.0,0.3058758,123.6624466
"Jl. Trans Sulawesi, Milangodaa, Kec. Posigadan, Kabupaten Bolaang Mongondow Selatan, Sulawesi Utara, Indonesia",RM. Tante Mun,"[{'height': 960, 'html_attributions': ['<a href=""https://maps.google.com/maps/contrib/108273537498335022659"">A Google User</a>'], 'photo_reference': 'AUGGfZk8nh3Zr8B5SDD52KzehQ6XRE_dql5ICp3QgwYfNxnS6KrgfGFN5pxfYxoyINhXKCAkluBY0O6UI-QI3lC9Vq4SnzjrNWDX3othuAMZpethYRrk5eqRYxLhaUOKXGHN_HDSXVnnvZKUD99ZvdM5ffw_nf4zL1FKAQmoZwA0FC3I8u4Z', 'width': 720}]",ChIJeVJCMkgJfzIRisxzTZC0Fqo,0.0,"['restaurant', 'food', 'point_of_interest', 'establishment']",0.0,0.3277262,123.7215493
"CJ9W+667, Sakti, Posigadan, South Bolaang Mongondow Regency, North Sulawesi, Indonesia",Kantin Rosma,,ChIJVTvDDAUFfzIRpgC2FUJ9aLs,0.0,"['restaurant', 'food', 'point_of_interest', 'establishment']",0.0,0.418041,123.6455502
"8PCQ+VJ, Nunuka Raya, Posigadan, South Bolaang Mongondow Regency, North Sulawesi, Indonesia",Kedai Tomini,"[{'height': 4000, 'html_attributions': ['<a href=""https://maps.google.com/maps/contrib/103391521453087359777"">Hendra Tan</a>'], 'photo_reference': 'AUGGfZk2zaE1IXMXbfpaFUnYRrLKVHFxBCFUMUrCcY7VRNnvhwGAd6afzf3x1GLRXUCzV9IoqqL2W8FoPIdf60rBWP1N3HiUYpVWwehtR7eVCJW0evuZdvLtfmcfLk21KXqoZeQONqmVTLYVSQ_VwldyHj8qiQtWPfqsnSHoJ87FxyFeMULb', 'width': 3000}]",ChIJmXS__kAJfzIRSCWN2BD7Uqo,4.5,"['restaurant', 'food', 'point_of_interest', 'establishment']",2.0,0.3225187,123.738957
"8HF3+FVG, Meyambanga, Posigadan, South Bolaang Mongondow Regency, North Sulawesi, Indonesia",Rm. Barokah 2,"[{'height': 1920, 'html_attributions': ['<a href=""https://maps.google.com/maps/contrib/114117153382016013995"">A Google User</a>'], 'photo_reference': 'AUGGfZlRLT5HPULuavRneMzHrhc1xGpqVTfcZUWL1OLxB8ecGkHikv7pdnfAM0axkJ5bqkrhj00gvR4ms5Nv9igQYp1KfHnkOhe688PQYZ6SPc9ESQHv7_2fssUiW8qkFG6u5BBOZ2Jg4yXnrD7ah-M-LJVPmHkGH_CKhG2-aP9nbeHiSuhn', 'width': 1080}]",ChIJ679QcWMRfzIRzoK-mB6QMyQ,0.0,"['restaurant', 'food', 'point_of_interest', 'establishment']",0.0,0.32369,123.5547044
"8FM2+5QQ, Inogaluma, Bone, Bone Bolango Regency, Gorontalo, Indonesia",Rumah Dolvy,,ChIJy7G-ojMXfzIRzR1yPiyJVa4,0.0,"['lodging', 'point_of_interest', 'establishment']",0.0,0.3329687,123.4519707
"8PFQ+747, Jl. Trans Sulawesi, Nunuka Raya, Kec. Posigadan, Kabupaten Bolaang Mongondow Selatan, Sulawesi Utara, Indonesia",RM. AYAM GEPREK MANTUL,,ChIJfUupNgAJfzIRU75k-gXIxg4,0.0,"['restaurant', 'food', 'point_of_interest', 'establishment']",0.0,0.3231656,123.7377973
"8PCG+H43, Milangodaa, Posigadan, South Bolaang Mongondow Regency, North Sulawesi, Indonesia",Warkop Intermezzo Milangodaa,,ChIJtd99Dd4JfzIRIEdDBN7Ip-c,0.0,"['restaurant', 'food', 'point_of_interest', 'establishment']",0.0,0.3213947,123.7253095
"8HFG+473, Momalia I, Posigadan, South Bolaang Mongondow Regency, North Sulawesi, Indonesia",Kedai cofee NurulHuda,"[{'height': 1920, 'html_attributions': ['<a href=""https://maps.google.com/maps/contrib/103978238332189800412"">Yopan Yusup</a>'], 'photo_reference': 'AUGGfZm3KS6ahfMxH4S-ul_nWEE5z0KwSpjihe6a30mLPOMpKzyz_TlWBlS9_8fOaEsh_I8LavYC1agBlkOd1A15S-rQwB50Fj74K6-mjttGHfZi8OxfyIMqTl1Iptbz7-uUNsZXat42Svm1Tow1OuyvNY_qDft4ajkVgpv1wePv2KidH067', 'width': 1080}]",ChIJ4YvzVu4RfzIRxe4XONdBBuI,5.0,"['cafe', 'food', 'point_of_interest', 'store', 'establishment']",1.0,0.32265,123.5757533
"8G9J+GHV, Jl. Trans Sulawesi, Manggadaa, Kec. Posigadan, Kabupaten Bolaang Mongondow Selatan, Sulawesi Utara, Indonesia",Fatma.cake.Rumahan,,ChIJw8yZRuoRfzIRA2arYfQ9gws,0.0,"['meal_takeaway', 'restaurant', 'food', 'point_of_interest', 'establishment']",0.0,0.3189304,123.5314666
"8FM2+4GG, Inogaluma, Bone, Bone Bolango Regency, Gorontalo, Indonesia",Rumah Oma Luthfi,,ChIJfeLoaSkXfzIRYaS3jv5zuEk,5.0,"['lodging', 'point_of_interest', 'establishment']",1.0,0.332895,123.4519191
"Momalia II, Posigadan, South Bolaang Mongondow Regency, North Sulawesi, Indonesia",RM. AGIL STAR,"[{'height': 2160, 'html_attributions': ['<a href=""https://maps.google.com/maps/contrib/108897721799972827600"">A Google User</a>'], 'photo_reference': 'AUGGfZnvpbY_dJczmvk0Q-C1MV9ErM1Wz5z0PO_bjytPAWCG-Vxsfe4eAmWwo6rHLD21Lo-OyetiEGmUwMw6b9ZzifQbuvtjHpnSXBG7LWNE4MUhPsglEbptYHp0nmXMS2mkbbJ_EXJa4xzbdeZIlrO4o-m-uVJHM6lyKuYp_Zk16scs49_u', 'width': 3840}]",ChIJnxgyNRQRfzIRELIz0RM2mEI,3.9,"['restaurant', 'food', 'point_of_interest', 'establishment']",48.0,0.3217345,123.5679767
"Botuliodu, Posigadan, South Bolaang Mongondow Regency, North Sulawesi, Indonesia",Sekret insan cita desa botuliodu,"[{'height': 4608, 'html_attributions': ['<a href=""https://maps.google.com/maps/contrib/116132015346234285961"">A Google User</a>'], 'photo_reference': 'AUGGfZkglwLoTcC33ehijEy3HMp5028M4iJmWACHPSG7bU5TMSxi__AZn3r0YhTw4DNUncuBmhRwPRCa7-BOfmAPQ0UPY6rSE-LM2owqklBzTpqWy6-v9-cOvBJXqCJp6k-lhZuxvAAl4c6YK3QktDrpuoyNDKMunP2c8-HUbnRN1bIYOS20', 'width': 3456}]",ChIJZTFvuR0JfzIR6B2WdwVoNwg,5.0,"['bar', 'point_of_interest', 'establishment']",2.0,0.3176722,123.7603566
"8M3C+PFV, Jl. Trans Sulawesi, Sinombayuga, Kec. Posigadan, Kabupaten Bolaang Mongondow Selatan, Sulawesi Utara, Indonesia",Hutungo,"[{'height': 4080, 'html_attributions': ['<a href=""https://maps.google.com/maps/contrib/112224370773400680964"">A Google User</a>'], 'photo_reference': 'AUGGfZlU89LntFNUEldZKKcGycDEBG_MvU0r6Gv_H9btK390IdSQ-PLEKj_IK5XHVy8VcbARbwQHd_ReOP45OtZcxQ9-UX1PnVVo76U36zlHMu2ABtYG5mElUiUZqCQpgyVHHpLBV6YjoJaf45k_52H7EJHyRzNhwhIAZJ5iYYxv228sc4q7', 'width': 2294}]",ChIJJzm1JbYNfzIRdI9RKSZCwDE,5.0,"['bar', 'point_of_interest', 'establishment']",1.0,0.3043606,123.6711759
"8HCG+6JP, Momalia I, Posigadan, South Bolaang Mongondow Regency, North Sulawesi, Indonesia",Kedai Sudut Desa,"[{'height': 303, 'html_attributions': ['<a href=""https://maps.google.com/maps/contrib/112873569547798276567"">Fhadly Aldhy</a>'], 'photo_reference': 'AUGGfZlXb516ET8vuu74JoBU7X9PoUJDcq0_b9Ss6xnQvss83oIVrH2XFBc_71cArqtPlnRt4TGJeHIvWMd3eeM1rysmWvhVKsl96A34UVdt7CLm-dzvu_PSeqzmqnAY36p2uj-V9Dogx2EL007MM4nyp26QKd2SAWja0B22VzICldJrlA7Z', 'width': 540}]",ChIJrWm0VJ0RfzIRDrTPoNl8LB4,4.5,"['cafe', 'food', 'point_of_interest', 'store', 'establishment']",2.0,0.3205873,123.5765807
"3, Momalia I, Kec. Posigadan, Kabupaten Bolaang Mongondow Selatan, Sulawesi Utara, Indonesia",Warkop Rasa(Rafel Saira),,ChIJA1jrl0cRfzIR_3J5PFEnVaI,0.0,"['cafe', 'food', 'point_of_interest', 'store', 'establishment']",0.0,0.318529,123.5786673
"CF98+HH6, Taludaa, Bone, Bone Bolango Regency, Gorontalo 96585, Indonesia",Ayub mooduto,,ChIJa0RYlWAZfzIRuk85Ea3exiY,0.0,"['lodging', 'point_of_interest', 'establishment']",0.0,0.418909,123.466379
"8GC9+F5M, Saibuah, Posigadan, South Bolaang Mongondow Regency, North Sulawesi, Indonesia",LEPUT COFFEE MINIMART,"[{'height': 2752, 'html_attributions': ['<a href=""https://maps.google.com/maps/contrib/106987905015166345230"">A Google User</a>'], 'photo_reference': 'AUGGfZnMon0Nx7C474YdllLPpW5Y0vn7REW6XbiWGyAKkp1Jlb5U5SU1ZH4FaqU3dFOcdjWWZGVioxHH3Dk2msiSWpqzX1dRqPLB05sChFP-LlwrjHbA_oRo9vCzUFty78TUVQyrNBMBfRubie9kcHLhzLBQPsWKDgZ6qzkD2mdZ_NzgmH3b', 'width': 5664}]",ChIJPfefbm4XfzIRW9CCR9fAS2M,3.5,"['cafe', 'food', 'point_of_interest', 'store', 'establishment']",2.0,0.3203986,123.5192385
"Des, Milangodaa, Kecamatan Tomini, Kabupaten Bolaang Mongondow Selatan, Sulawesi Utara, Indonesia",Althira coffe,,ChIJXxtHGJkHfzIRN3MnfPd4CbY,5.0,"['restaurant', 'food', 'point_of_interest', 'establishment']",1.0,0.4020024,123.7126518
"Jl. Trans Sulawesi, Milangodaa, Kec. Posigadan, Kabupaten Bolaang Mongondow Selatan, Sulawesi Utara 95000, Indonesia",warkop Althira Coffe,"[{'height': 4968, 'html_attributions': ['<a href=""https://maps.google.com/maps/contrib/103702709512192267164"">A Google User</a>'], 'photo_reference': 'AUGGfZkbc85cdCjMwhLoTerfdC2puy8101lik0DPuvr_c5buVfeorBuelxZqN6QfUv3-euYHrCvQUngKPw_E3SaCFunHdpt93eQmdS5ko5TR0UnJ6DqhrwojmIWMrqas761AexmpjdOmol3hqCzv75ZT3K7_t-RDrYQQnP2GZWECKP09Oe3_', 'width': 3726}]",ChIJ5W6hVKunfzIRArC08uIgmRA,5.0,"['cafe', 'food', 'point_of_interest', 'store', 'establishment']",2.0,0.3220526,123.7254272
"Tangagah, Bolaang Uki, South Bolaang Mongondow Regency, North Sulawesi 95774, Indonesia",Homestay,"[{'height': 1836, 'html_attributions': ['<a href=""https://maps.google.com/maps/contrib/114607309401099411818"">A Google User</a>'], 'photo_reference': 'AUGGfZlIEZwvCC1SmIrLkFZBYNnPFEJKCHBMU6uEZ1-frLmrjMPXJAdpWeM5w46wuVvH-w-KwDGRr5OI7xBUzFN8QrI6iD5omrR4K2rmAST6ihuAR7kUr_KstKNyD1e80tys2UwkaqCI7gE8-WgvKimS9AebGOyt6n3MD50jyiZNdGk1wYuF', 'width': 3264}]",ChIJ44n63AkRfzIRzzZyDESfi1E,0.0,"['restaurant', 'food', 'point_of_interest', 'establishment']",0.0,0.3491111,123.8965423
"8GFX+MXV, Jl. Trans Sulawesi, Meyambanga, Kec. Posigadan, Kabupaten Bolaang Mongondow Selatan, Sulawesi Utara, Indonesia",Warung saraba le zaki,"[{'height': 3104, 'html_attributions': ['<a href=""https://maps.google.com/maps/contrib/116247858853113317811"">A Google User</a>'], 'photo_reference': 'AUGGfZmMJBtqU9sySomo_QG4vQgJIMgg6o0TGr_BPC9uAJ4PzaNs7H8dxaYPRx4nnVdS1fgOXed-rNRdtOVEOE0uE1nfBuDZ3_VFWSxhFuff_Nf87w_o8micbpLcZHTSmRrn9OBRcyT9fDwCwwn0UKXKjKoS2066Qj9xAtG67EBO4aVCD8NG', 'width': 3104}]",ChIJSzF2PMYRfzIRbiIqfnoVUxI,5.0,"['cafe', 'food', 'point_of_interest', 'store', 'establishment']",2.0,0.3242003,123.549902
"Kompleks Pelabuhan Milangodaa, kompleks tambatan, Milangodaa, kec. Tomini, Kabupaten Bolaang Mongondow Selatan, Sulawesi Utara 95778, Indonesia",Tias Coffe,"[{'height': 4000, 'html_attributions': ['<a href=""https://maps.google.com/maps/contrib/106695056795007960884"">A Google User</a>'], 'photo_reference': 'AUGGfZm48tDDwTOz_SSVV6zg8Ru0sFk_UL8I9-y-e4krdWpiw6jVURmczAFsr5DnfepoX95FBwjJyDFI7gHqjtKCHZZpU8HQchpa579aQ4Ok5BFAzx_JAEPGfM_aaF47kAzfFLFXgibwwj6t0TvYa0uo91Ry6AWzGgLlgKi-bEDm7vt2TkgC', 'width': 3000}]",ChIJ0cidSLwJfzIRwy7reRZHsK0,0.0,"['cafe', 'meal_takeaway', 'restaurant', 'food', 'point_of_interest', 'store', 'establishment']",0.0,0.3199702,123.7248815
"8QCW+728, Pangia, Bolaang Uki, South Bolaang Mongondow Regency, North Sulawesi, Indonesia",SHERLOCK COFFEE,"[{'height': 1080, 'html_attributions': ['<a href=""https://maps.google.com/maps/contrib/105626382808756645552"">A Google User</a>'], 'photo_reference': 'AUGGfZm1KVTtWo2jskYB1r_612hoyu_VOnUdC1iozFlGqQ6vXCk6rhKiV7sQxuW4tVdvrncGgkZ6oJ0PCjSc-cRaG7nh2Fz5e8rVUW8DPO3O8Eoce_yESvy8vuXhXRvg_xj-CZe7P3y-Pjl6bOY6yDqt3mxSf7ycqFoD_UJ0TzsIbJnPgh13', 'width': 1920}]",ChIJNfeU31EJfzIRfrhQJULUWd0,5.0,"['cafe', 'food', 'point_of_interest', 'store', 'establishment']",3.0,0.3211894,123.7952868
"M79G+WR2, Tungoi I, Lolayan, Bolaang Mongondow Regency, North Sulawesi, Indonesia",Andrimokodompit192,"[{'height': 1920, 'html_attributions': ['<a href=""https://maps.google.com/maps/contrib/113761829207811657422"">A Google User</a>'], 'photo_reference': 'AUGGfZls_G1xcWJee2IUROL8Lmxq_3J7A7VYqLjd02inJuoT-rGvW4Z-C5QSqpNfxqyfyp7XhYbzm6bu8OJLFqb1GH-w-e2yBLjvENAzpQqXIUzejuaECmn8-oC78ajDPm1tflDfQElBQHQ0m2j79FVz8w9swbkOlO3w3M9F-21WoLSKt5-E', 'width': 1080}]",ChIJYRoJGWI7fjIRbLTEeN0YeiM,0.0,"['lodging', 'point_of_interest', 'establishment']",0.0,0.6697936,124.2770164
"J46H+8W, Kembang Mertha, Dumoga Timur, Bolaang Mongondow Regency, North Sulawesi, Indonesia",DK88,,ChIJqai1KgBJfjIRevDM4plZr54,0.0,"['lodging', 'point_of_interest', 'establishment']",0.0,0.610771,124.1298048
"H322+WGR, Werdhi Agung, Dumoga Barat, Bolaang Mongondow Regency, North Sulawesi, Indonesia",Rumah ketut dody,,ChIJixZaLk9NfjIRhwhTVlsCiQc,4.0,"['lodging', 'point_of_interest', 'establishment']",1.0,0.5522669,124.0512685
"P73H+7JJ, Kopandakan II, Lolayan, Bolaang Mongondow Regency, North Sulawesi, Indonesia",Keri Tungkagi,,ChIJZb3VwVE9fjIRf9y22vc3rqg,0.0,"['lodging', 'point_of_interest', 'establishment']",0.0,0.7032197,124.2790074
"H2QH+6XQ, Konarom, Dumoga Utara, Bolaang Mongondow Regency, North Sulawesi, Indonesia",Ariawan Egam,"[{'height': 723, 'html_attributions': ['<a href=""https://maps.google.com/maps/contrib/118091324527316045543"">A Google User</a>'], 'photo_reference': 'AUGGfZnIi-HxyTqo8c3llSozeiRl3IhbsM5Itaz_Vc_D-KC_i1AJj1skKaEKB_b6YvudRusd_TTyuJMv8w_colZgQTiPZAeaQWA_gwZYyW2cWRqcgEAgZA6u95s9oqzPCwLSgGzEFEj0dYiLHRsf4DhXmnWsyIE-s5flWmVI7JK6qi9mRP40', 'width': 720}]",ChIJFdOK5-JPfjIRCgOZ-SbiL0E,0.0,"['lodging', 'point_of_interest', 'establishment']",0.0,0.5880978,124.0300067
"J72P+XPQ, Bakan, Lolayan, Bolaang Mongondow Regency, North Sulawesi, Indonesia",Rumah bayu,,ChIJ2QHfERsxfjIR923FzIhyJ1I,0.0,"['lodging', 'point_of_interest', 'establishment']",0.0,0.6028462,124.2871995
"H24G+29G, Bar, Ibolian, Kec. Dumoga Bar., Kabupaten Bolaang Mongondow, Sulawesi Utara, Indonesia",Rumah Amrun Yunus,"[{'height': 3000, 'html_attributions': ['<a href=""https://maps.google.com/maps/contrib/105204976646147872313"">Arca Rezka Pratama Harun</a>'], 'photo_reference': 'AUGGfZlf7MF4QPSO5Q0aFR0b6sA09cmTu3ekWeCQ0dMho04T0xsvWbx1LVmyidJPrFllHkvnSzQtJ79xtXfAP5pifWEG8BG0vw8TDwE7o2kxpxVYHWEVpZqLYohWTUJwk2fQLo7UsMhboQfnveuoaGa5ldk4GYWLKcqZhGrniRJBLVGpFhRN', 'width': 4000}]",ChIJFdJiRHxNfjIRf1zn7loIG3g,0.0,"['lodging', 'point_of_interest', 'establishment']",0.0,0.5550563,124.0259338
"M78J+GP7, Tungoi II, Lolayan, Bolaang Mongondow Regency, North Sulawesi, Indonesia",Queen's home,,ChIJt4oUpyI7fjIRurwjOo4YthY,5.0,"['lodging', 'point_of_interest', 'establishment']",1.0,0.6666694999999999,124.2814475
"H7WQ+XF7, Bakan, Lolayan, Bolaang Mongondow Regency, North Sulawesi, Indonesia",Rumah Raffa/Azkha Podomi,,ChIJ4fm6UgAxfjIRiw604sU-dH0,0.0,"['lodging', 'point_of_interest', 'establishment']",0.0,0.5984750999999999,124.2886707
"P95P+X4P, Modayag, East Bolaang Mongondow Regency, North Sulawesi, Indonesia",Beskem kambong,,ChIJlfFjznUjfjIRt9moVTBznSo,0.0,"['lodging', 'point_of_interest', 'establishment']",0.0,0.7104024000000001,124.3850536
"P8M8+CF8, Sinindian, Kotamobagu Timur, Kotamobagu City, North Sulawesi, Indonesia",PRIMKOPPOL Resort Bolaang Monggondow,"[{'height': 3120, 'html_attributions': ['<a href=""https://maps.google.com/maps/contrib/117614377398299259444"">A Google User</a>'], 'photo_reference': 'AUGGfZma4tMbLAUj1xxYtJHLBynt5CaHIrCbH7qzGN0yqmV-uG8hsa8hF8zJJcuVaM6q_hDxojmrU0OTuPLIwEEXUYktUCk5XgbWZ-kYDnHDCMEvUlN1L4B1m7yvri4B6KrQPWJDkrggIyU7qdSkuCR_dL2PuoBQCH52aFJHXuSsTNhEWh3J', 'width': 4160}]",ChIJiVITEUc9fjIRlCj2mvbeSZA,0.0,"['lodging', 'point_of_interest', 'establishment']",0.0,0.7335246,124.3161912
"P95M+2F, Modayag, East Bolaang Mongondow Regency, North Sulawesi, Indonesia",Otam,,ChIJ8S2-FfAjfjIRTGIMAv_bkPo,0.0,"['lodging', 'point_of_interest', 'establishment']",0.0,0.7072289,124.3831277
"G2QP+MR9, Carikne Pak Rauh, Unnamed Road, Werdhi Agung Sel., Kec. Dumoga Bar., Kabupaten Bolaang Mongondow, Sulawesi Utara, Indonesia",Dewa,,ChIJx3Ch-hZNfjIRIbfbIZpKcr4,0.0,"['lodging', 'point_of_interest', 'establishment']",0.0,0.5392440000000001,124.0371025
"M3P7+RMJ, Bumbungon, Dumoga, Bolaang Mongondow Regency, North Sulawesi, Indonesia",Tondano,,ChIJz49NtGpDfjIRCVS11mPi0Iw,0.0,"['lodging', 'point_of_interest', 'establishment']",0.0,0.6870994,124.0641419
"M7CG+7MQ, Tungoi II, Lolayan, Bolaang Mongondow Regency, North Sulawesi, Indonesia",Tessa Molok,,ChIJmTYdRy07fjIR2JZYkmykWBI,0.0,"['lodging', 'point_of_interest', 'establishment']",0.0,0.6707029999999999,124.2767406
"Jl. Wiratama, Liberia Tim., Kec. Modayag, Kabupaten Bolaang Mongondow Timur, Sulawesi Utara, Indonesia",HOME FAMELLY HSWN,"[{'height': 4624, 'html_attributions': ['<a href=""https://maps.google.com/maps/contrib/116169130319104415847"">A Google User</a>'], 'photo_reference': 'AUGGfZniN5wEkcIEX0rFx0YtMCPjHGN_yTcquW1ATAaMOcnsAJ89Ty5sHuUh0ll-sys3i4gmjUriqEd3ynXyE2LodoZPymEC_zRMbMpKKpdaSSBNuMqIq9sbFaVG6-EvBWdDCSAyXmf7OookfJxEb2BEgqv20aQquEx7vPrB29-jWsDFISd7', 'width': 3468}]",ChIJw7YTwW0jfjIR6C_sjcyoZrA,5.0,"['lodging', 'point_of_interest', 'establishment']",1.0,0.7223891,124.3927428
"M7FC+7QF, Jl. Raya Desa, Tungoi I, Kec. Lolayan, Kabupaten Bolaang Mongondow, Sulawesi Utara, Indonesia",Ash Engang,,ChIJ6dC0pbs7fjIRTy8TEOnDPto,0.0,"['lodging', 'point_of_interest', 'establishment']",0.0,0.6731922,124.2719191
"QCGM+JF4, Guaan, Modayag, East Bolaang Mongondow Regency, North Sulawesi, Indonesia",iting kobong,,ChIJOzSlZHgffjIR6eK-Vyg6ECc,0.0,"['lodging', 'point_of_interest', 'establishment']",0.0,0.7765200999999999,124.4336893
"Jl. Lintas Sinindian Sinindian Kotamobagu Timur, Mogolaing, Kec. Kotamobagu Bar., Kota Kotamobagu, Sulawesi Utara 95716, Indonesia",Hotel Totabuan Citawaya Kotamobagu,"[{'height': 720, 'html_attributions': ['<a href=""https://maps.google.com/maps/contrib/107849808802126070160"">A Google User</a>'], 'photo_reference': 'AUGGfZkX9htT_zoSgTlzS4Dy_LnsZqlLBmOEEFNNshi6iwrxLCiOOenpKzhzrtoP1BgR3jVmsh_Rul7oAXQ59pJQpRjxThCv4dnp2YToJU3Ig2AGVK8Tln-uEUNqvGC5HCZT9LC4paKYiTvBEISQR0XefZr3JBXh_dvFbNEOE8raH2pK6EQP', 'width': 1280}]",ChIJf1LA7Ec9fjIRFtargr3tass,4.1,"['lodging', 'point_of_interest', 'establishment']",208.0,0.728737,124.306555
"884V+WVM, Tombulilato, Bone Raya, Bone Bolango Regency, Gorontalo, Indonesia",Tomb,,ChIJUcVZx4U5fzIR_ye3OaGRtPQ,5.0,"['lodging', 'point_of_interest', 'establishment']",1.0,0.3073481,123.3446781
"J6W6+JRJ, Tapa Aog, Lolayan, Bolaang Mongondow Regency, North Sulawesi, Indonesia",Dego-dego,,ChIJ5XlSaCc5fjIREG5xWuUhMzA,0.0,"['lodging', 'point_of_interest', 'establishment']",0.0,0.6465875,124.2120156
"Jl. Adampe Dolot No.19B, Mogolaing, Kec. Kotamobagu Bar., Kabupaten Bolaang Mongondow, Sulawesi Utara 95716, Indonesia",Hotel Tentram,"[{'height': 1920, 'html_attributions': ['<a href=""https://maps.google.com/maps/contrib/103930846725579957405"">Muzakkar Awal</a>'], 'photo_reference': 'AUGGfZnd11EHps8TVKXyJXupEflDiE2VnItqKZYqwT6RrjGo9d1fsLNd4o64MXcxxJHP6RYx-EBpw5Q7q2b4C3kA_IvK6htDOIfMxuSHhlz_nh9c_RVFSDx-E8JnMFxdyfdA2xUSSTVJWhRMZaG3eTlL8gUfjLfL_DkEgGjnfNVCUFrbZlwr', 'width': 1080}]",ChIJwYIX2mk9fjIRwIUzILrjLpM,4.0,"['lodging', 'point_of_interest', 'establishment']",145.0,0.7376332,124.3085315
