formatted_address,name,photos,place_id,rating,types,user_ratings_total,lat,lng
"467M+GPJ, Jl. Padat Karya, Tarau, Kec. Yapen Sel., Kabupaten Kepulauan Yapen, Papua 98215, Indonesia",Hotel Merdeka,"[{'height': 2268, 'html_attributions': ['<a href=""https://maps.google.com/maps/contrib/107171855238565039871"">Aby Daud Gusda</a>'], 'photo_reference': 'AUGGfZkJTKl1aWUbo8laPpWP4mu4-BAET4VEQUZsYiZ-Icqr_KrbTXtsDBWjIQK_uA-men1wU54nqDnhBq9Hee8Vzo4Pgk4XAp9CBQSXlUJGS6zK_uVvUgtDgih-6l0tlTy7dQMsgTPLNl7mJFah2ac8ls7D6xWadE9CzAzO2qa0hAtTR-5U', 'width': 4032}]",ChIJI_aKOo5XG2gRIvwhLjowTSc,3.5,"['lodging', 'point_of_interest', 'establishment']",63.0,-1.886169,136.2343048
"Jl. Sudirman, Serui Kota, Kec. Yapen Sel., Kabupaten Kepulauan Yapen, Papua 98213, Indonesia",Hotel Maureen,"[{'height': 1836, 'html_attributions': ['<a href=""https://maps.google.com/maps/contrib/111707869738132498016"">Chandra Kusuma</a>'], 'photo_reference': 'AUGGfZk9PiFNy9nlrS6y-4PetvnD04gdTzU67gMJosFqsboick6PJv_kFNIgueE06BjqlLfRwaHAvubKaSs7Rmajc4SyZbRg4xUh7WO0t4cSD2Z7cjEUhsdV2Qk6Hup2uZPERPdaHFyNvFWanU2CPLHsDK3HRzfhltUHR9h9Bc9FXAVb9Mnc', 'width': 3264}]",ChIJk5xkeqRXG2gRgA0AbBy2KLA,4.0,"['lodging', 'point_of_interest', 'establishment']",275.0,-1.8731433,136.2401965
"QCPV+QHW, Urei Faisei Dua, Urei Faisei, Waropen Regency, Papua 98261, Indonesia",HOTEL ELFANSO WIDURI,"[{'height': 1868, 'html_attributions': ['<a href=""https://maps.google.com/maps/contrib/111126442444339996614"">Agung Marey</a>'], 'photo_reference': 'AUGGfZnljEI9xIlYWZQ2LqkWsmsJwMba2ENrBnwqh8_IIqfxSzkybEA7qQ7BH9cLeJs6dvCL7H-4FuyxpkUEH_t923qxibjNy1ihZJupTPJgYeeudPrbdLAj1Vo63-Fnf1oHqBqzUqUNfPOBdGwWbCfmyUYouaK8Y_T3WK7HevhK2yFnBcTc', 'width': 4000}]",ChIJZ6Mb3n91G2gRkkx_eZ36sJE,4.2,"['lodging', 'point_of_interest', 'establishment']",22.0,-2.2130203,136.4439228
"Jln samratulangi Demisa, Aiboa/Epawa, Oadate, Kabupaten Waropen, Papua 98261, Indonesia",LBS,,ChIJa53KCRvlG2gRkbVV1AzP-oU,0.0,"['lodging', 'point_of_interest', 'establishment']",0.0,-2.6524141,136.4370494
"Urei Faisei Dua, Urei Faisei, Waropen Regency, Papua 98261, Indonesia",Hotel Merpati Urfas,"[{'height': 900, 'html_attributions': ['<a href=""https://maps.google.com/maps/contrib/110552655605129109551"">A Google User</a>'], 'photo_reference': 'AUGGfZmxOgSPRuzvvV-i0Nskdj8jZYVLGroafs81vfpFtl0ebUimnI8E6aBIPwUIX_1SndwhRxs_Q3eDI2gpa0vhN5DvZs_0O-khXm3GKAipuB8RvM9tOSsPydBX_i-VRIIOHln8MbjWQ6vYHM5juBe1MQsSItmF474YeAViyz_KuaEWO9LQ', 'width': 1600}]",ChIJ1dcrYCZ0G2gRRZEk4WWgVoA,3.6,"['lodging', 'point_of_interest', 'establishment']",174.0,-2.2073912,136.4433758
"QCFG+2FR, Batu Zaman, Waropen Bawah, Waropen Regency, Papua, Indonesia",HENA HOUSE,"[{'height': 1920, 'html_attributions': ['<a href=""https://maps.google.com/maps/contrib/110033852818571294299"">A Google User</a>'], 'photo_reference': 'AUGGfZnaDdI7foQstW4fjw3D1xYBbqDKwCBGRFdmyy-ngaon18Njk-kz06fVkjaG5fCRWWSwETredqkVbFMISjfFocuqw1T0iynsLk9cygAlhSEd-JVkEUhhaGblhwIV2atzaMmeb-WNE65OedCFFiupO-llk7yfU_XLSvXIfH5UIaQm338o', 'width': 1080}]",ChIJrwIkU453G2gR9rSr_csb6BM,0.0,"['lodging', 'point_of_interest', 'establishment']",0.0,-2.2273791,136.4261486
"Q93G+62C, Waren Satu, Waropen Bawah, Waropen Regency, Papua 98261, Indonesia",PENGINAPAN KAMOWA,"[{'height': 3024, 'html_attributions': ['<a href=""https://maps.google.com/maps/contrib/107099543564994949078"">A Google User</a>'], 'photo_reference': 'AUGGfZm3gFiAN9eq0pqsW19SuuDuZsHkmzm1KG2c1GuRz4_6_qGq4mmIh1rLPJI3N3x5d81UKymCiT1ZXO2Y7nhKtIlsk4iYMKaeKiIk9pc6fvVZH5ZJ6agSmQSfWzImD85kCwVRYKx7ZU_aInTlkdLzcFKSGvNuE17B9d3EdIgQ0wdVdwU', 'width': 4032}]",ChIJefNipUedG2gRFX5PySO9-m8,4.4,"['lodging', 'point_of_interest', 'establishment']",8.0,-2.2469547,136.3749678
"Jl. Yos Sudarso, Serui Kota, Kec. Yapen Sel., Kabupaten Kepulauan Yapen, Papua 98215, Indonesia",Hotel Merpati,"[{'height': 2269, 'html_attributions': ['<a href=""https://maps.google.com/maps/contrib/105071965476592900002"">A Google User</a>'], 'photo_reference': 'AUGGfZkIoNWLlJlrVVslQ0LBhDz0RQeUFOpX3k7EWCedGExrO5hIgIB9TV0W_YYYbBiqzfkqNE5VR3G96UhRINCSRtK4TSL5t20ub8YDMnjCWFME9Eq2krXG2TTV3YCWKY234Cwh_wSZBzqz4nzybomwVB_rs9alXC2q-qOkjMj9HsTjEnpk', 'width': 4032}]",ChIJW2ijOIBXG2gRTXWo7UlGVeM,4.3,"['lodging', 'point_of_interest', 'establishment']",264.0,-1.884872,136.2445134
"QCJC+WXV, Batu Zaman, Waropen Bawah, Waropen Regency, Papua 98261, Indonesia",Penginapan paman,,ChIJeernr-J3G2gRGTORAoLb728,5.0,"['lodging', 'point_of_interest', 'establishment']",4.0,-2.2176447,136.4224157
