formatted_address,name,photos,place_id,rating,types,user_ratings_total,lat,lng
"9PV2+PJC, Bandar Durian, Aek Natas, North Labuhan Batu Regency, North Sumatra 21455, Indonesia",Hotel Cahaya Baru,"[{'height': 4160, 'html_attributions': ['<a href=""https://maps.google.com/maps/contrib/116822622113237979283"">Hopner fane</a>'], 'photo_reference': 'AUGGfZk7_dP0scA3Z8-hMLS-VvswGwCuMjOsqaO2WvLh8eEMUTmZiSK_eVr5yKd0LTFyUZc9Wpm_T_9dVAC5P4ffgyl1SRhZg1WXNF_9CjdqzkPKY6HEVdNIYPI5PVJXgWi2D4DdKljUsABKeZ7ispTOg-FWoJeRfBCKaBMc_8UjCkIiO3sm', 'width': 3120}]",ChIJYYMxkmeILTARX6pLCQw5KqA,3.8,"['lodging', 'point_of_interest', 'establishment']",20,2.394300400000001,99.701522
"4G8W+42X, Jl. Lintas Sumatra, Poldung, Kec. Aek Natas, Sumatera Utara, 35363, Indonesia",OYO 92748 Hotel Tepian Batang Hari,,ChIJ9QAAAADALTARGobZsNIieyI,0.0,"['lodging', 'point_of_interest', 'establishment']",0,2.115354,99.54509700000001
"Jalan Pejuang No.45, East Aek Kanopan, Kualuh Hulu, North Labuhan Batu Regency, North Sumatra 21273, Indonesia",Hotel Permata Warna,"[{'height': 966, 'html_attributions': ['<a href=""https://maps.google.com/maps/contrib/102904727153998015972"">A Google User</a>'], 'photo_reference': 'AUGGfZlNw8E-e3XWURSJZ0IGTKk5s3XTGY8O988PCRBBKH5uoeRMtA3zslYxiCbxDL5OvU_K_QG0Xeh9_60Ouiyd7gdYqtbEn7V1930nj76lsSLNzika1uQ-Mmn587zCBj3wfGgpRkkmX9G6p5thO8tflF-DWzYBSOyZJXyHpjlIatKq0yP4', 'width': 1288}]",ChIJMX6aeJtxMjARERcQM0rw40M,4.3,"['lodging', 'point_of_interest', 'establishment']",227,2.571315100000001,99.6529602
"Jl. Lintas Sumatra No.16 Ledong Barat, Aek Kanopan, Kec. Aek Ledong, Kabupaten Asahan, Sumatera Utara 21273, Indonesia",Shangrila Hotel,"[{'height': 899, 'html_attributions': ['<a href=""https://maps.google.com/maps/contrib/104089812218565144730"">A Google User</a>'], 'photo_reference': 'AUGGfZk1WTfYIKL-MMWjN8iDZAO_huS-dLDErk8eiNinVd4PzH7oKL8mXYEhFNY0QEk6ySKrzxKz4xr2937CLk4OgaGOM0VZqjB6efGlN0BqP36ZaihmU-tK7QBq3eOwdSYMZ6RRtsteoLAwfGVBHMY1do42dGI9l04nV6UmPcPHtSooN0g3', 'width': 1600}]",ChIJw8EVM8xvMjARAsMsECv3tRA,4.3,"['lodging', 'point_of_interest', 'establishment']",250,2.5883429,99.651946
"Jl. Lintas Sumatra No.16, Damuli Pekan, Kec. Kualuh Sel., Kabupaten Labuhanbatu Utara, Sumatera Utara 21457, Indonesia",Hotel Ajiziah,,ChIJzfKboCdzMjARTn-Fn4Njv24,3.8,"['lodging', 'point_of_interest', 'establishment']",17,2.5070061,99.6337118
"Jl. Sukarame, Aek Kanopan Tim., Kec. Kualuh Hulu, Kabupaten Labuhanbatu Utara, Sumatera Utara 21273, Indonesia",Hotel Anugrah,"[{'height': 1987, 'html_attributions': ['<a href=""https://maps.google.com/maps/contrib/102817265914099084143"">A Google User</a>'], 'photo_reference': 'AUGGfZnsz7mVWnI2TxkkiFjBkmh1uXTyux2TXqEicxoWYPlppjjircmsKCNwYjxREflgCQcr_NhuWa3Nz5Ns7ztPxomS_DUgS8ERb_a_Pfzp7JNWSiPOsYwC8QQORlziAOMqqlAlW2VmuH8sXj8hFdER7HkaNe1o7Fh3RRiXyYF-K_jFOvzd', 'width': 4179}]",ChIJ6yGKE-BxMjARu3KwGeoX1Ck,3.6,"['lodging', 'point_of_interest', 'establishment']",426,2.5810908,99.65566919999999
"Jl. Jenderal Sudirman No.12, Aek Kanopan Tim., Kec. Kualuh Hulu, Kabupaten Labuhanbatu Utara, Sumatera Utara 21273, Indonesia",Hotel JSN ULOS,"[{'height': 960, 'html_attributions': ['<a href=""https://maps.google.com/maps/contrib/102939122045134360977"">A Google User</a>'], 'photo_reference': 'AUGGfZlHidPBtoPZKTQdgtwpHFfDjU2T5X4oCqYgWfnKd6JoeIltTk5hQ2AH2pxGrLlXbj-0Sz_ePh3yPpq7qMVPN4UKwPdY4pQBGvBGOVWAxRhzzThIgFyhUNtAmmXFQuGK9Y95T_AedII1gRYPaHZdhVPuiJx-WdpP3LNiiZrPRbtru2j4', 'width': 1280}]",ChIJqc2QMOFxMjARilSxI6ZZnQs,3.5,"['lodging', 'point_of_interest', 'establishment']",225,2.5775752,99.6526389
"99, Aek Kanopan, Labuhanbatu Utara, Sumatera Utara, Rantauprapat, Sumatera Utara 21273, Indonesia",OYO 90834 Hotel Anugrah,"[{'height': 427, 'html_attributions': ['<a href=""https://maps.google.com/maps/contrib/115289452293682509713"">A Google User</a>'], 'photo_reference': 'AUGGfZmJdNOVDNW53pSrJDVYYMgkQkItTc5QCGJjExirZr3FyQoV7oig4MzLxkALNjYKTSrJFYrMUrOcpl6wqvhCmULHQpwjp0ZuVnN2DwEFbLoKES8x01dbDy6ypIbJBAV52BtmeXWyEMucdFgd3yshq7OHb1-OKc0P6T6kkV9kJCGlSwXK', 'width': 640}]",ChIJ55oPqHJxMjARMWgja6hDnW0,3.3,"['lodging', 'point_of_interest', 'establishment']",3,2.5810949,99.6556887
"Jl. Jend. Ahmad Yani No.133, Kartini, Kec. Rantau Utara, Kab. Labuhanbatu, Sumatera Utara 21411, Indonesia",Permata Land Hotel & Resort,"[{'height': 1200, 'html_attributions': ['<a href=""https://maps.google.com/maps/contrib/113573003909655873661"">A Google User</a>'], 'photo_reference': 'AUGGfZlcTp2PLHTPqINCKFntGEtIp4RVToJMPnGGfQ92EdBgFO-Pu1hZzCuadJG-HdMCOvsS3sqT8CW7bqZCslb4s3qA5pn82Q7a3qStQmolhIhnL_Qv3SGiGRnwrjGoca_ZCir8nyA-_F-EW6yqVB_Dno2BFGKhrenx9SC9HlhbLVMNA4Zq', 'width': 1600}]",ChIJsz13X-qhLTARIxBl4kgY8W4,3.9,"['lodging', 'point_of_interest', 'establishment']",871,2.0966402,99.8336415
"Jl. Jend. Ahmad Yani No.28, Bakaran Batu, Kec. Rantau Sel., Kab. Labuhanbatu, Sumatera Utara 21411, Indonesia",Platinum Hotel Rantauprapat,"[{'height': 2252, 'html_attributions': ['<a href=""https://maps.google.com/maps/contrib/112812345153633202647"">Kristian Nugroho</a>'], 'photo_reference': 'AUGGfZkJeFWr_VTAlGt104PypFLn7RuS72qqR66YCVNAdpXi19TGe91WxkqfYI2ytcASohZ6Lr0SYQ3gpoyMfUI5ESkBrYCBx3EO0J4gVRuMujvNYAUOnAuRJIiMqJopps2dCwrl7QiXXEnmG83CbuWPxbP1KsL2Gin5W-Q_v86zocOejdHu', 'width': 4000}]",ChIJIbPTQbmhLTARKVEupM6WBZY,4.1,"['lodging', 'point_of_interest', 'establishment']",1075,2.0902402,99.8419902
"Jl. SM. Raja No.15, Rantauprapat, Kec. Rantau Sel., Kab. Labuhanbatu, Sumatera Utara 22727, Indonesia",NUANSA HOTEL,"[{'height': 3024, 'html_attributions': ['<a href=""https://maps.google.com/maps/contrib/108368874879214603546"">Revi Mei Arisandi</a>'], 'photo_reference': 'AUGGfZm-cnY7kHQOODvv2s0xYXQqva2-_vh85zqoK5c_18LgF4e9V7YXKwlyV0NSm5iV1JWwLx6ASWX20Re30ctqrVQ9mVbj7ySf7F04922cMLEtKC1feB3NFRJu3lSdo4aqW4Lg5nQiTZkhrBShXZE6cgDffMPudghYOp7jxmcLo7Ce-A4c', 'width': 4032}]",ChIJsUJe5a2hLTARorzGtU1qMRg,4.3,"['lodging', 'point_of_interest', 'establishment']",607,2.0908764,99.8424088
"Jl. Jend. Ahmad Yani No.102a, Kartini, Kec. Rantau Utara, Kab. Labuhanbatu, Sumatera Utara 21411, Indonesia",Hotel Suzuya Plaza,"[{'height': 2250, 'html_attributions': ['<a href=""https://maps.google.com/maps/contrib/118165137151606590016"">bobby boim</a>'], 'photo_reference': 'AUGGfZkQu4MhEhJ4KLe10jWTukiQvU-FhBCTf9Zl05aSHrILqU3ptey4YY20_au7NzJkovSb8Tg7AGDW5km_wGCXQc78j3SLdpqJ5J3xJXjhrL7v5AuFGIlWlLxK7-BKMKTsSrXoKngwbXDXu4C40eN4N0W9rsKeAcX_fF3VMLm84PSWSlL1', 'width': 4000}]",ChIJxcfsa-mhLTARopo5Uzfj7gs,3.9,"['lodging', 'point_of_interest', 'establishment']",1124,2.0974202,99.8333004
"Jl. Ahmad Yani No.178, Kab. Labuhan Batu, Rantau Utara, Bakaran Batu, Rantau Utara, Bakaran Batu, Kec. Rantau Sel., Rantauprapat, Sumatera Utara 21412, Indonesia",Hotel Rantauprapat - RPH,"[{'height': 346, 'html_attributions': ['<a href=""https://maps.google.com/maps/contrib/100240761066899994180"">Hotel Rantauprapat - RPH</a>'], 'photo_reference': 'AUGGfZlQf7vBba785FV8wlPCKkrMIz16Zki554SDH_NwddFjBTeiH8lbM7FPslFZPdyq2Xi1tBoTt1pR1RdHg-WxKNG7sdNE6MNkPiBtAmJcfALZnjwgiYGcso0RiifXaeztSULEJe3tC7Z5V2oeQZjjZHhtbX6IO4MOWQQs1W4jG0-asVnM', 'width': 461}]",ChIJq9m8UpWhLTARe6I6nHLXuQE,3.7,"['gym', 'lodging', 'point_of_interest', 'health', 'establishment']",625,2.0933442,99.83560089999999
"Jl. Imam Bonjol, Rantauprapat, Kec. Rantau Utara, Kab. Labuhanbatu, Sumatera Utara 21411, Indonesia",SUPER OYO 2200 Hotel Gunung Sari,"[{'height': 427, 'html_attributions': ['<a href=""https://maps.google.com/maps/contrib/108131886875711554705"">A Google User</a>'], 'photo_reference': 'AUGGfZkkmoC7wd1txTW5RyAF3YpWhISyb0VXl9d1YmMBWF8_SkHxFc3yVadLlkdHNqZR48aQwgwAx2fTKILOYK-lKOW1bVuObXjZrfYNsY1QgRP_SyExaGgMtG_r4Iu32-H0YnVX8WZU7HJkQ4y6hBI46PUQLZkTF6m-mLVDk7YpPbKvPYw9', 'width': 759}]",ChIJTTTcfNihLTARR1-1AunpC1o,3.7,"['lodging', 'point_of_interest', 'establishment']",147,2.099743,99.825594
"Jl. Syukur, Kartini, Kec. Rantau Utara, Kab. Labuhanbatu, Sumatera Utara 21411, Indonesia",AHZA SYARIAH guest house,"[{'height': 3096, 'html_attributions': ['<a href=""https://maps.google.com/maps/contrib/105096490973067804723"">A Google User</a>'], 'photo_reference': 'AUGGfZkm2NalEfUPyJSbnWQwHMqfHerBNAMn8SYSXize266l4ThU4G7brZThdXC1KMzX7suHYKAqstOzz8_5NjZ5wPmfk6-mwFBBKevYfhl_4ibbPdTBk6BbviH9plLVwwg6CZ2sXihgpF06hiqEWPn2-f5kireq815ZpfyT7V2BjOCurvs0', 'width': 4128}]",ChIJPWjv4A6hLTARSuImPLO-RJA,4.4,"['lodging', 'point_of_interest', 'establishment']",152,2.0975822,99.8362281
"Jl. Cemara Jl. Padang Matinggi No.122, Rantauprapat, Kec. Rantau Utara, Kab. Labuhanbatu, Sumatera Utara 21411, Indonesia",Green House Syariah Mitra RedDoorz,"[{'height': 4160, 'html_attributions': ['<a href=""https://maps.google.com/maps/contrib/112414226392404459674"">Andri Bachtiar Sitompul</a>'], 'photo_reference': 'AUGGfZnVw3mXL14KfdZfrdjAIWIvPNYFC7FaYzbcjo09XLCoGzS-xrjhQgAHgzKGkU0Ol66jKEm71YZIPzNrvQQQl4Kepbm7dJiDbf544nKflMlXaUtvb3850mMFE3pQAzb4SUKOggsUbRvT9cdEs4h6oTnztMqZl76MXX3inK82_dBfb_MV', 'width': 3120}]",ChIJcw4eOuKhLTARZ9e5XqAIpRI,3.7,"['lodging', 'point_of_interest', 'establishment']",40,2.1117495,99.82977819999999
"Jl. Urip Sumodiharjo, Bina Raga, Kec. Rantau Utara, Kab. Labuhanbatu, Sumatera Utara 21411, Indonesia",OYO 1955 Wisma Sunshine,"[{'height': 427, 'html_attributions': ['<a href=""https://maps.google.com/maps/contrib/113439165672406490433"">A Google User</a>'], 'photo_reference': 'AUGGfZkEtDfAq9pXb2-kvlbFky3yqJMZTYYaRasaKdRU1vduuwPz1eVvthiVdU77Gb5cHNwaRgDwWctIglylZCos0xEGehQ-lAeL3CJSVaxnauJlBSTLYCusH0mFYrPBvhL4gg-h-UlZdzBWgmOrnZoFol_604bFYD3_4b3kfLtP8yZEGB8i', 'width': 640}]",ChIJHWapv-2hLTARrh_frKFKYNk,3.7,"['lodging', 'point_of_interest', 'establishment']",72,2.0972734,99.826607
"Rantau Prapat, Jl. SM. Raja No.65, Bakaran Batu, Kec. Rantau Sel., Kab. Labuhanbatu, Sumatera Utara 21411, Indonesia",Wisma Putri Deli Hotel,"[{'height': 3120, 'html_attributions': ['<a href=""https://maps.google.com/maps/contrib/102672042344278317234"">Ridho Chairulsyah</a>'], 'photo_reference': 'AUGGfZnZR2MPJMQHGhlfXUmVuVISWLelkK8pnhnQNrKSNXTeqxeSviWqfMSpWLDEPioNNoIWG4h74Xm64N0YE5I6uTJEMAok6q2qAfC9A5uUGWopeRpBZ4OC05gGXnry3iv50K8AtwYxkN-sh3helTYphpx_kJXSRhK9u5PsRER8TDEvAdJC', 'width': 4160}]",ChIJyXjEermhLTAR5qZloXHkl8g,3.9,"['lodging', 'point_of_interest', 'establishment']",295,2.0890201,99.84540179999999
"3RXH+7RP, Gg. Diponegoro, Rantauprapat, Kec. Rantau Utara, Kab. Labuhanbatu, Sumatera Utara 21411, Indonesia",Wisma Niagara,"[{'height': 3024, 'html_attributions': ['<a href=""https://maps.google.com/maps/contrib/107667241748394946451"">muhammad riduan</a>'], 'photo_reference': 'AUGGfZlUuQF93fPDgiyPVvIAeQYoLt_0MspwMNgZSU8cYm6jbWJ8WtO6Yl5P1wZ81vlSq8Dmls6_NmYyJYzS2yOeaOPuj9DHRSykMINAq9SyP3gNzKA3jcuhMGOnpRBBQIcksxL6AcgqNuLgQd8f5RjHQwGvTkkO7Rw8Jkz7rOALsOq8fwuT', 'width': 4032}]",ChIJP5oY9-uhLTARFScUQRZff7g,4.1,"['lodging', 'point_of_interest', 'establishment']",131,2.0982249,99.82958590000001
"Kartini, Jl. Kp. Baru No.18, Rantauprapat, Kec. Rantau Utara, Kab. Labuhanbatu, Sumatera Utara 21411, Indonesia",OYO 2069 Wisma Syariah Kampung Baru,"[{'height': 427, 'html_attributions': ['<a href=""https://maps.google.com/maps/contrib/105110552646047975450"">A Google User</a>'], 'photo_reference': 'AUGGfZn2Vm750WpSRzpxEjFdJmGMPXROHM_wWuVSNOugmTAa8A15Db39McoyKEO2yMjoY1nXhiEksGOF3N5qE3Nlw2b_voDcDzr0IA65gFZhPXSBP6-yUbrf7crRr2W1ctI_lxFb79jt9h9JhrzgSVwNCszZB8Byz7q3LeJxwDYZWoarJuyC', 'width': 640}]",ChIJpdWQsu6hLTARp4yaTkB01dE,4.4,"['lodging', 'point_of_interest', 'establishment']",167,2.0978076,99.8374327
"3RXQ+G2F, Kartini, Bakaran Batu, Rantauprapat, North Sumatra 21411, Indonesia",OYO 90979 Ryfana Residence Syariah,,ChIJ-bLPgcGhLTAR4o1-kmkiqQE,4.0,"['lodging', 'point_of_interest', 'establishment']",1,2.0988431,99.837493
"3X6M+MV2, Pondok Batu, Bilah Hulu, Labuhan Batu Regency, North Sumatra 21451, Indonesia",Hotel Terang,"[{'height': 3468, 'html_attributions': ['<a href=""https://maps.google.com/maps/contrib/112111036865968697948"">Commel Dozan</a>'], 'photo_reference': 'AUGGfZnISoHLqtRC1OE8AVo_q3irhgBMQI7_gm_lPIvvvFfyR4nsifojZD5U0nX2OSKKuJei1GdOazNNWusyU05wD-qDOxZLlcTpbtao9Kd0kClXvclVnxl8eEpRgxb91MwS8qtyetLBedi4BJffxujuQKa_QuQAneY866j4Ms5wn0m7yoYu', 'width': 4624}]",ChIJsWII6sQLLTAREorskLkiCpM,3.2,"['lodging', 'point_of_interest', 'establishment']",5,2.0616383,99.98463199999999
"depan INDOMARET Asrol Adam, Kompleks PGP, Jl. Kp. Baru Jl. Asrol Adam No.68, Rantauprapat, Kec. Rantau Sel., Kab. Labuhanbatu, Sumatera Utara 21415, Indonesia",dikami kost (syariah),"[{'height': 3024, 'html_attributions': ['<a href=""https://maps.google.com/maps/contrib/108882456248431733302"">A Google User</a>'], 'photo_reference': 'AUGGfZlsjCbCTGG9QHC5pfi6E13Jrd7fJ7UZesI-SEEQIpqiAjXQD7Kcg63UNZk6JwS8-YnChwQQLQFMI0hP_Z5atnW0yTQggjD8SS8Al0GIpNMxWU5Um-EEH9Ef_cZvITd8aAAqwCwc0Ho4QxVGzLtGonjOlGSCXpJ4VJWU3QgrYp0rx6c7', 'width': 4032}]",ChIJnyJ_TWyhLTAR0cMKFVymLT4,4.6,"['lodging', 'point_of_interest', 'establishment']",43,2.0993424,99.8410341
"Jl. Bilah No.1 A, Rantauprapat, Kec. Rantau Utara, Kab. Labuhanbatu, Sumatera Utara 21411, Indonesia",Wisma Merlin,"[{'height': 1280, 'html_attributions': ['<a href=""https://maps.google.com/maps/contrib/105060705418319279597"">A Google User</a>'], 'photo_reference': 'AUGGfZkV7UA6VKxEZROZJeYzYk1R4ZMm5Qw0cSyJ6ZTn9LAO5isQnAzfIO9FrmG4pDiMIQ42NvKM-LfpPuGuVtS5Ua44cttSggiipUQG6iWrzc9zi9LQyyECDRCVbqMgX3kDTNmk3DHybzmWCDI6iE4RyNw2Dcvcc85J86oibLtn5l1a42gS', 'width': 562}]",ChIJydeQsu6hLTARUo21PehPKx0,4.3,"['lodging', 'point_of_interest', 'establishment']",96,2.0997687,99.8291799
"Jl. SM. Raja No.183, Ujung Bandar, Kec. Rantau Sel., Kab. Labuhanbatu, Sumatera Utara 21422, Indonesia",Wisma Murni Asri,,ChIJKU8p1fygLTARZ8ODrvLPlsI,4.3,"['lodging', 'point_of_interest', 'establishment']",14,2.0650546,99.8601016
"Jl. Kp. Baru Jl. Kuntum Bumi, Sioldengan, Kec. Rantau Sel., Kab. Labuhanbatu, Sumatera Utara 21411, Indonesia",Kost Ryfana,"[{'height': 2448, 'html_attributions': ['<a href=""https://maps.google.com/maps/contrib/116353313093065523654"">A Google User</a>'], 'photo_reference': 'AUGGfZmOi3pkkFhNOlCUL91LA1IcXHQFJqaNZjr9jX0uonMkrGEOlbA02ZFyupkhJ_SVtUqoXedMODH-0_QuVOPDu_m6cwR7BngE6MJjt_aDz8pbXRKALnvEAmAQ0HHnFovsDom3GhBLTF9SFgX9EjX03iqwNF3gc1aN9t55AjpNACnYxlQV', 'width': 2448}]",ChIJXThXKQehLTARTEwAEihowp0,4.0,"['lodging', 'point_of_interest', 'establishment']",27,2.0985171,99.83767279999999
"Jl. Jenderal Sudirman No.360, Bagan Batu, Kec. Bagan Sinembah, Kabupaten Rokan Hilir, Riau 28992, Indonesia",Hotel Bintang Mulia,"[{'height': 608, 'html_attributions': ['<a href=""https://maps.google.com/maps/contrib/113097561955028258059"">A Google User</a>'], 'photo_reference': 'AUGGfZmOQLloS97WzE-KUkmrMntFSTnWbj_jiQQLmITlAXCcNX74Xi9zkOlIdOtRtlMjONQhRgZwWuqcec07nH2I1fNqxmBDF-2pwaKn1RRWlJAo5FUt1QNZ4xEoNNWTdj3TjjIL29veRLRMQ8LWD3QVuWyi45oSklay3gd42rO5c8YLiXNO', 'width': 1080}]",ChIJaYHBXWvZLDARutPbyWsZgUk,4.0,"['lodging', 'point_of_interest', 'establishment']",881,1.7029717,100.4029698
"Jl. Jenderal Sudirman, Bagan Batu, Kec. Bagan Sinembah, Kabupaten Rokan Hilir, Riau 28892, Indonesia",SUZUYA PLAZA Hotel Bagan Batu,"[{'height': 1200, 'html_attributions': ['<a href=""https://maps.google.com/maps/contrib/113520215754846636019"">A Google User</a>'], 'photo_reference': 'AUGGfZkR1dBhhLZ2GNlBwMplMqtLervkIFObmB5QNY2yGWEUVJNU5W_RyWdHJXygUQG4MnGAmTjHMNHawOHZEvwlpLuWflUqPI9SUuGrIcumXutWc3P6JxUw55k2RO3aiIlvz5754NuKBmdaKpRqq8lVAfndBvoQQTG3FaXXLdtb7YmNmPDg', 'width': 1600}]",ChIJTe-od5HbLDARF-PQcH-Hzms,4.2,"['lodging', 'point_of_interest', 'establishment']",325,1.7100599,100.396066
"Jl. Jenderal Sudirman No.km.1, Bagan Batu, Kec. Torgamba, Kab. Labuhanbatu Selatan, Riau 28992, Indonesia",Wisma Teratai Mas,"[{'height': 2560, 'html_attributions': ['<a href=""https://maps.google.com/maps/contrib/106190716391468981325"">A Google User</a>'], 'photo_reference': 'AUGGfZmZtTL2LAlsiOfRun84Z-U2ZEfv2wyqHlBtAgalRngmJPk1mINBnvZNYDP8VLMrjGAOVsqxaqFjWosulQKDf2Gd9abt2CGbzxy0rqfPKwX6S14wJ2wVSQUI_f-rzeiNqxbS2N5GQoou4a9YoAFE6qB_bJ_Y9TX5IxUZa4h4dfBAFBll', 'width': 1440}]",ChIJgyYOz0TaLDARjiEBYSTuguE,3.9,"['lodging', 'point_of_interest', 'establishment']",277,1.6965785,100.4095425
"Pinang City, Kota Pinang, South Labuhan Batu Regency, North Sumatra 21464, Indonesia",Hotel Istana IX,"[{'height': 768, 'html_attributions': ['<a href=""https://maps.google.com/maps/contrib/111924602793138986128"">A Google User</a>'], 'photo_reference': 'AUGGfZnFT3GSdDNEDMRAOxObaDqNixNt2Ev_hppEuAZ6KdUZ0BiDUtO4wtMDwgyhMuOCaEqAr3w82dmCPbva_hNf0SLyTi9ebC_E747kqNPxZNllL_t5zm_DkMHULdONkx8lrO2zn0Aiaj56U_oJnIca1yZotPw4Ts7nSIYVuGEpJTRWhMnS', 'width': 1024}]",ChIJn3BqQrQELTARr0Ds8bjcmzo,3.6,"['lodging', 'point_of_interest', 'establishment']",146,1.8962408,100.0768243
"4G8W+42X, Poldung, Aek Natas, North Labuhan Batu Regency, North Sumatra, Indonesia",Usu,,ChIJtXjPPOSVLTAReZOiY1xYj_M,0.0,"['lodging', 'point_of_interest', 'establishment']",0,2.1153547,99.54509739999999
"FMG5+P3C, Jl. Kp. Lalang, Gn. Melayu, Kec. Kualuh Sel., Kabupaten Labuhanbatu Utara, Sumatera Utara 21457, Indonesia",RUMAH SUKIMIN/Yuli fitriani,,ChIJx1C7JQ53MjARY8_xUp1-UaU,3.0,"['lodging', 'point_of_interest', 'establishment']",2,2.4768033,99.6576228
"PW9W+WRM, Teluk Pulai Luar, Kualuh Leidong, North Labuhan Batu Regency, North Sumatra 21475, Indonesia",RUMAH PAJAR TG,,ChIJHWj2dKyLMjARtfpVrSX9zRo,0.0,"['lodging', 'point_of_interest', 'establishment']",0,2.720042,99.948319
"dusun 1B, Sumatera Utara, Indonesia",Rumah SatrioZyx-,"[{'height': 4160, 'html_attributions': ['<a href=""https://maps.google.com/maps/contrib/106513816414911984096"">A Google User</a>'], 'photo_reference': 'AUGGfZny9ZYov-K21LjFIb4ns2Jf3PG4fNDLv2VMTiY4F9b34iAozGIxDG-RRh-ASpbpR4-nKUa-RYvzHQMk11V5h5iwba-_o1HWa_qaGoEggG6WaTUXg1b9FYpv09AT2H3gCgkXrBkiN61059xWP2mLMha7-vvj2_fKifmsWMbsDHRolNGK', 'width': 3120}]",ChIJRcgfakL1MjARDu7A_l6s3-Y,0.0,"['spa', 'lodging', 'point_of_interest', 'establishment']",0,2.7679278,99.9418843
"GJ9X+G62, Jl. Lintas Sumatra, Sidua Dua, Kec. Kualuh Sel., Kabupaten Labuhanbatu Utara, Sumatera Utara, Indonesia",Penginapan silahi Sabungan,,ChIJA_E2B05xMjARPMOcxTImC_U,0.0,"['lodging', 'point_of_interest', 'establishment']",0,2.5187567,99.6480103
"M353+9P4, Tanjung Mangedar, Kualuh Hilir, North Labuhan Batu Regency, North Sumatra 21474, Indonesia",Op cindy malau,,ChIJ94Ui116NMjARCVIdD_KLw5Q,5.0,"['lodging', 'point_of_interest', 'establishment']",1,2.6583445,100.0543648
"JL Dr Sutomo, Tj. Leidong, Kec. Kualuh Leidong, Kabupaten Labuhanbatu Utara, Sumatera Utara 21474, Indonesia",Imelda Losmen,"[{'height': 1944, 'html_attributions': ['<a href=""https://maps.google.com/maps/contrib/117654362281848681306"">A Google User</a>'], 'photo_reference': 'AUGGfZlj1fGhMaJPXkqtWILUe9qlvlmL_c36-YRX4ZJdsUdybZUgPUA8p5OVsZKnTrnES2LM824WSSTawVpQy22CEXj-dhwGyZUuQmswnIZ_2eodLVKaakrDzderjeVdgwYdr3XI-4V4kkJTgEThdsz5Ch36r5EyR5-Ys8LNGc9qheWHOJVm', 'width': 2592}]",ChIJseDl8470MjARg6Jvl5XxtAk,2.8,"['lodging', 'point_of_interest', 'establishment']",12,2.7682713,99.9762233
"Jl. Angkatan No.66, Aek Kanopan Tim., Kec. Kualuh Hulu, Kabupaten Labuhanbatu Utara, Sumatera Utara 21273, Indonesia",Grand Labura,"[{'height': 1080, 'html_attributions': ['<a href=""https://maps.google.com/maps/contrib/104502071190812873822"">Faisal Hutabarat</a>'], 'photo_reference': 'AUGGfZlxtTMm6_tzqQcPcWNYrLcsFlSNWOhMAxqu4Dymmts6g8hM87idyUgxnyD-DEHQ5CMtT5OrpE95tLR202R2PQ25BM4KhfqgjJNY093VIafdJdgZOFbIDWLcfgavQfR_9gZ6zcJXjEhMcU8ru8JM6JL8isx8zE9EOJyibj5c9iTIdV8', 'width': 1920}]",ChIJw_EGpO5xMjARmR3P_lVyqJc,3.6,"['lodging', 'point_of_interest', 'establishment']",243,2.5672629,99.6496626
"5PHV+R42, Pasang Lela, Na IX-X, North Labuhan Batu Regency, North Sumatra 21454, Indonesia",Arkan Family,,ChIJz-QKDjKZLTARDQU4ebxpY7Q,0.0,"['lodging', 'point_of_interest', 'establishment']",0,2.1795071,99.7427775
"4G8W+42X, Poldung, Aek Natas, North Labuhan Batu Regency, North Sumatra 21455, Indonesia",Ellyda,,ChIJL9io0CWVLTAR1DSud02Hliw,0.0,"['lodging', 'point_of_interest', 'establishment']",0,2.1153547,99.54509739999999
"4G8W+42X, Poldung, Aek Natas, North Labuhan Batu Regency, North Sumatra, Indonesia",gusNiar syaputri,,ChIJS4lFg-qVLTARBpeAMtwc6kk,0.0,"['lodging', 'point_of_interest', 'establishment']",0,2.1153547,99.54509739999999
"HMJ4+C4J, East Aek Kanopan, Kualuh Hulu, North Labuhan Batu Regency, North Sumatra 21273, Indonesia",Hotel Pasirma,"[{'height': 4032, 'html_attributions': ['<a href=""https://maps.google.com/maps/contrib/115466172374162641882"">Rahmat Fajrin</a>'], 'photo_reference': 'AUGGfZl_bH_JABalD1b2ZepIo6fNWjJB0WBafSFo3WOJIYF4_n2jx9Z_CX2sJbW_YAYwsVEdMq55rRXgNou13n5hod-8BtZcaR0BCcwKDwK9isCW9iipSYgaVf8QcwrpLJc0OesAolM2ePOPQzWLmYCFQgbatwaeUeYlMhr1-vHtQMiSuiuQ', 'width': 3024}]",ChIJxyqKbglxMjARjmWmTDGBRdc,3.5,"['lodging', 'point_of_interest', 'establishment']",63,2.5810869,99.6552553
"Jalan Stadion, Tj. Leidong, Kec. Kualuh Leidong, Kabupaten Labuhanbatu Utara, Sumatera Utara 21475, Indonesia",PENGINAPAN SEDERHANA,"[{'height': 3060, 'html_attributions': ['<a href=""https://maps.google.com/maps/contrib/104093561007428370943"">A Google User</a>'], 'photo_reference': 'AUGGfZlm0PqTEd6ne8njJyTVQjFSs9lejMpL2j9oHYZpfR-tc-CMtYRDrH8AYTn0PeaORLhL6IqnpmgXnhmejXpnVrxE9okniW2G6sH-oT5TXRyZVHJP7w1btxkmwZuEM0pS3Rpg7EZXTkQduBFLVQqvScUTiZ1IxKiUbLHaGJ9dBLbDadTn', 'width': 4080}]",ChIJPRq1l_D1MjARwVURPkZSUkI,5.0,"['lodging', 'point_of_interest', 'establishment']",1,2.7578236,99.9778784
"J24R+WF4, Teluk Piai, Kualuh Hilir, North Labuhan Batu Regency, North Sumatra 21474, Indonesia",RUMAH JUHRI FASE,,ChIJtXpy3y6PMjARgIoCRS-sANs,0.0,"['lodging', 'point_of_interest', 'establishment']",0,2.6073756,100.0410528
"4G8W+42X, Poldung, Aek Natas, North Labuhan Batu Regency, North Sumatra, Indonesia",Merbau,,ChIJ3SlBy-KVLTARCGrjGcmsE2Y,0.0,"['lodging', 'point_of_interest', 'establishment']",0,2.1153547,99.54509739999999
"8JQW+642, Perkebunan Aek Pamingke, Aek Natas, North Labuhan Batu Regency, North Sumatra, Indonesia",Hotel sekitaran pamingke,,ChIJf_UvKACPLTARz6vwC3-T9YY,0.0,"['lodging', 'point_of_interest', 'establishment']",0,2.3380041,99.6452714
"Jl. Jenderal Sudirman No.162, Aek Kanopan, Kec. Kualuh Hulu, Kabupaten Labuhanbatu Utara, Sumatera Utara 21273, Indonesia",AEKKANOPAN HOTEL,"[{'height': 3000, 'html_attributions': ['<a href=""https://maps.google.com/maps/contrib/102039325698524797241"">Umaruddin Bestari</a>'], 'photo_reference': 'AUGGfZkxhhnzi_BSXrCjM1k3l00i0nM--N4mhmeTkZxWgwckyaIFa6Xr1AcxnUMkkY7Q8Ahk3xI8qqP4eut7PiRo2lW3Thn0pPy4jTvk29EASEkr99CBTdBVbBdayKUrv5tu-2SExuq-NOS4iKcF3tn5TWezOTAXDFqo5TtZTVSyd6TMrOlO', 'width': 4000}]",ChIJcSvVuFVxMjARtLUZLURiRyk,3.0,"['lodging', 'point_of_interest', 'establishment']",22,2.5720634,99.65317999999999
"4RG4+J42, Jl. Aek Paing Bawah II, Aek Paing, Kec. Rantau Utara, Kab. Labuhanbatu, Sumatera Utara 21411, Indonesia",Kampung Halaman Ari Misbahul,,ChIJ-xzyOjeZLTAR-P9ziyJGgtA,0.0,"['lodging', 'point_of_interest', 'establishment']",0,2.1259367,99.80524489999999
"Jl. KH Ahmad Dahlan No.6, Aek Kanopan Tim., Kec. Kualuh Hulu, Kabupaten Labuhanbatu Utara, Sumatera Utara 21457, Indonesia",Korea,,ChIJKXi9THVxMjAR7gX6Tl-YkHE,4.0,"['lodging', 'point_of_interest', 'establishment']",2,2.5682597,99.6559151
"GMM6+63Q, JL Kampung Banjar Lingkungan XII, Gunting Saga, Kec. Kualuh Sel., Kabupaten Labuhanbatu Utara, Sumatera Utara 21457, Indonesia",Gunting saga,,ChIJsUPyagBxMjARF7zQLSjuJVY,0.0,"['lodging', 'point_of_interest', 'establishment']",0,2.5331074,99.6602291
"4G8W+42X, Poldung, Aek Natas, North Labuhan Batu Regency, North Sumatra, Indonesia",Grand Mutiara Hotel In berastagi,,ChIJt_KvepqVLTARqjstDCypHps,4.9,"['lodging', 'point_of_interest', 'establishment']",11,2.1153547,99.54509739999999
"8P7X+QC, Padang Maninjau, Aek Kuo, North Labuhan Batu Regency, North Sumatra, Indonesia",Rumah masa depan,,ChIJrWG_DwCFLTARLjdVTGao_Jc,0.0,"['lodging', 'point_of_interest', 'establishment']",0,2.3144366,99.7485202
"7P7Q+QXH, Aek Kota Batu, Na IX-X, North Labuhan Batu Regency, North Sumatra, Indonesia",Kota batu,,ChIJq4F_egCbLTARWRZg-oruvIE,0.0,"['lodging', 'point_of_interest', 'establishment']",0,2.2644358,99.73998999999999
"3H68+8J, Pematang, Na IX-X, North Labuhan Batu Regency, North Sumatra, Indonesia",Tempat sampah,,ChIJs5NvJwC_LTARhQ_YWUcfHyk,0.0,"['lodging', 'point_of_interest', 'establishment']",0,2.0608408,99.5665528
"GX62+59Q, Kuala Bangka, pasar baru, North Labuhan Batu Regency, North Sumatra 21474, Indonesia",Simelekete kub,,ChIJLU9e7k6HMjARy3a0XdPo5jg,0.0,"['lodging', 'point_of_interest', 'establishment']",0,2.5104525,99.9509884
"5W67+H5H, Tebing Linggahara, Bilah Barat, Labuhan Batu Regency, North Sumatra, Indonesia",Madon munthe,,ChIJuQuW-W11LTARt0b6LKMpUOc,0.0,"['lodging', 'point_of_interest', 'establishment']",0,2.1614331,99.91298450000001
"J38P+5M9, Sei Penggantungan, Panai Hilir, Labuhan Batu Regency, North Sumatra 21473, Indonesia",Rumah sukur harahap,,ChIJ-brejkORMjARwMnc7BxiREk,5.0,"['lodging', 'point_of_interest', 'establishment']",1,2.6154415,100.0867436
"7QVF+89W, Kampung Pajak, Na IX-X, North Labuhan Batu Regency, North Sumatra, Indonesia",Pamingke,,ChIJvzz0RgCFLTAR-OfbJcnJkMY,5.0,"['lodging', 'point_of_interest', 'establishment']",1,2.2933551,99.7734455
"GF7Q+GW, Kuala Beringin, Kualuh Hulu, North Labuhan Batu Regency, North Sumatra, Indonesia",Simpang sawitjaya,,ChIJn39rWDQNMjAR5Ys3hoXg6Ko,0.0,"['lodging', 'point_of_interest', 'establishment']",0,2.5138164,99.4897829
"Jl. Aek Paing Bawah II No.Atas, Aek Paing, Kec. Rantau Utara, Kab. Labuhanbatu, Sumatera Utara 21411, Indonesia",Aek matio,,ChIJT_-3k6GfLTARCksW4zvOm9A,0.0,"['lodging', 'point_of_interest', 'establishment']",0,2.1367715,99.8201527
"HJ8X+79F, Jl. Rejeki, Aek Kanopan, Kec. Kualuh Hulu, Kabupaten Labuhanbatu Utara, Sumatera Utara 21273, Indonesia",kos fery,,ChIJW5m7ZQBxMjARTXYkLGYIxg0,0.0,"['lodging', 'point_of_interest', 'establishment']",0,2.5662467,99.64827299999999
"4G8W+42X, Poldung, Aek Natas, North Labuhan Batu Regency, North Sumatra 21455, Indonesia",Jakarta Pusat,,ChIJEWJyziGVLTARSKWVYt7-C_U,0.0,"['lodging', 'point_of_interest', 'establishment']",0,2.1153547,99.54509739999999
"JL. Pangeran Diponegoro, No. 64, Kartini, Rantau Utara, Rantauprapat, Kec. Bilah Bar., Kab. Labuhanbatu, Sumatera Utara 21418, Indonesia",Empat Belas Hotel,"[{'height': 2322, 'html_attributions': ['<a href=""https://maps.google.com/maps/contrib/106486375486638627509"">Hadin Deha</a>'], 'photo_reference': 'AUGGfZkmH8fFyM5qVaaudbTasMlNytam2vNfxnQiP81auq0LFvtiJes-fvumiVTuhMoYco4EyB-KWTAVUFtFZClOnmEtd3Os14e7y_NhDVjqEIAGS1rEC5xFtU7mI1OwrPcUPqENbRky9tqAykucFft_BUigheVIXQ1Lj97U13bFJVwNfN8R', 'width': 4128}]",ChIJIUOmw8KYLTARKtZGWUWx-UY,0.0,"['lodging', 'point_of_interest', 'establishment']",0,2.141835,99.79208
"4VQG+6R6, Jl. Pulo Padang - Marbau, Pulo Padang, Kec. Rantau Utara, Kab. Labuhanbatu, Sumatera Utara 21415, Indonesia",Rumah sonnip Hasibuan,,ChIJ3curLwCfLTARG9ylNHwN4xQ,0.0,"['lodging', 'point_of_interest', 'establishment']",0,2.138214,99.8768721
"HPGV+842, Sukarame, Kualuh Hulu, North Labuhan Batu Regency, North Sumatra, Indonesia",Sukarame labura,,ChIJs6IHMKFlMjAR-fzieZwZBv0,5.0,"['lodging', 'point_of_interest', 'establishment']",1,2.5757498,99.74267950000001
"4QV9+7P9, Jl. Aek Buru Batu Tunggal, Afdeling I. Rantau Prapat, Kec. Bilah Bar., Kab. Labuhanbatu, Sumatera Utara, Indonesia",Ali imran,,ChIJcRxxB7GZLTARM_IJdBCLUR0,0.0,"['lodging', 'point_of_interest', 'establishment']",0,2.1431769,99.7693601
"Jalan karni no 4 desa seu jawi jawi kecamatan panai hulu, s, Kab. Labuhanbatu, Sumatera Utara, Indonesia",Rumah aditia,,ChIJ6YhXzDydMjARmhI_dMcW8mw,0.0,"['lodging', 'point_of_interest', 'establishment']",0,2.4984228,100.1131343
"HM93+M63, Jl. Kapten Zubit, Aek Kanopan Tim., Kec. Kualuh Hulu, Kabupaten Labuhanbatu Utara, Sumatera Utara 21273, Indonesia","Aceh, singkil",,ChIJ9Yynb8hxMjARQudH3MMUO4Q,4.0,"['lodging', 'point_of_interest', 'establishment']",2,2.5691283,99.6530525
"7R8M+JXJ, Marbau, North Labuhan Batu Regency, North Sumatra 21452, Indonesia",Rumah Rizky Marbau,,ChIJT-LMMACdLTARJIjE8C7i3Os,0.0,"['lodging', 'point_of_interest', 'establishment']",0,2.266589,99.83490409999999
"9QXR+WFC, Unnamed Road, Bandar Selamat, Aek Kuo, North Labuhan Batu Regency, North Sumatra 21455, Indonesia",mertua awak,,ChIJJ04WEZCHLTARZ44ceFN6vwg,3.4,"['lodging', 'point_of_interest', 'establishment']",5,2.3998221,99.7911268
"Jl. Gatot Subroto No.35, Cendana, Kec. Rantau Utara, Kab. Labuhanbatu, Sumatera Utara 21411, Indonesia",Hotel Cemara Rawu,"[{'height': 4032, 'html_attributions': ['<a href=""https://maps.google.com/maps/contrib/102837692071638679714"">A Google User</a>'], 'photo_reference': 'AUGGfZlnApLO58LcVp8bwjyoczzPGfF35rmUKj6M89qSZEdkGTMAnQ70btQgB_-7EjOE2HUgisroTFZrRwOyNumGEadY--O7FgT9SngUoi5yWG0A5a3q1HY3OgFHxdAacBUaNpjDFinKTcQOrLwSwK3qCLsOyxTOr5Erbnwt-CsjycSuJnuw', 'width': 3024}]",ChIJsyfefHyhLTAR26hCmyshmfE,0.0,"['lodging', 'point_of_interest', 'establishment']",0,2.1001752,99.8230695
"Jl. Jend. Ahmad Yani No.46, Kartini, Kec. Rantau Utara, Kab. Labuhanbatu, Sumatera Utara 21411, Indonesia",Guest House Bu Ade,,ChIJrQptP-mhLTARwu8DGZIULcA,0.0,"['lodging', 'point_of_interest', 'establishment']",0,2.100139,99.8303792
"JPMM+66, Rawa Sari, Aek Kuasan, Asahan Regency, North Sumatra, Indonesia",SD sukak ati,,ChIJLw2mc1tlMjARkY2Dl4fy114,0.0,"['lodging', 'point_of_interest', 'establishment']",0,2.6331036,99.7330387
"Jl. Jenderal Ahmad Yani No.176, Sei Berombang, Panai Hilir, Kab. Labuhanbatu, Sumatera Utara 21473, Indonesia",YUSUF ELFA SAGALA HOUSE,,ChIJ5bK6UaKRMjARCQuxq6PT8IY,0.0,"['lodging', 'point_of_interest', 'establishment']",0,2.6103107,100.1245329
"Jl. Balige Jl. By Pass, Pd. Batu, Kec. Bilah Hulu, Kab. Labuhanbatu, Sumatera Utara 22316, Indonesia",424,"[{'height': 3024, 'html_attributions': ['<a href=""https://maps.google.com/maps/contrib/100996374193866809767"">A Google User</a>'], 'photo_reference': 'AUGGfZlg4gGpCuPj1ItifqCRjsz0cfKYzymCmChyZSiSotdy5lfgLml_9o7XPTF7MEv0K8zc18jtoIczFhuqXUfWtKiwiFpFb4y9X1IXsSoNfFy2vwsYilDvEvKvIJpnc27wxsOhDe9xNauKSE7uLPHxgIlcZ25mJGXDydzCtRQeeDSnIV2a', 'width': 4032}]",ChIJlbTXeuQBLjARupyHTszFQhM,0.0,"['lodging', 'point_of_interest', 'establishment']",0,2.0664552,99.944366
"4VPG+PRQ, Jl. Tj. Harapan, Pulo Padang, Kec. Rantau Utara, Kab. Labuhanbatu, Sumatera Utara 21411, Indonesia",Setia jadi water,"[{'height': 3096, 'html_attributions': ['<a href=""https://maps.google.com/maps/contrib/114448009319785096936"">anton wijaya</a>'], 'photo_reference': 'AUGGfZliz1XRDo2Ms_S7sVddabsHHF8eVhk4m6pM7pqejfz2iFQKF26SXRcldCkrSbZDFDZuPykdUBhdnGX93XaMHbjWWDtgfGaKBZzDgigyzziUDov1niJRaWxj5op2a-VBBu1Ilaa0LO8T1Qou1PTNafEP7Um-mmBqGZvN2Z_2iOoy_dVg', 'width': 4128}]",ChIJJRphsgqfLTAROP9S2pRuC2k,5.0,"['lodging', 'point_of_interest', 'establishment']",1,2.1368459,99.8771036
"Asian Highway No.25, Emplasmen Aek Nabara, Bilah Hulu, South Labuhan Batu Regency, North Sumatra 21451, Indonesia",HOTEL BULUH PAGAR 4,"[{'height': 1920, 'html_attributions': ['<a href=""https://maps.google.com/maps/contrib/114375526559250180255"">A Google User</a>'], 'photo_reference': 'AUGGfZkSxdMP_ZEYbHGuLZUEz4rUJN_Yb2CYz8AoOvtWnP2GTtPvO-xWAp_OGj_y8buZne64uzJRQLpFFHyvE5QjskyypF0N-viSszwOdUZoPngUQ6fWVTHrBpqq00SVqaM4SBgZ6XsBcW96ZWm8VcozHUG4zx0VmtdKcybCBtDlzs6VVkGx', 'width': 1080}]",ChIJGRB1jkyhLTARG4u5ZOeDGNI,4.2,"['lodging', 'point_of_interest', 'establishment']",22,2.0376031,99.89794189999999
"H842+QQQ, Halado, Pintu Pohan Merant, Toba, North Sumatra 21274, Indonesia",Hotel Marpaung,,ChIJ0ypYNCcFMjARVY5_4XB9OJY,0.0,"['lodging', 'point_of_interest', 'establishment']",0,2.5567231,99.3019745
"3RWM+53V, Jl. Lanong, Kartini, Kec. Rantau Utara, Kab. Labuhanbatu, Sumatera Utara 21411, Indonesia",Hotel Darma Melati,"[{'height': 3264, 'html_attributions': ['<a href=""https://maps.google.com/maps/contrib/112491618539884489361"">Ibnu Lutfi</a>'], 'photo_reference': 'AUGGfZnvDt0tYYxsJKpTzl1qxsFcgQifGqJ3X6LDDC3wfr58A-c-RTm-vL-zbwPVphWPbj4TyYO0_cPcaWNA7LXaAQvRmFzlt-_L7_8k-thYvOIE8W49W7RQH40BAQ-RhUacMk8icFtRsSirWA57JjoKkuGCkMY-ntCAG7H-Aqo4zHzUBBW-', 'width': 2448}]",ChIJOazP5-qhLTAR4XvYqLLDP4M,4.0,"['lodging', 'point_of_interest', 'establishment']",94,2.0954968,99.83265689999999
"H4HJ+6Q, Sei Lumut, Panai Hilir, Labuhan Batu Regency, North Sumatra 21473, Indonesia",Dr.h azuar,,ChIJOcukSEWRMjARVcnqUxZSekc,0.0,"['lodging', 'point_of_interest', 'establishment']",0,2.5784745,100.1312045
"Jl. Kartini, Kartini, Rantauprapat, Kec. Rantau Utara, Kab. Labuhanbatu, Sumatera Utara 21411, Indonesia",Hotel HokBen land,"[{'height': 452, 'html_attributions': ['<a href=""https://maps.google.com/maps/contrib/114286556078877994896"">A Google User</a>'], 'photo_reference': 'AUGGfZmp4lh0zS53pyI7BKWLSgfORnNJBdbK-GDlTgffEcqfjkORGn6cPY2NLbNrfKrh1m3w-9Y2sLq2mpvdCC0jpfPU_6ufspywcEk2QXWgEpjpWjFBbXXppEfFIZXrAvt0jq7QHHQZAVtItFixSEOwxdU_57h1TszmN8Jmrs0p57eYGmUm', 'width': 678}]",ChIJyc1yQJ2hLTARXewZuKRA6wo,0.0,"['lodging', 'point_of_interest', 'establishment']",0,2.0978133,99.83146219999999
"5293+J35, Jl. Aek Nabara - Negeri Lama, Kp. Padang, Kec. Pangkatan, Kab. Labuhanbatu, Sumatera Utara 21462, Indonesia",House of Junaidi Sitorus,"[{'height': 720, 'html_attributions': ['<a href=""https://maps.google.com/maps/contrib/103167190344089251428"">jefrey sitorus</a>'], 'photo_reference': 'AUGGfZlZIM5NKMcnQVVZ8pC9j0WuspQY3o2WQ7zmnCjsFB60HAKG4NrsW98iGpGQDogXGfKCS-pgEV54IhGIjVKH3oTNGToFLXgSNFAzTA7OjVtL0p6xxfsybPHitebQHZnnR8klYaVjcWmZTijYewDZfgJA0RJgTZwm4C1C-7jNZZz6rWHZ', 'width': 960}]",ChIJA35Xc5FzLTARzVqgrdgaKvc,5.0,"['lodging', 'point_of_interest', 'establishment']",2,2.1690398,100.0027038
