formatted_address,name,photos,place_id,rating,types,user_ratings_total,lat,lng
"Lauru I Afulu, Afulu, North Nias Regency, North Sumatra 22851, Indonesia",Afulu Retreat,"[{'height': 1808, 'html_attributions': ['<a href=""https://maps.google.com/maps/contrib/106825168603121414297"">A Google User</a>'], 'photo_reference': 'AUGGfZkCXRuz_X0Yly_3RzdKO8salcmPoser5921ntjETLP9M-5PeiEXE_BdI2iO3q15Xl0LQvNkgNH_YcBOFT9MEk2IRdPwi-Od-Rbfxg8-w12O8U6ozHe4QMx21ajWA_DOLywTIotTHMLMUk8e4hCsrRK1u-iM7Pa9mbXhhvLHffYLxeRc', 'width': 1080}]",ChIJ_yUorjzXJTAR2yoktfVOCDM,4.6,"['lodging', 'point_of_interest', 'establishment']",36,1.2639338,97.2334647
"Afulu, North Nias Regency, North Sumatra 22857, Indonesia",Pantai Afulu Nias Utara,"[{'height': 3120, 'html_attributions': ['<a href=""https://maps.google.com/maps/contrib/116415308420929081046"">A Google User</a>'], 'photo_reference': 'AUGGfZkg71nE10tXjFZgLGvwfl3nSAOFd7nwqf5D9qZLRbQ75dwZsoM1vlGuhuT-uYvwhcX9Jx-O9zI31AuQU5pQFzWTKAWMHKV3CAyWeVAoh5pOWrXsm0RHHrp-oIfZ4zY3_o1gW2zm8RhmcypxelzSPS6APjhYb842B122N-Ege_7yryj6', 'width': 4160}]",ChIJ250AvT_XJTARytNfUuKgBYg,4.2,"['lodging', 'point_of_interest', 'establishment']",17,1.2613618,97.2422081
"76F4+3QV, Ombolata Afulu, Afulu, North Nias Regency, North Sumatra 22857, Indonesia",Afulu Bagus Surf House,"[{'height': 720, 'html_attributions': ['<a href=""https://maps.google.com/maps/contrib/115346660082151937089"">A Google User</a>'], 'photo_reference': 'AUGGfZnTqKvGz0pOcNYvjmj86nZ0Dq6Qi8ud-dnISEMinuJshmq9o1Xfx1rFEMWmZploAYwDvYcPvVosxFbHZyWThK5zxTRgBxdBPHO0nNn6LIzN1HbrlpDCiUtR-uexm-Q751wyVhRwWYxAHl-0akB4I1h2HM-2G-L5fFBIA1Md4eR0mSaY', 'width': 960}]",ChIJl2OkaQjXJTARrR1rE7323EQ,3.0,"['lodging', 'point_of_interest', 'establishment']",2,1.2727449,97.2069123
"869Q+JX2, Jl. Afulu, Lauru Lahewa, Kec. Afulu, Kabupaten Nias Utara, Sumatera Utara 22853, Indonesia",Firman zalukhu,"[{'height': 2448, 'html_attributions': ['<a href=""https://maps.google.com/maps/contrib/104659353492927882121"">A Google User</a>'], 'photo_reference': 'AUGGfZlRUPx23ctUqRP1hlkrgQ5PbnV1KfQPqaN2eNRCjM24wpkZ0KGEDeG4vjefTVaUbr0bNY-D44W_EJDGlMPVNpPXUt8vrfvb9Uy_m1NeCkicjbKnbYtzPffsSKL97WoHroXy9d7IfcV0AgG6ydu8ynGpni18JxtVMv4j5Xogije7hJhc', 'width': 3264}]",ChIJLcvQF4bRJTARZYLc7vHQt7E,0.0,"['lodging', 'point_of_interest', 'establishment']",0,1.319018,97.2398987
"77F5+W6, Afulu, North Nias Regency, North Sumatra, Indonesia",Pak.vidar zega,,ChIJbUUU5gfXJTARPpwDtMtOJFQ,0.0,"['lodging', 'point_of_interest', 'establishment']",0,1.2748212,97.25805729999999
"7683+JWP, Lauru Lahewa, Afulu, North Nias Regency, North Sumatra, Indonesia",Turembana Cape,"[{'height': 500, 'html_attributions': ['<a href=""https://maps.google.com/maps/contrib/106875730511170087502"">musliono mellynia</a>'], 'photo_reference': 'AUGGfZmcU8y51OSkWOeesZ6LzUpFinhxzxdxWDpd0Qk3O4aSXnWDOnrZWmHJVVybnlaleLTaJmRAGJVW9LZ8QNY5bItRIba0YkDLKAej3fEXU1R1mA4Z2XCL5E3sJuMR4RfvXehL15RvbIugek7OG2Ej6LfwpEu5Jwkyy0o5_vcdQ9V9cvrC', 'width': 375}]",ChIJ7Td3ecbWJTARxLNCrchwKp8,3.7,"['lodging', 'point_of_interest', 'establishment']",3,1.2665895,97.2048265
"Jl. Yos Sudarso Ujung No.43, Ombolata Ulu, Kec. Gunungsitoli, Kota Gunungsitoli, Sumatera Utara 22811, Indonesia",Kaliki Resto & Penginapan Jokowi di Nias,"[{'height': 4053, 'html_attributions': ['<a href=""https://maps.google.com/maps/contrib/116837663076498868065"">A Google User</a>'], 'photo_reference': 'AUGGfZnKPYbXaflFgMzC8CU9bpodcd2Pqi7eDHBlG1f32eQUhD6EVkwfZaOXNXKbsNCBGD066nDPFqwhYMIuZ8RnCUyXJInGPK_m2PKWyLe2EzgXUTOkrOjmMi2L6OY2nbgWG7rNXnzggjb4fTyYEilpz-perWeyyGTHXcb9St7LVqalM7to', 'width': 6079}]",ChIJ7ZQdnNTkJTARalWR8TVsqdg,4.5,"['lodging', 'point_of_interest', 'establishment']",826,1.3115065,97.6096907
"Jl. Pangeran Diponegoro No.432, Miga, Kec. Gunungsitoli, Nias, Sumatera Utara 22815, Indonesia",Hotel Soliga,"[{'height': 3024, 'html_attributions': ['<a href=""https://maps.google.com/maps/contrib/110019408554858741108"">A Google User</a>'], 'photo_reference': 'AUGGfZn_tbpEZ5YuabdN31IhbG86YETgR0mus9O4-qwEneu5bfCZXQrB27TuksGfpans_ae-h4UABwbxhNzWSzerJnN2n85wyeuAZ6kdfliYbOYuzl8AxjzNMNEFE4Bexn4AKZJ6FUx2Hj8KpZM6DtKXZNUSx0_CNexo6__GB5VimEaeLIXq', 'width': 4032}]",ChIJBaj1fkjjJTARSpOKZhdveOE,4.1,"['restaurant', 'food', 'lodging', 'point_of_interest', 'establishment']",411,1.2629184,97.63839879999999
"Jalan Raya Pelud Binaka km.8 Desa Laraga Luaha Laraga Gunungsitoli Selatan, Luaha Laraga, Gunungsitoli, Kabupaten Nias, Sumatera Utara 22851, Indonesia",Mega Nasional Hotel & Restaurant,"[{'height': 4480, 'html_attributions': ['<a href=""https://maps.google.com/maps/contrib/104506680200844824137"">Mega Nasional Hotel</a>'], 'photo_reference': 'AUGGfZkiP0d7fORmwDK2FmM3ONDI-getiKk_vImwkyJIHjWDL6tvt_1x4jCP67dPDXqrriWJVQYbwEwihbhqGOXXMU5R8KQ7UEgwujEgB0cGyGwlEKB9luwYbNYUkUlfiNo0J12ukTGGboPpQAv-R_8vGM5oVGAKX5lU1t6HNsozF7OHbDPh', 'width': 6720}]",ChIJuwcl2QH9JTARDbVSM65sFgc,4.1,"['lodging', 'point_of_interest', 'establishment']",144,1.2395491,97.65097689999999
"Jl. Kelapa No.55, Ps. Gn. Sitoli, Kec. Gunungsitoli, Kota Gunungsitoli, Sumatera Utara 22815, Indonesia",Hotel Nasional,"[{'height': 2250, 'html_attributions': ['<a href=""https://maps.google.com/maps/contrib/118010267548172885847"">Nasional Hotel</a>'], 'photo_reference': 'AUGGfZlAoyQhYa195Tg1WbqiJ_-qwiK90RXzyVIYczrIAUEY0-6VPc9tLMNKd0oFe3JSBnDOMOX9DfwIiTGyI2EQsb7VNs-uP_ACJwWluQFGAi3acXL9no7AinLUVY0V0Pwq04wGMQtjL-_lhQZUDuDlPAnGJNLsOqhk1g-NAuvMt8DJ5HsI', 'width': 4000}]",ChIJg_Zkxlr7JTAREcM_J1pchwI,4.0,"['lodging', 'point_of_interest', 'establishment']",605,1.2864366,97.6245225
"Jl. IR. Soekarno No.22, Saombo, Kec. Gunungsitoli, Kep. Nias, Sumatera Utara 22810, Indonesia",Tundreheni Hill Hotel And Restaurant,"[{'height': 1080, 'html_attributions': ['<a href=""https://maps.google.com/maps/contrib/107044133266455888968"">Nura Sombolinggi</a>'], 'photo_reference': 'AUGGfZnyjd3_0o1ve3iTjPtm4cJsZ3kDB8mldNDFbux1h4by33ciDeqyfGbOT3I95qHUZEIp84yAWMwT6XJThbj7YVtUQxyf61RY2dpaDeKPmHaM5PsceLvKkRF3BdaIc6rtaSqIxnW1VwqlSUPu1udd3Av0Qd2g_tOmM6f0tlq9GPOODVLO', 'width': 1920}]",ChIJaZ2hn_r7JTARFRjGKix9ISQ,4.8,"['restaurant', 'food', 'lodging', 'point_of_interest', 'establishment']",76,1.2887885,97.6170405
"Jl. Yos Sudarso Ujung No.134-A, Iraonogeba, Kec. Gunungsitoli, Kota Gunungsitoli, Sumatera Utara 22812, Indonesia",Museum Nias Lodges & Guesthouse,"[{'height': 1536, 'html_attributions': ['<a href=""https://maps.google.com/maps/contrib/100179884261485150672"">Henra Saputra</a>'], 'photo_reference': 'AUGGfZlWR-msSpDefFKdNHc1Bgf1Prnz8xjfe23pW6GHatkoxnHegwRXUzJYVExUvY_8xlgohlFSLF6Zy-brmQGrod662N9Bu_UfO57gg-HbKdhHMSfskiEcWHyZKK8BmSHNfTtqnKhOYpJHyyh5-FoiZ44_KrFvyxjlzmQjhCDwRAR_WOzP', 'width': 2048}]",ChIJi-oV9srkJTARMYhhi0IX-CY,4.5,"['museum', 'lodging', 'point_of_interest', 'establishment']",1551,1.2986655,97.60804530000001
"7JFM+72H, Ilir, Gunungsitoli, Gunungsitoli City, North Sumatra, Indonesia",Sthree Hotel,"[{'height': 1920, 'html_attributions': ['<a href=""https://maps.google.com/maps/contrib/117524100005377192097"">Isnaeni Sutanto</a>'], 'photo_reference': 'AUGGfZmWBuF-L_wt_93NMChrRreOZFI7lThLUCa8FRXRoYtSPqiOMvxKN6VqmBfngcujHsASv1rh0lJ19nQuiIsJKS0Ei09JLqcgWL4Syy2RbR4T1GVq8s8CYbqpY63ru6V0b0HHuNQ95WQA6VBJ3MS30M3kvZb8IC4WUjN2kNjeXCGl1MY6', 'width': 4160}]",ChIJL-Nu-aH8JTARyT3geI6Cwn4,4.1,"['lodging', 'point_of_interest', 'establishment']",361,1.2731834,97.6326165
"Jl. Moh. Hatta No.42, Kel. Pasar, Kec. Gunungsitoli, Kota Gunungsitoli, Sumatera Utara, Indonesia",Nias Palace Hotel,"[{'height': 2250, 'html_attributions': ['<a href=""https://maps.google.com/maps/contrib/110593378195056063475"">azhari</a>'], 'photo_reference': 'AUGGfZnCZg9UgK6OMs-19dPTKHd8vMT7T2S6oBXLPKJEfcT9fCs8A9NULa39ZchoYeaAtxG3WrNDDa0jjC3HAOHr2BF6n9UPQPm_rOmhnOG_JxphPsElJV6Jxoau63M_OagwJ9_OjQ_j9gSj9hYS99ONucg3drkFndnJr7369eWA2Hqf86mJ', 'width': 4000}]",ChIJFff1kE37JTARS1PenKpCV2g,4.0,"['lodging', 'point_of_interest', 'establishment']",185,1.2880346,97.614948
"Jl. Diponegoro No.507, Fodo, Kec. Gunungsitoli Sel., Kota Gunungsitoli, Sumatera Utara, Indonesia",Miga Beach Hotel,"[{'height': 1860, 'html_attributions': ['<a href=""https://maps.google.com/maps/contrib/102842886855591499299"">Agus Irawan</a>'], 'photo_reference': 'AUGGfZlU1gq3bWSSUtNIOo9r7wPdjIFGG6AvFtcsTefA0pJlA8-Utl7DvljDY6vYDsVAju35VRmmgn6E8aaLuHvgiZFGZyO2my8xPCTe7rkpXuvNhu0BsOZVknmb4n2DPExpOCSq8_7Ve0MBn8_Pyfs-DX5VvL2zGug-u7YwqKZn2855ulfO', 'width': 4032}]",ChIJCdrXauz8JTARVHjAPOqMEsM,4.2,"['lodging', 'point_of_interest', 'establishment']",315,1.2551969,97.63963310000001
"Jl. Yos Sudarso Ujung No.Km. 3, 2, Ombolata Ulu, Kec. Gunungsitoli, Kota Gunungsitoli, Sumatera Utara 22811, Indonesia",Dian Otomosi Hotel,"[{'height': 3456, 'html_attributions': ['<a href=""https://maps.google.com/maps/contrib/116911691550831376482"">joko suwarno</a>'], 'photo_reference': 'AUGGfZnGRItePR5S8t45I88hyfgh6de6sidY-Nwn2KqtU-PwQAUipqNIWKuxNGunQF7dKikUbFFVkeB8Pe-cOGoHLZt8nUucTfO1jlZ3GSwflOTD6KmNGpnVArTofdJbD5FpKm2UQjgmlR-2PnFl1_rACNLDwa1Oj1uLaw7PaZVMNDJKV9v2', 'width': 4608}]",ChIJReYdStTkJTARbilNjX9Ir90,3.9,"['lodging', 'point_of_interest', 'establishment']",108,1.3137076,97.60710689999999
"Jl. Diponegoro No.103C, Ps. Gn. Sitoli, Kec. Gunungsitoli, Kota Gunungsitoli, Sumatera Utara, Indonesia",Libi Hotel,"[{'height': 3024, 'html_attributions': ['<a href=""https://maps.google.com/maps/contrib/100122280575213673049"">Lilys Nias</a>'], 'photo_reference': 'AUGGfZltR5KpXJtqMLiDJ0AGk61E-hKLL0SeGqh9hJN-LpkuzltsvKtYQP8dzgeNBt15QZ7fl7tkepaMB3hocLB6NK1VUsvM1TNItCqMaa5bwtu8hMmjR7ddZ0kQNe5F1EABYcbf0iE4Qle4wWlovNMKUTHM6X8UcePUItZIUNMoG2c0xuWM', 'width': 3024}]",ChIJl2tdq1r7JTARRnvAGDSJtSE,3.8,"['lodging', 'point_of_interest', 'establishment']",161,1.2872985,97.62263329999999
"Tab, Jl. Diponegoro No.391, Sifalaete Tabaloho, Kec. Gunungsitoli, Kota Gunungsitoli, Sumatera Utara 22811, Indonesia",Sangehao Hotel,"[{'height': 960, 'html_attributions': ['<a href=""https://maps.google.com/maps/contrib/117716247014832204904"">Darius Zebua</a>'], 'photo_reference': 'AUGGfZnUnroLsGxfLdNeE4XzDEIZBMkATkyIf6FDWvZKp_LP8nk0m3eXv_L8YkA5w4vucQEuD5jE_4viF4sXNigo6Lrf9vKLkgTU87rHdG4GoEXVGyMx9xM8dZiu9Bvtwm2Tt2OlKPBLTRvx3J0mB6zujx0Syst2h7tm6BYwXFpBthKmxYwz', 'width': 1280}]",ChIJNzwRvpj8JTARK9PUiVOuuRc,4.3,"['point_of_interest', 'establishment']",53,1.2715503,97.63436089999999
"7JJG+XMH, Jl. Diponegoro, Ilir, Kec. Gunungsitoli, Kota Gunungsitoli, Sumatera Utara, Indonesia",Hotel Ocean,"[{'height': 3264, 'html_attributions': ['<a href=""https://maps.google.com/maps/contrib/116560898679480330786"">A Google User</a>'], 'photo_reference': 'AUGGfZlx_fvTM2vpApVpRBTQutm_obswEFQHykfDVWI-mlirvPu97ijxHGCWEtVK3189NUYAiUvUf-V4MxssbxvkrTt7aeBYO1PDN-L6tyiuX_QAbzCnV6cTiGwyqIYEMHY_-Q8PoM_ESzCwmraz0JulwpCp8_lDzw5K9bw_iMp3PXzWiu0K', 'width': 2448}]",ChIJYd2kWFn7JTAR5u838pScJhw,4.1,"['lodging', 'point_of_interest', 'establishment']",61,1.2824686,97.6267616
"88PG+73, Lukhu Lase, Lahewa Timur, North Nias Regency, North Sumatra, Indonesia",PUSKESMAS,"[{'height': 1872, 'html_attributions': ['<a href=""https://maps.google.com/maps/contrib/109984746139190237062"">A Google User</a>'], 'photo_reference': 'AUGGfZmOZ5NzwKie58apTdF756MxV6AyXOFukKYqexuDqdAcS1WhpJ3puBL8r81ktaCiJ18wr-jUCJl-PwkyYaUQmxDiBKsUFvdbq_ioftWXjHV_26FUvtD9eHbE_UYQ6MyPjsHmm7ev9SSeaz_arrXwGhgOpPJjL1eH_8PlzxEQkuYkp9uH', 'width': 4160}]",ChIJ14k9oynbJTARXHf22KNvkvc,5.0,"['lodging', 'point_of_interest', 'establishment']",1,1.335654,97.32515599999999
"9892+5PQ, Unnamed Road, Lahewa Tim., Tugala Lauru, Kec. Lahewa Tim., Kabupaten Nias Utara, Sumatera Utara 22851, Indonesia",Adents Zaluchu Home Stay,"[{'height': 1080, 'html_attributions': ['<a href=""https://maps.google.com/maps/contrib/103428485851178318110"">Estomihi Simaremare</a>'], 'photo_reference': 'AUGGfZl1nHp6Lrx9SoSPnOqIlKXv3y1-Faf_cVY9JdGRwJmNyuc9tHw8uIkv62ULENwQrc4vBpYDLc86sSvsUl1xkWrmyNZ7LOn88BtxwXNbaXMlmm4trFrQed2Jps1elMlnpiV4_yDnUlvGfro0hj-gBjj3aNY9z-T1c3PIHgcTp4avYgHS', 'width': 1620}]",ChIJEdwlOSTFJTAReiw_BuhEavQ,3.7,"['lodging', 'point_of_interest', 'establishment']",12,1.3679479,97.30185929999999
"99Q5+M42, Lawira Satua, Lotu, North Nias Regency, North Sumatra, Indonesia",Hotel,,ChIJZQrrHnbDJTAR0SiNc5fj7wA,0.0,"['lodging', 'point_of_interest', 'establishment']",0,1.3891445,97.3577578
"86P4+35, Iraonolase, Lahewa, North Nias Regency, North Sumatra, Indonesia",Yaniati Lase,,ChIJq4_NewDRJTAR46s5-7xb8eg,0.0,"['lodging', 'point_of_interest', 'establishment']",0,1.3348341,97.204219
"CCC8+QHP, Ombolata Sawo, Sawo, North Nias Regency, North Sumatra 22852, Indonesia",Rumah Ridwan,,ChIJ8WshGinDJTAR8mQx5pQnsUw,5.0,"['lodging', 'point_of_interest', 'establishment']",1,1.4219626,97.4164591
"GC24+29G, Jl. Arah Gunungsitoli-Lahewa, Seriwau, Kec. Sawo, Kabupaten Nias Utara, Sumatera Utara 22852, Indonesia",TALUGAWU Beach TGS,,ChIJvSouP1_BJTAR5oqQylBEFLY,4.0,"['lodging', 'point_of_interest', 'establishment']",1,1.5000578,97.405963
"Sorake beach Kec.Luahagundre Nias island, Sumatera Utara 22865, Indonesia",Hotel Toho Nias,"[{'height': 1377, 'html_attributions': ['<a href=""https://maps.google.com/maps/contrib/105264376625517336183"">Hotel Toho Nias</a>'], 'photo_reference': 'AUGGfZmbnCkhNXi0wLzBMYcuF17F7lc3UqSjUn3JTs5yclAC0wyFc72AqepMfpjNgygUEd250QKqydIVea41ocbPu4uHkwSZH9r5bSKhURrBNS9eMU4eKxPuO0hwHs7LK2fWasykug4lhq-_RiGSkjpCLNBQFgGEW2lcKkTozvC0hvKmhGlE', 'width': 2448}]",ChIJI4IDxox_KDARWZxkFLlHqz8,4.6,"['lodging', 'point_of_interest', 'establishment']",32,0.5737778,97.7318341
"HPJM+36V, Tlk, Lagundri, Kec. Tlk. Dalam, Kabupaten Nias Selatan, Sumatera Utara 22865, Indonesia",Harus damai inn ( Lagundri beach ),"[{'height': 4160, 'html_attributions': ['<a href=""https://maps.google.com/maps/contrib/103660190760237184861"">A Google User</a>'], 'photo_reference': 'AUGGfZkuk3HE8xuOvohdRmpLPh3Jq3QjG_hAOAMinW7_FkJ1jfSmlMNmxUw46LIKwlBt4Ev_a4mf3MKUCGUfCPACK-5Z3sRIcTe3J98PuXhiFGX4tqiOZp_2l0lTkjs2TfqpzT7hj6dOKl-r0vfGrQNxGWgU3tvypDbaibCI15AnvDqZ1Tu2', 'width': 3120}]",ChIJjQqi8NzUJzARMhwk-BTsdBA,4.3,"['lodging', 'point_of_interest', 'establishment']",216,0.5801993,97.7329919
"C336+6G7, Hili Gawolo, Lahewa, North Nias Regency, North Sumatra, Indonesia",Kuburan rohingnya,,ChIJvYm2WwAzJDARr3euNQeAKec,5.0,"['lodging', 'point_of_interest', 'establishment']",2,1.4030349,97.0613085
"Arah Awa'ai, Jalan, Afia, Gunungsitoli Utara, Gunungsitoli City, North Sumatra 22851, Indonesia",Hela,"[{'height': 3120, 'html_attributions': ['<a href=""https://maps.google.com/maps/contrib/109378788526752830165"">A Google User</a>'], 'photo_reference': 'AUGGfZmEirTSu_aXaFbW47Ezp_PytSAYlMFaJW55aLZp8V6-_V3co_sQTOCN1l9shNEbXFGEdQyk1L7K1CsTkAGUVee8vfwt6hNHn2WjBf7cPEPFiNLQg_xr38zZ2S5wFwfW2Gf0HfsG6fUIBEYczvW6RUNORj-s1TI7aj9e58gvwjjM05oh', 'width': 4160}]",ChIJC_hyDWTpJTAR7vSOeh6RqWk,3.7,"['lodging', 'point_of_interest', 'establishment']",3,1.3808386,97.5229663
"Onolimbu, Lahomi, West Nias Regency, North Sumatra 22863, Indonesia",barang,,ChIJYxILzbUTJjARFLrWiNLTsyM,0.0,"['lodging', 'point_of_interest', 'establishment']",0,0.9949840000000001,97.50577369999999
"2F2V+HHJ, Onolimbu, Lahomi, West Nias Regency, North Sumatra 22864, Indonesia",Tokosa Hotel,"[{'height': 2184, 'html_attributions': ['<a href=""https://maps.google.com/maps/contrib/104577246201111444077"">frans lewio duhe harefa</a>'], 'photo_reference': 'AUGGfZmhR79mTMv--xmePc8Wc8BRL-j1VIm3i9wG19BFEsE9VrY4gpXwK_lZ2cZSRCOFXWjbNL606lrDB2j_ilegxacjA74awXws7ak0icHlmG2Gp1txel_fjcr7heZ4PQIxx3E-uc5DC3bYqLB7M9a8RlNNilUY_58pnJd_pUuI8DCiGWRf', 'width': 4608}]",ChIJjYrKkLoTJjARGnyFcJjrz54,3.9,"['lodging', 'point_of_interest', 'establishment']",95,1.0014734,97.4938945
"XFRV+QC8, Onolimbu, Lahomi, West Nias Regency, North Sumatra 22864, Indonesia",Gres,,ChIJ0ydLpSYTJjAR035YtT-KBnE,0.0,"['lodging', 'point_of_interest', 'establishment']",0,0.9919108000000001,97.4935794
"9G7P+Q5, Gawu Gawu Bouso, Gunungsitoli Utara, Gunungsitoli City, North Sumatra 22853, Indonesia",Ama Feni Kawaigi,"[{'height': 4080, 'html_attributions': ['<a href=""https://maps.google.com/maps/contrib/117744365633632776354"">A Google User</a>'], 'photo_reference': 'AUGGfZnTrqmzKLJwZV504woDYgk_Rxuw_N3sddM6O1uW5Q97C4T-0Bh1ourHluly1I73D2NPMY5KTZgKtZ-akEiWQkojQ0AY6XS2Mo_BkNFsxDHpQHoLuSjAj4RMAhSMhi0uTFaeAhkXIhzyqL7VNnZoy6nOLnyxaYcS4Q7yKU0vPTtyIBTS', 'width': 3072}]",ChIJJSKbObPvJTARbaoZv4eCJnk,5.0,"['lodging', 'point_of_interest', 'establishment']",1,1.3644895,97.53547069999999
"XCV9+CC9, Jl. Fabaliwa - Sirombu, Togideu, Kec. Mandrehe Bar., Kabupaten Nias Barat, Sumatera Utara, Indonesia",Johan Aja,,ChIJD7dIKQBtJjARzLgchfrX8zE,0.0,"['lodging', 'point_of_interest', 'establishment']",0,0.9935263,97.4185638
"5H3V+9GH, Fulolo Lalai, HiliSerangkai, Nias Regency, North Sumatra, Indonesia",Rumah william,,ChIJX034COYJJjARm5g7Yt08UU8,0.0,"['lodging', 'point_of_interest', 'establishment']",0,1.1534234,97.5938707
"9G8H+8WQ, Gawu Gawu Bouso, Gunungsitoli Utara, Gunungsitoli City, North Sumatra, Indonesia",TOWER,,ChIJ1ZMxBwHvJTARDkM3HbSyZT4,0.0,"['lodging', 'point_of_interest', 'establishment']",0,1.365841,97.5298454
"5H94+CHP, Hiliwaele II, Botomuzoi, Nias Regency, North Sumatra, Indonesia",Rumah Fidel,"[{'height': 1080, 'html_attributions': ['<a href=""https://maps.google.com/maps/contrib/110809011540701217790"">A Google User</a>'], 'photo_reference': 'AUGGfZleRsCJsVEOEqAgrXTsnp3ZwXCeI5Kl0WBsblnB0aVrHMwcMPiHyEwWSVXexgclqZ4lGw22dS6_Zf_o9daxSPjWHQgm-kx3GjM_GK3C6yYs_13EwlIcmd2pOG6sPv_AK9Duml8EZINw11nQWhjFC3Lx3s-8gFKCMXgFUZBb61yp41yw', 'width': 1920}]",ChIJW9zGojEJJjARFQhvDmKAU50,5.0,"['lodging', 'point_of_interest', 'establishment']",2,1.1686258,97.5565048
"XF86+QW9, Fadoro, Sirombu, West Nias Regency, North Sumatra 22863, Indonesia",Ama/i.gavriel hia,,ChIJ74fQTgAVJjARTTFEcOkmZ-0,5.0,"['lodging', 'point_of_interest', 'establishment']",2,0.9670101,97.4623428
"7JJ6+9W5, Pasar Gunung Sitoli, Gunungsitoli, Gunungsitoli City, North Sumatra, Indonesia",Ama Lestari Zai,,ChIJHWGxDp77JTARqJM6i-jB5K8,0.0,"['lodging', 'point_of_interest', 'establishment']",0,1.2808747,97.61229290000001
"9GFV+VCH, Jl. Afia, Afia, Kec. Gunungsitoli Utara, Kota Gunungsitoli, Sumatera Utara, Indonesia",Nando/Jun Daw,,ChIJz4KwgiTvJTARrcAFfkmhpkI,0.0,"['lodging', 'point_of_interest', 'establishment']",0,1.3746987,97.5436065
"7JJ6+8VQPs. Gn. SitoliKec, Kec. Gunungsitoli, Kota Gunungsitoli, Sumatera Utara, Indonesia",Ama Candra halawa,,ChIJbcI5f5T7JTARw5kYj5tkXSY,0.0,"['lodging', 'point_of_interest', 'establishment']",0,1.2808635,97.6123029
"6MM2+C73, Luaha Laraga, Gunungsitoli Selatan, Gunungsitoli City, North Sumatra, Indonesia",Ardin laia,,ChIJ98owFQD9JTARXhGzxo3XD2Y,5.0,"['lodging', 'point_of_interest', 'establishment']",1,1.2332291,97.6513186
"JL. P Diponegoro No.189, Ps. Gn. Sitoli, Kec. Gunungsitoli, Kabupaten Nias, Sumatera Utara, Indonesia",Berkemah Hotel,"[{'height': 3120, 'html_attributions': ['<a href=""https://maps.google.com/maps/contrib/114332944559774745950"">Sahrul Gunawan</a>'], 'photo_reference': 'AUGGfZm3y0N73iekFOzpq_4KDLM5W0j5vkERy9XrwCnxNpk_Kgar58lnUzQiYqh_cHPQcmQLwtTIBa3y4TVH-2M5tQVix5D3WZn9QlFbh9lbuHbjLzV3SQTfIbdUOBo-G-XXT_LD4xmc7pT-qsjExJv_Qtnkq2hOJrDNTGN4_cNoDpiJI464', 'width': 4160}]",ChIJ77kV5lD7JTARc6Crx5XvDhA,4.1,"['lodging', 'point_of_interest', 'establishment']",16,1.2845504,97.6252526
"95V9+5MH, Pasar Lahewa, Lahewa, North Nias Regency, North Sumatra 22853, Indonesia",Penginapan Siang Malam,"[{'height': 333, 'html_attributions': ['<a href=""https://maps.google.com/maps/contrib/102794476765103841546"">A Google User</a>'], 'photo_reference': 'AUGGfZlJEK1KlIrRJxLuIAynes09dV4kowG1Px6thlbSGSmykOdR7w80VKdXv38MFsx6CFHSFx7YTiV3FTHIP_2DX3Hu4hDQTXXDlJXmIQma9neyZRZMnXyhrHKMxqoATyW5oh5uzk3XJteIg1xXEvvW2KzRb3a0cm-QuGeC2nbjNdRN_n_k', 'width': 500}]",ChIJbScodYXNJTARl7zfSFzro34,4.0,"['lodging', 'point_of_interest', 'establishment']",5,1.3929453,97.1692424
"FCCX+H9M, Banuagea, Tuhemberua, North Nias Regency, North Sumatra 22852, Indonesia",Pantai Indah Fofola,"[{'height': 3120, 'html_attributions': ['<a href=""https://maps.google.com/maps/contrib/113603115502655720617"">Yarlin Telaumbanua</a>'], 'photo_reference': 'AUGGfZmWwOLMrMofPe2W8QPSYL5PVDuc7pL7eA74s9JyuheBW2y8N6RMuj6oKQyYVbpsFhFzwJwPOFgy4mQIdW7AUW3iuvmiUNJPCTD1C2rXDZnz1WgGGebOAT16rRkQiVyvepet9NPgj2KG3yZQX-FFuz-kD5wrR8bke_uOBySDhq_PYuqw', 'width': 4160}]",ChIJbbZ40IfqJTARS09VIR8hCq4,4.0,"['tourist_attraction', 'lodging', 'point_of_interest', 'establishment']",40,1.471435,97.4484231
"Jl. Ringroad, Sirombu, Kec. Sirombu, Kabupaten Nias Barat, Sumatera Utara, Indonesia",Joy Inn Sirombu Beach,"[{'height': 2304, 'html_attributions': ['<a href=""https://maps.google.com/maps/contrib/101853483002391523724"">gyar banget</a>'], 'photo_reference': 'AUGGfZnoBUKT5DgPEeQwzgxSEdzFLv8WcgKSq-DyigdOH8kZYNh4CbVpzMCJUFY3rAjzT244_VR9ZPdKXTpghDKkoaahrajiAGjZ9m-7HbC9rXsyNzWZJyTNpS5DQFWW_KFLGtn5etUH-fx8XQPwVETZz4Ko83NrWn3mMQPxDfF1VC_nnA3Q', 'width': 4096}]",ChIJySS7bgBrJjARY8tOteanOXU,3.0,"['lodging', 'point_of_interest', 'establishment']",1,0.9562369000000001,97.4107732
"9GPV+HRC, Afia, Gunungsitoli Utara, Gunungsitoli City, North Sumatra, Indonesia",Hotel Charlita,"[{'height': 2448, 'html_attributions': ['<a href=""https://maps.google.com/maps/contrib/113895022406267549098"">romandito mahendrayudha.s</a>'], 'photo_reference': 'AUGGfZn8-P7cvAHTK7ku2wLFswOD8cLpFLcYDbk2CVFRfnghEALS_RLlZo_sQwbHvffY31Ae8WE5_FFW5u6Xiv0b5PXEChvdwXmcqcpcBGGpq76JKh1TlTzTWCTCeRAr_jrtZCNgtyWAmFPFDz5_F1gu-ABBpIT4jjWJNd2GPLf_zSUquNON', 'width': 3264}]",ChIJY2RjRiLvJTARRb01KFIlekA,4.1,"['lodging', 'point_of_interest', 'establishment']",10,1.3864303,97.5445068
"XC27+3R8, Sirombu, West Nias Regency, North Sumatra 22863, Indonesia",MARCO BEACH,"[{'height': 3000, 'html_attributions': ['<a href=""https://maps.google.com/maps/contrib/104322379947843074831"">wahyu pramusinto</a>'], 'photo_reference': 'AUGGfZmKZSdkCM-PjAUOBzGGUDrWq5hBGLQm4Wz5jaMc4LwU_GxPa1t5oJAj1aB8BWn1hcvUXoi4J-QRpaSGnDihOqM-09_4-gVOx0r9_uQYz2PEZWOOt6bdlI-HFVags74pUSQBlLK5bn7fXhe3_Dd0AMe5vuuKkyywJEkmb8Uln3UcKiJ5', 'width': 4000}]",ChIJC0AFH-xrJjARIEJ9Qbjli10,4.6,"['lodging', 'point_of_interest', 'establishment']",30,0.9501782,97.4145648
"WCXF+XV3, Sirombu, West Nias Regency, North Sumatra 22863, Indonesia",Sungai Cinta,,ChIJZWE9ORlrJjARkILPAXSfQd8,0.0,"['lodging', 'point_of_interest', 'establishment']",0,0.9481696,97.42479379999999
"W77C+P9W, Bawosaloo, Sirombu, West Nias Regency, North Sumatra, Indonesia",Sozinhos Surf Lodge,"[{'height': 2268, 'html_attributions': ['<a href=""https://maps.google.com/maps/contrib/111926776541324451524"">Nicolas VANDEPUTTE</a>'], 'photo_reference': 'AUGGfZnJjhuJwGNUuJKOnhLaxATfmtODaV8CkjHgWUziwu1yLxifdfgoK0UANTciRHXPM-u5ahfl2ZCa-CRpQtd3RFM8xxp27wonTH-XLFN6AsVaAR7w1sr7VDQq1izRY2KKsHLlfeyCRShCrJU_utTiGtgCdpWYg6l6WWK7XHUYMsgTPB61', 'width': 4032}]",ChIJGfvieQxoJjARDDqNvMh_cWM,5.0,"['lodging', 'point_of_interest', 'establishment']",62,0.9143637000000001,97.2709675
"Asu Island, Sumatera Utara, Indonesia",Puri Asu Resort,"[{'height': 3113, 'html_attributions': ['<a href=""https://maps.google.com/maps/contrib/116717323161712115698"">A Google User</a>'], 'photo_reference': 'AUGGfZmkjIbK8Ud0lkNaW1Ssy8sr0fEEqJcg4yFZm-gcDZYdvgIWd3lcp_K4c0JAK0XStgSgJ2VgxKSp-_5xQ6pevVuWC0y5V1kpZkcV1Nx5TOCVOdmZq622zw4KgkR-VFro4QvY8pjxJp_rUSoxsB5uBBy6XhXJlkG3wgPmGkkPJEIqouV6', 'width': 5076}]",ChIJc-LcmxpoJjARHBplTo2_Bsg,4.7,"['lodging', 'point_of_interest', 'establishment']",34,0.9074329,97.27790429999999
"Jl. Raya Pelud Binaka No.219, Binaka, Kec. Gido, Kota Gunungsitoli, Sumatera Utara 22870, Indonesia",Gonias Hostel,"[{'height': 4032, 'html_attributions': ['<a href=""https://maps.google.com/maps/contrib/110006084990470567381"">A Google User</a>'], 'photo_reference': 'AUGGfZn2IbyAb97x5l_u9hMQsmY7004UCHWVtvoHSgJU8li3HckUay_MIwXGjEvUvxXrZyEYvDXnRNci8hpkmYiZNaDATlbiqBYHBoyfazdhPo9JqM6gh7Is6W7qKmIu0aqjPQOKVre8sYeqmsVvkm1moUzXLqF4PaaxYG4IHGeVOSkTM7aH', 'width': 3024}]",ChIJd-BzIZEHJjAR0Xei65akJCE,4.6,"['lodging', 'point_of_interest', 'establishment']",74,1.16952,97.6931475
"WGG4+77, Ombolata, Sirombu, West Nias Regency, North Sumatra, Indonesia",Rembo,,ChIJ68EwV_0VJjARr8qgreQN_w8,0.0,"['lodging', 'point_of_interest', 'establishment']",0,0.9256574999999999,97.50565999999999
"WCQ6+PGF, Sirombu, West Nias Regency, North Sumatra 22863, Indonesia",Fathir Beach Barat,"[{'height': 608, 'html_attributions': ['<a href=""https://maps.google.com/maps/contrib/113468846282855520192"">Ofan Torong</a>'], 'photo_reference': 'AUGGfZn_qau3T_KUkO5jcr3vY-85rURo5koHQ8l6Xs_ubatXRYPRTEpo7iJXuCRH_yRb-2skPUAqec7-Xr3dEL2TuvGgvS6G0NrVYDimwsQl4-ZjGycsySUb1EVstkrTW5eVdXk2jVSO0eoeCkWHu5j6Er8-wJhMNGH8b4CSJ8nzfTrzX69U', 'width': 1080}]",ChIJjT76LcprJjAR19pD4tokVgE,5.0,"['lodging', 'point_of_interest', 'establishment']",1,0.9393242,97.41128789999999
"Jl. Sirao No.6, Saombo, Pasar Kota, Kota Gunungsitoli, Sumatera Utara 22813, Indonesia",Hotel Serasi,"[{'height': 4080, 'html_attributions': ['<a href=""https://maps.google.com/maps/contrib/106514612111937672401"">A Google User</a>'], 'photo_reference': 'AUGGfZnDSSgn51iUo7RRwhqLoACqk1WP41sYCovYNp-hKjssUlUzas75kUzophtE1N8sg5Fda4z14RyM7OltCpN6w6yZeS5HkurkoWxvwLWtGTiCBIywEb2fAVn1wykVPEtHF7t0LUAJRbZur2k2gZ5bPWVbItkWZaeK7Ag8VtPEy7dsdrRi', 'width': 3060}]",ChIJBaj1fkjjJTARlVhMVIzwHW8,3.0,"['lodging', 'point_of_interest', 'establishment']",1,1.290322,97.6160005
"Jl. Yos Sudarso Ujung No.82, Ombolata Ulu, Kec. Gunungsitoli, Kota Gunungsitoli, Sumatera Utara 22812, Indonesia",Hotel Masa Kini,"[{'height': 7296, 'html_attributions': ['<a href=""https://maps.google.com/maps/contrib/107080743700213525461"">A Google User</a>'], 'photo_reference': 'AUGGfZkXFbODWcINGYngJsiRNVHnIuMoTf8Z5FGA8No5TUp_1VeUe4uy5Jk8n4lQWF226pExARXzDUKzi8sqq7nbk2t2z6WCtA2j8HBm6XF7w2oGSzx9vlgB9jWZeUweab6peG0er_EaufW5XQcbStQq__aF2w0L7g7VVCfHRLdJDXoWPKxu', 'width': 5472}]",ChIJM0uLnc3kJTAR_Tu4QRzt3y4,4.3,"['lodging', 'point_of_interest', 'establishment']",9,1.3066415,97.6088442
"7JJ7+6R5, Pasar Gunung Sitoli, Gunungsitoli, Gunungsitoli City, North Sumatra, Indonesia",Amir Hamza,"[{'height': 1640, 'html_attributions': ['<a href=""https://maps.google.com/maps/contrib/109601642280485478711"">A Google User</a>'], 'photo_reference': 'AUGGfZnQGM7NPXasVtu_iPD74N3Fkoehh1ZmmP0h-xzZhAVOrVdFpYXdCSrV--aSY-bjVaEmjhqiHivC3zbxf5oJd6KuEDs_i0e9EZagXoMXHBZjSxmZbVtRVBHnrKJOY7XKEmv4iq0K_9xCaAVeh5Gq2nBRIWp94dCuDwDHboS9-viPB_2n', 'width': 720}]",ChIJc_QnqJb7JTARdqxzMWouJmE,0.0,"['lodging', 'point_of_interest', 'establishment']",0,1.2804859,97.6145935
"3MQ9+R92 dusun 2, Sisobahili, Kec. Gido, Kabupaten Nias, Sumatera Utara 22871, Indonesia",Rumah a/i krister hulu,,ChIJR5a9JgAFJjARAKosMf7T2oY,0.0,"['lodging', 'point_of_interest', 'establishment']",0,1.0895077,97.66837559999999
"Pulau asu, Asu island, Kabupaten Nias Barat, Sumatera Utara, Indonesia",Ina Silvi Cottage,"[{'height': 4032, 'html_attributions': ['<a href=""https://maps.google.com/maps/contrib/117321487791929158548"">A Google User</a>'], 'photo_reference': 'AUGGfZmW_tLWdKhJ9f1huiaXigv7Y0luhIdjZ_GvUPYUfxj0Un6vxec4EsN2HHSJ5ZtKgFvBGFRtoaP72QN34b-BjrXMnyMb3r2fCEUb2KvkxKdS0m7miMHhioBJpDtraceL_q1xW-EriW8M9kssF2_fZ3GJN13P_5PrqqIycmiH_FIrOKvu', 'width': 3024}]",ChIJOe7VFxtoJjARgIGsKIvWT4c,4.8,"['lodging', 'point_of_interest', 'establishment']",64,0.9057042999999999,97.2788176
"Gg. Bersama No.55, Ombolata Ulu, Kec. Gunungsitoli, Kota Gunungsitoli, Sumatera Utara 22815, Indonesia",Homestay bang piyan,"[{'height': 1152, 'html_attributions': ['<a href=""https://maps.google.com/maps/contrib/108859321706970197593"">A Google User</a>'], 'photo_reference': 'AUGGfZnCsFHLad6edIxo0y6yfeZZt64r8pmnZwPHIfw-c_vm2cbr20OvkqW7aX9C_HSdrdpkJu9UgXrHzbF0xDwR1EWps7vXmyJ7RcGrr03zGpoT-8FBtvciJQkk_qCBt4CPsiBeZough2CS8oMo9-B35pB3P7qk_J9w1gvPt3plWRbv2QYo', 'width': 2560}]",ChIJL5p3idnlJTAR9D5JH9vg-14,0.0,"['lodging', 'point_of_interest', 'establishment']",0,1.3074399,97.6107344
"7JPF+8WH, Jl. Kelapa, Ps. Gn. Sitoli, Kec. Gunungsitoli, Kota Gunungsitoli, Sumatera Utara, Indonesia",YOSUA Hotel,"[{'height': 328, 'html_attributions': ['<a href=""https://maps.google.com/maps/contrib/108684660199876702266"">Daeli Schein</a>'], 'photo_reference': 'AUGGfZmNk8MaAun7snTPss1z9EYSc5mhG1UpGyD1EQkpMEBmmQSYY3VZsDGjdTiMWrjVvaQfGNx1J8EkzCfOqwcp5o75SFN9ftlLocJYDwQWFMMLkzGujfsrOWKSTg52AoTrgGUvquxpTGczqVg65NpkS5cUckAC3vKwuWeKqyG6BGqWMnJT', 'width': 476}]",ChIJRyIl4lr7JTARkSGQ4ZgOsOA,3.8,"['lodging', 'point_of_interest', 'establishment']",78,1.2858226,97.6248785
"7JJ7+6R5, Pasar Gunung Sitoli, Gunungsitoli, Gunungsitoli City, North Sumatra, Indonesia",Penginapan RD. Boris,,ChIJHQjqYeH7JTAR7947Z_6HtrA,0.0,"['lodging', 'point_of_interest', 'establishment']",0,1.2804859,97.6145935
"8J45+2FH, Ombolata Ulu, Gunungsitoli, Gunungsitoli City, North Sumatra 22811, Indonesia",Hotel Vera,"[{'height': 3120, 'html_attributions': ['<a href=""https://maps.google.com/maps/contrib/110354215039956735496"">Gulo Fatisokhi</a>'], 'photo_reference': 'AUGGfZm-O3nr2C4okdtuC0tTWyehBNrZSDMq17SowvyXwgqYPMS4S5Ms_HGnBfMOu57dTE_rM_rCG_6FCJlUE8HDHUuev8LlyoE0rk1N8OB1fU5snk_1EG2zVNZwvsJpQdX40sAv5PogdLMwEq3nWEYYiRnk7WnYg6vJOxQJv7bloQGja-NW', 'width': 4160}]",ChIJMYm7n83kJTAR1xXgA7tWDL0,3.9,"['lodging', 'point_of_interest', 'establishment']",33,1.3050572,97.6087352
"Jl. Pattimura No.14, Mudik, Kec. Gunungsitoli, Kota Gunungsitoli, Sumatera Utara, Indonesia",Hotel Binaka II Hotel,"[{'height': 4160, 'html_attributions': ['<a href=""https://maps.google.com/maps/contrib/106448934439884497835"">Edison Laia</a>'], 'photo_reference': 'AUGGfZndVviWmNEmsda195dj0njtiX3zzAIm1-4ofZlsCAK4snF2u8XY3fb37q9zVcGTQKz4yDljW-A0moV9QYXTtEyy-dgpyp2cbns3OaToHKGLN3I77brLyHMYYrR0FuCgd36bjFDObc2Q-QFwmbYpC419-ECVhCN7-rC-HJPRnFS8tzB7', 'width': 3120}]",ChIJD1dUEFT7JTAROPpfD-ELIRY,4.0,"['lodging', 'point_of_interest', 'establishment']",149,1.2813841,97.61545230000002
"JL. MAGIAO No.28, Iraonogeba, Gunungsitoli, Gunungsitoli City, North Sumatra, Indonesia",Medan,,ChIJr3y5y9zlJTARA-pjiHMHD50,0.0,"['lodging', 'point_of_interest', 'establishment']",0,1.2925881,97.6097715
"Jalan, Hilidundra, Kec. Lotu, Kabupaten Nias Utara, Sumatera Utara 22852, Indonesia",Penginapan Gratia Lotu,"[{'height': 3072, 'html_attributions': ['<a href=""https://maps.google.com/maps/contrib/109588915291199738824"">A Google User</a>'], 'photo_reference': 'AUGGfZm1sVQ2O1BARNroIm9QZJF3pPOkH7dsEuK2L6C3xl2Otk3B_WoSIu-OW38qRn5B-AM-EUvon70OlKy2vdVOJIrIUYNfE73IpLrvmc7PF7cep2F0z-LFMW_35eyHLA0qd73v8igPjutSYnlXkifSulHvYnQraYEmNbLjS7tPHS4gxbLa', 'width': 4080}]",ChIJb7cnLZvFJTAR0NrhlEGpZx0,5.0,"['lodging', 'point_of_interest', 'establishment']",1,1.3789343,97.3462545
"JL Diponegoro, No. 117, Ilir, Gunungsitoli, Ps. Gn. Sitoli, Kec. Gunungsitoli, Kota Gunungsitoli, Sumatera Utara, Indonesia",Bersaudara Hotel,"[{'height': 2988, 'html_attributions': ['<a href=""https://maps.google.com/maps/contrib/117242104387142750357"">Augus Kurniaman Telaumbanua</a>'], 'photo_reference': 'AUGGfZkiXxuD9gQUKOdkr3QljII28qBaePtFrHJdUWAa5gEYho-fzdCF0NisHLm8st-t97VdLtgEB-ccBi9pdR2Lf4BmRajyEL3kMFHAuFeAb_LiohoegAdhjah8rPnSiBnCj0OAjqTbauX6jwGJIetn1wY6DN_2oIXVkYLT9cRtq6x5jLzm', 'width': 5312}]",ChIJt_JY_lr7JTARpOk-AeKea2Y,3.7,"['lodging', 'point_of_interest', 'establishment']",70,1.2850343,97.6248681
"5P9G+J74, Pulau Nias, Kabupaten Nias, Sumatera Utara 22871, Indonesia",Gowaena Beach,"[{'height': 2448, 'html_attributions': ['<a href=""https://maps.google.com/maps/contrib/113603013023001776534"">Mobil nias. Sanirental</a>'], 'photo_reference': 'AUGGfZkORlvZAybJMYWs-kcWpzOm4tNrRcpkZymnI8P9MU2ibBc3e8h6Imn-Oa-voX353gzg3KQX0hxHiKmtptfEUmBdx8Xa65lhVFykcelH9u0a7Hgg1iFHcqVO2lXSvuCL8a6ODQyUtDux5_AkDp-ZNacSr77XmGUHBm_oqe8EYvXFmnDD', 'width': 3264}]",ChIJv5H_IeQAJjAR9ORSi0oycqc,4.2,"['lodging', 'point_of_interest', 'establishment']",5,1.1690032,97.72571239999999
