formatted_address,name,place_id,types,rating,user_ratings_total,photos,lat,lng,history_and_cultural,nature_and_adventure,entertainment_and_leisure,spiritual_and_architecture,wildlife_and_conservation
"4342+C2P, Kali mapo, Kec. Mambioman Bapai, Kabupaten Mappi, Indonesia",Muara mabur,ChIJFVjSWbaZNmgRlR9xmwNtutU,"['tourist_attraction', 'point_of_interest', 'establishment']",5.0,2.0,"[{'height': 1968, 'html_attributions': ['<a href=""https://maps.google.com/maps/contrib/106131028787274790388"">A Google User</a>'], 'photo_reference': 'AUGGfZkJD_xJXZFdWB5Jo94bD2u5T1jQiQ-rPGtz8-3pSqrosobR09HI-_Pp2KvKggOeZcgSDGJ-H9WvEs9fHIh616oqnOqOUGSuUcFIHNQUlthj9bdmSyAYnDgk7j5x8SN3TAz53u6zbV-6VVvag-WbryFmwcCAMT8G9xyKZ6_GdKSB-4hL', 'width': 4160}]",-6.8939243,139.0500733,0,0,0,0,0
"MJ8C+9WC, Hahare, Kopay, Asmat Regency, Papua 99773, Indonesia",Wisata pemandangan,ChIJ52NKrZ_XMGgRK8mPVGZc7TQ,"['tourist_attraction', 'point_of_interest', 'establishment']",5.0,1.0,,-6.334054399999999,138.6222757,0,0,1,0,0
"X5R2+WP3, Yelobib, Awinbon, Pegunungan Bintang Regency, Papua, Indonesia",Nanum Anaip,ChIJKU6_MCNRR2gRUVz1HHVsi9A,"['tourist_attraction', 'point_of_interest', 'establishment']",4.0,3.0,,-5.0077298,140.1517908,0,0,0,0,0
"W75X+J7X, Unnamed Road, Persatuan, Kec. Mandobo, Kabupaten Boven Digoel, Papua 99663, Indonesia",Dermaga Pelangi,ChIJR_WgxVwNSGgR5IcYI16zEEo,"['tourist_attraction', 'point_of_interest', 'establishment']",3.9,16.0,"[{'height': 3120, 'html_attributions': ['<a href=""https://maps.google.com/maps/contrib/102148895132323444813"">Hasan Thorand</a>'], 'photo_reference': 'AUGGfZllr_xDeZsMV9klkyFf66D6OfqPy72iQ8ybN7bHSwCTcbuRE5Urq2k6uOzZAsWQxLVpwwXDHB73KDHdPTZT2aX_t337wuRXaNpBXfZyyrZ432VNk07M_eFjy3yS8UCh4hSdgwnBO_9boQ_OAEN9urX8S0ZJWsbYcw0WM1cZecxdc5CA', 'width': 4160}]",-6.090880599999999,140.2982292,0,0,0,0,0
"V8W5+HMP, Unnamed Road, Persatuan, Kec. Mandobo, Kabupaten Boven Digoel, Papua 99663, Indonesia",Iwot,ChIJc-GNNfMNSGgRLk9xWbkVi1c,"['tourist_attraction', 'point_of_interest', 'establishment']",3.3,3.0,,-6.1035317,140.30921,0,0,0,0,0
