formatted_address,name,photos,place_id,rating,types,user_ratings_total,lat,lng
"2GM2+8HV, Dung Gading, Bujur Tengah, Kec. Batumarmar, Kabupaten Pamekasan, Jawa Timur 69354, Indonesia",Batu Marmar,"[{'height': 1280, 'html_attributions': ['<a href=""https://maps.google.com/maps/contrib/114308034980027970399"">A Google User</a>'], 'photo_reference': 'AUGGfZnj3DIf4S7OK_D715xGYSoLgbf0z5_YhSt8i0mmY2d2FjXBubuzvzstH2F0EwJzaqJdDocgsdtBvzfOLhbnNVAKr11v5sJcPw-K3EtH5hu6CfvQ3Z0j1qa3XtZgIiCeSWd6Xm3_90CKhNnia5JGY0-1HNeAASHfEtSUAzVVeWRH00Zk', 'width': 960}]",ChIJ2Tgly1rP2S0RAj7UKZlxnzQ,5.0,"['tourist_attraction', 'point_of_interest', 'establishment']",1,-6.9666317,113.5014213
"4G3F+FR8, Jl. Raya Tamberu, Temor Daya, Kapong, Kec. Batumarmar, Kabupaten Pamekasan, Jawa Timur 69354, Indonesia",Sumber mata air kapong,,ChIJ99TuV67J2S0RYDW81idOj_4,5.0,"['tourist_attraction', 'point_of_interest', 'establishment']",1,-6.8963255,113.524575
"2G59+QP2, Trebung Onjur, Bujur Tim., Kec. Batumarmar, Kabupaten Pamekasan, Jawa Timur 69354, Indonesia",Song lesong Bujur timur,,ChIJ5aiRDXHR2S0RzfAdY1TPIVY,0.0,"['tourist_attraction', 'point_of_interest', 'establishment']",0,-6.990620799999999,113.5192793
"3F3C+HP6, S. Tenga, Bujur Bar., Kec. Batumarmar, Kabupaten Pamekasan, Jawa Timur 69354, Indonesia",Sungai Bung Pennaii,,ChIJNUNkKLvN2S0RdaN16sGpVkg,5.0,"['tourist_attraction', 'point_of_interest', 'establishment']",1,-6.946092600000001,113.4717596
"3GP2+5V3, Tamberu Alet Barat, Batu Bintang, Kec. Batumarmar, Kabupaten Pamekasan, Jawa Timur 69354, Indonesia","Jembatan Gantung ""Bong Campor""","[{'height': 3000, 'html_attributions': ['<a href=""https://maps.google.com/maps/contrib/101843360466383993898"">Danan Prasetyo</a>'], 'photo_reference': 'AUGGfZmaUZ9weeJzHBSVVxjN9-o8piIX0KEtamWEpNqCyRLFqrClFxru-XyXhNrTeW8PtKZF7qRla_72oAWNK0rXqaUfkDOtsvtGigteiEGez4PIFIH-EBcQFkcitG8zLwwh7HjzDTBmtb_TS_UrFGjjK0Z-1Vs2oPQmNtPB8rJLpuoW9CJC', 'width': 4000}]",ChIJ5QgiRZfP2S0R6ChGy1nS9Xc,4.3,"['tourist_attraction', 'point_of_interest', 'establishment']",89,-6.9146211,113.5021762
"RHH2+74C, Capak, Pandan, Kec. Galis, Kabupaten Pamekasan, Jawa Timur, Indonesia",Capak Galis Pamekasan,"[{'height': 3000, 'html_attributions': ['<a href=""https://maps.google.com/maps/contrib/100515478241023938466"">A Google User</a>'], 'photo_reference': 'AUGGfZk0Azak6kxQYZoakd0fNXcRyNKIGahJMcL9o3teN4FNl3HBoveXDvVj2Xwmkmcm60LexmtBP5Jx_CBz186AlXbwgUuiOp7wJJC4CREZVb4jEs8czBaa58aDGkFFhOwjEwzaW__KkcejBKwHDNJn4fXBmWdam6KfK4UIV6TAclSU-F5x', 'width': 4000}]",ChIJIWhbJ2J91y0RqLBc_Ao8Meo,4.6,"['tourist_attraction', 'point_of_interest', 'establishment']",58,-7.1718248,113.5502783
"VH56+H4P, Kepo, Polagan, Kec. Galis, Kabupaten Pamekasan, Jawa Timur 69382, Indonesia",Tanah Pemkab,,ChIJow4WYUnX2S0R6Uw-lI0S_yE,0.0,"['tourist_attraction', 'point_of_interest', 'establishment']",0,-7.1412356,113.5606893
"RGGX+HVH, Unnamed Road, Sempeng, Pandan, Kec. Galis, Kabupaten Pamekasan, Jawa Timur 69382, Indonesia",Wisata Tambak Garam Capak,"[{'height': 3000, 'html_attributions': ['<a href=""https://maps.google.com/maps/contrib/106575574578864780434"">herda yeniari</a>'], 'photo_reference': 'AUGGfZmPSgdbCwU0nrl2W2AY4fXp0H16SSLbd7WfYi3DobmeqrLBMU7zDRd6sfi2JuCL3a_D9hFAQjDtovX0jLECH_x2BB6huTm-hSKyJ5yxxMlzjRRdSjeh3Rx9P3S3ZL5j7zF2yd8UNQ1RODpQ-h6EeXSb7DAnZofTbl4g9ynGOCVXCxKa', 'width': 4000}]",ChIJzZ4A6aV91y0RVUn8wOZ25bs,4.4,"['tourist_attraction', 'point_of_interest', 'establishment']",90,-7.173561899999999,113.5497409
"RHQF+CGR, Candi Selatan, Polagan, Kec. Galis, Kabupaten Pamekasan, Jawa Timur 69382, Indonesia",Sunset View,"[{'height': 3084, 'html_attributions': ['<a href=""https://maps.google.com/maps/contrib/117564327915385609455"">mzhendra susanto</a>'], 'photo_reference': 'AUGGfZnAWOE_CzP52pc9GWbqT3zhCaZoTNkO1dbJZNoYzWOmjJUsdIcazG9JLNt4skf4UhiA7BJckEaC1MX_RdHicVG5mtbEEA0_Iz5Wk1k2N7yCiKZyWOQXtvvKQW4INshtghvqMkIsnvA48GCO-7fUDSAwRwgMMs44yNLC_UM1CNL4A-W0', 'width': 2314}]",ChIJgdysm5lj1y0RRoYnPFPsuFk,5.0,"['tourist_attraction', 'point_of_interest', 'establishment']",1,-7.1613754,113.5737687
"RHMF+XFQ, Bangkal, Lembung, Kec. Galis, Kabupaten Pamekasan, Jawa Timur 69382, Indonesia",Ekowisata Mangrove Lembung,"[{'height': 2322, 'html_attributions': ['<a href=""https://maps.google.com/maps/contrib/103487812637245364536"">Shadris Said S Said</a>'], 'photo_reference': 'AUGGfZmcaQmbHoytthUgdCUohFgeqOd-OyWBOS9Rx7QBvLqMprrm8AJiPlDVRRok3JyvPV2p-a4wxG17DfqtnKTI_LRZ_ohzyogrrAKtTcBin9O-Ee2A7wSBntz9YfqF-2btftQypQXeqi10y5xXJRfPz8qyZcjyjh80nckPe7AGbikfepg2', 'width': 4128}]",ChIJp3QZV5xj1y0RTZKtOQEEI6Q,4.5,"['tourist_attraction', 'point_of_interest', 'establishment']",170,-7.165047599999999,113.5737476
"RGHX+2RV, Capak, Pandan, Kec. Galis, Kabupaten Pamekasan, Jawa Timur, Indonesia",Capakhitss_,"[{'height': 1350, 'html_attributions': ['<a href=""https://maps.google.com/maps/contrib/114877140832536360995"">Akbar N</a>'], 'photo_reference': 'AUGGfZkxRK3VU6iehE14p8OoARcZOr9BraZhnDGFTidzDfMgUjvyK3TxdgQPGxgLN5Y2FVwnmFvy4sdbhomNbAGCsDrpAF48CG_fWJiuwlcqzpQYdrudXKVPpcEB43rzwakc7jewSTuqGwHNEYNTRG4hGumTtJ0ic76iflfYVuHLyXcU7loh', 'width': 1080}]",ChIJjW57v9J91y0R3Y3JaJU2Lys,4.3,"['tourist_attraction', 'point_of_interest', 'establishment']",6,-7.172376999999999,113.5495481
"VG3X+7VM, Bulay, Kec. Galis, Kabupaten Pamekasan, Jawa Timur 69382, Indonesia",Budidaya Ikan Nila,,ChIJN4RdygV91y0RmfSb2ah8i1s,0.0,"['tourist_attraction', 'point_of_interest', 'establishment']",0,-7.147077899999999,113.549013
"RGCQ+47R, Area Tambak, Pandan, Kec. Galis, Kabupaten Pamekasan, Jawa Timur 69323, Indonesia",Eduwisata Garam Madura,"[{'height': 3000, 'html_attributions': ['<a href=""https://maps.google.com/maps/contrib/102771184515437010277"">Tutur P. Purbosayekti</a>'], 'photo_reference': 'AUGGfZn6NfbvIaXRJ1TiiBZDgX06eNgdZ1jr6RZ7b2dA4XRZg26jyl96CrsY4sGrM9zimD2vqIXwdFRogHSiBxSSQf8CctaXQrtmFQFtsNiDwc2-LC5tfoDxG3YJ2DLS-a_Fg2mWQKaLIauFvBjFQfJ5Lne5GpFToVfWYgfFyn6gdKnh-Ehn', 'width': 4000}]",ChIJb-oZqMt91y0RC9haZadb0yk,4.5,"['tourist_attraction', 'point_of_interest', 'establishment']",39,-7.1796487,113.5381396
"VH39+WXM, Kebun, Polagan, Kec. Galis, Kabupaten Pamekasan, Jawa Timur, Indonesia",Klp.Tani Jaya makmur,,ChIJ1eevxN591y0RPJXCMUIygxY,0.0,"['tourist_attraction', 'point_of_interest', 'establishment']",0,-7.1451708,113.5699275
"VHFH+FC3, Billa'an, Montok, Kec. Larangan, Kabupaten Pamekasan, Jawa Timur 69383, Indonesia",Kebun Klengkeng Pak De,"[{'height': 1080, 'html_attributions': ['<a href=""https://maps.google.com/maps/contrib/113009431805091689025"">hujjatur rofiq</a>'], 'photo_reference': 'AUGGfZkGUJuA7kNmd2W4aqdpl643L_Y4z29GBdLjISZAGqXN6zOeIOZ7ITP8E99YLBJrwWkQXAO7D_8W4fsEUsLMiGYFrmu2D80J9GWnP9DLlDhVE1enHp2HAGjyIRcreLPH-2NcsxWQW0M2jVPYoqn_ObjkqwI6a5nstOnSv98lwxcyXgd1', 'width': 1920}]",ChIJJQm4GCTZ2S0RKIUmrCYyYqs,4.5,"['tourist_attraction', 'point_of_interest', 'establishment']",4,-7.1263605,113.578538
"RGGX+X23, Capak, Pandan, Kec. Galis, Kabupaten Pamekasan, Jawa Timur 69382, Indonesia",PT GARAM capak pamekasan,,ChIJ7_dKPQB91y0R8D6f5ejfeBU,0.0,"['tourist_attraction', 'point_of_interest', 'establishment']",0,-7.172600800000001,113.5475534
"RG9M+XMH, Bunder Timur, Bunder, Kec. Pademawu, Kabupaten Pamekasan, Jawa Timur 69323, Indonesia",Lapangan Free Fly Pamekasan Parrot Lovers,"[{'height': 3024, 'html_attributions': ['<a href=""https://maps.google.com/maps/contrib/117634355721217454391"">Wirayodda Satrya Hutama</a>'], 'photo_reference': 'AUGGfZlu3KsUASS5tuyxc9AH7WgrQKKRmXg6U621mNdtOZJe9msTXdzkQ_y5eqxxOJNrQKGUgB4NfT2IUq4FzCzyd3bdAVdGxgypPM6-h_HK66D2_jUBYKPmYqnxU-CxA6bxYBb-uNpCP4eAWaq2kWIiRZKhB3_umuTzC5tMQifLiCPdktaN', 'width': 4032}]",ChIJ9aoVewp91y0RS967FrlPrvQ,5.0,"['tourist_attraction', 'point_of_interest', 'establishment']",7,-7.1800516,113.5342373
"Pacanan, Montok, Larangan, Pamekasan Regency, East Java 69383, Indonesia",Wisata Pantai Talang Siring Pamekasan,"[{'height': 1836, 'html_attributions': ['<a href=""https://maps.google.com/maps/contrib/104042048109922527272"">Zuhruf Abdur Rahman</a>'], 'photo_reference': 'AUGGfZnK7-lLaGPH6hS_4_nKyPmDKj3e3F4k_8p5vVaV6iK-Pdeufcht6BwVgzLOT6KgLyaY49z5OAdcIwRBf8z00EF9LpMA-MCArf8P0_ARvqyTV2JD0GxKCjeTOTUOzDsJ24ljOswCMexBLp3BpUvbP5oi5kRUKWrHRbqSk1N8Tsq9TV6N', 'width': 3264}]",ChIJvYEibAnY2S0Rm_yq2s6LRgo,4.1,"['tourist_attraction', 'point_of_interest', 'establishment']",1943,-7.137854,113.589746
"Candi Utara, Polagan, Galis, Pamekasan Regency, East Java 69382, Indonesia",Avalokitesvara Buddhist Temple,"[{'height': 9000, 'html_attributions': ['<a href=""https://maps.google.com/maps/contrib/102771184515437010277"">Tutur P. Purbosayekti</a>'], 'photo_reference': 'AUGGfZn4Cr4IljoiS9UnvnNaWQIE6w5fVo4XaF0oE8eG0UrmngSta6IoFzQYRu6z1_EaTqqRfs5Wdgj-iYzRxI65tUWiLpefIw_EafZ7kG79etxzZYRkyzRw9IFa1UG7Plq7XNAvLZhgfHI9tPyesWXMqBrxgMxooVqol9NluiWPeF684kUl', 'width': 12000}]",ChIJWZuIxBJ-1y0Rm7boqmWi9Bk,4.6,"['tourist_attraction', 'place_of_worship', 'point_of_interest', 'establishment']",374,-7.146831,113.5813505
"Jl. Pantai Jumiang, Jumiang, Tanjung, Kec. Pademawu, Kabupaten Pamekasan, Jawa Timur 69323, Indonesia",Pantai Jumiang,"[{'height': 2448, 'html_attributions': ['<a href=""https://maps.google.com/maps/contrib/116755680118990311433"">A Google User</a>'], 'photo_reference': 'AUGGfZm0ksfy8W0Qid85gzcD3UzlwBW49zvDKRB1VWhm9CtAfC4_lfpekljMkmoWO7FahYAGNWxts1v0qs6yLw5QXj85NRbcDR_qsAyGk5JIjZYo-dxx4Xb5LySrxM4DzJKKIeWJ1mpaAHkLntHEwVv6VFyaL7MzAAtD6gb8N9T3SSSUBBKz', 'width': 3264}]",ChIJXwj-LF171y0R6SC30BkzF04,4.2,"['tourist_attraction', 'point_of_interest', 'establishment']",1533,-7.2335278,113.5514629
"QHV2+4HQ, Binglet, Majungan, Kec. Pademawu, Kabupaten Pamekasan, Jawa Timur 69323, Indonesia",Selat mangunan,"[{'height': 4160, 'html_attributions': ['<a href=""https://maps.google.com/maps/contrib/115523279536463642678"">A Google User</a>'], 'photo_reference': 'AUGGfZmPjGvr0BJFZ39h7m_XDFYCxaRp0GSPT5rxkq2NYCMtmRDUlymjlOmsmXZhF2wGKIHWLOQxh132iEgO_baT2sAuStZcXXWnm54BIaIpi-oaQH28pKK8HG3Kq5Tw3kYN4uXKg0FCEHa2d-rgA1HsSsNHxf3QSd-Hpr1TCOfgJ-BhIXBK', 'width': 3120}]",ChIJ5Qw5LwB91y0RQkb1WkiYadI,5.0,"['tourist_attraction', 'point_of_interest', 'establishment']",2,-7.2066183,113.5517622
"VHV6+R5P, Tangkel 1, Larangan Luar, Kec. Larangan, Kabupaten Pamekasan, Jawa Timur 69383, Indonesia",Wisata Religi Buju' K. Takreman Sumber Sere,"[{'height': 900, 'html_attributions': ['<a href=""https://maps.google.com/maps/contrib/113577227143185501221"">A Google User</a>'], 'photo_reference': 'AUGGfZlhT8QmYCgfmdWYi-xXzJ96InZlhnhTd-dOJaKURRnK1Q2pF1QddlWOPe7S6oZ7hh0OTbR-LZQTze76ZKw5Di-1h7PNdmsRxDOuvoxnPFSRNDEldzXuxc9iy7nFH3td3g3VIFqo2Us5WaqXYYY6jrgG9yXBPvrxYt2rvDkZHW7ah72H', 'width': 1600}]",ChIJ4bwOtzDX2S0RvgjZVvZBXzY,5.0,"['tourist_attraction', 'point_of_interest', 'establishment']",1,-7.1053196,113.5602246
"QG8R+8X, Jumiang, Tanjung, Kec. Pademawu, Kabupaten Pamekasan, Jawa Timur, Indonesia",Wisata Paseser Jumiang,"[{'height': 4160, 'html_attributions': ['<a href=""https://maps.google.com/maps/contrib/110908567628130503626"">MOH TOFARIYANTO</a>'], 'photo_reference': 'AUGGfZnb3JQx7qK0BI2R-qsW8QxU4rs3j83a47rKv2YdOXJgC7THKznzNa_eLkhet5kvdJkH7caDTeJ24LcG5MtT2QXT_pBMoxko_I1lj8rp9JJR6CNyFs71aQGfQNn_6OfsuzkERiwGUiRz9ZWzp4AwSko3A4sOBx_cTENY6ikw6lr5oDaG', 'width': 2340}]",ChIJEbgwxFd71y0Rg91YZ6Edfcs,4.6,"['tourist_attraction', 'point_of_interest', 'establishment']",7,-7.234166000000001,113.5424291
"VHHM+53V, Unnamed Road, Dusun Petang II, Lancar, Kec. Larangan, Kabupaten Pamekasan, Jawa Timur 69383, Indonesia",Waduk Karang Nangka,,ChIJMb4Xl0DZ2S0RPdqnS3UFxe4,5.0,"['tourist_attraction', 'point_of_interest', 'establishment']",5,-7.1219701,113.5827034
"VHMQ+PFV, Unnamed Road, Pul Penang, Sokolelah, Kec. Kadur, Kabupaten Pamekasan, Jawa Timur 69355, Indonesia",Geladak Suramadu,,ChIJFb9dBMPZ2S0RLkGeypA1IUs,3.0,"['tourist_attraction', 'point_of_interest', 'establishment']",2,-7.1156319,113.5886835
"QG3C+MG, Muara, Padelegan, Kec. Pademawu, Kabupaten Pamekasan, Jawa Timur, Indonesia",Muara thelegen,,ChIJG_-VaAB71y0Rtbu9-ygWclw,0.0,"['tourist_attraction', 'point_of_interest', 'establishment']",0,-7.245811099999999,113.5212625
"VG95+922, Jl. Veteran, Barat Dua, Sentol, Kec. Pademawu, Kabupaten Pamekasan, Jawa Timur 69323, Indonesia",Lembah Sentol Regency,"[{'height': 1920, 'html_attributions': ['<a href=""https://maps.google.com/maps/contrib/116232140059872221273"">A Google User</a>'], 'photo_reference': 'AUGGfZkIfGnpI1EcKxw1EqybsNalswo_RjBuTUhMAOamS4-sJBN423gkW9_PS8Vrvt4C6I_vPEip2lDrgCfZFRTFHvkWznrexCqgLrmgnGZwraZ_F-X93q6Tax6lzrnQLmhy9kAj0GVs3A5phaaSU1Xoy_LU_aD3YKKBKPwq96ALjbVooFe2', 'width': 1080}]",ChIJ4ZIFk-bX2S0RZ4DnsSc5s10,3.0,"['tourist_attraction', 'point_of_interest', 'establishment']",2,-7.1316212,113.5075266
"Laok Tambak, Padelegan, Pademawu, Pamekasan Regency, East Java 69323, Indonesia",Pantai The Legend,"[{'height': 3468, 'html_attributions': ['<a href=""https://maps.google.com/maps/contrib/117564327915385609455"">mzhendra susanto</a>'], 'photo_reference': 'AUGGfZlyzNSHLS3ck5j5XR6qI8Wa6_UfwElclSQofzxjt2VUw2NhJlph9ITtsydJQlFQss8ca_A_KB5Ejb4vaHB8cGBpg-EGgPOxN9Owd7sCiWWf_z30h5cW1m8MMB8B70v6xuFhUD1SuYr4t3Byb8zYgRHur_bST1tyxH9E-TC4B_sYGlG0', 'width': 4624}]",ChIJVVVVVXh71y0R0FG7ym0Vh48,4.3,"['tourist_attraction', 'point_of_interest', 'establishment']",319,-7.2389375,113.5329375
"Jl. Pantai Jumiang, Kabupaten Pamekasan, Jawa Timur 69323, Indonesia",Pantai Tebing_Asmara Jumiang Tengah,,ChIJZ8qCoSN71y0RazBV3nKgNxw,3.0,"['tourist_attraction', 'point_of_interest', 'establishment']",1,-7.2329211,113.5474034
"QHF3+XW, Tanjung, Pamekasan Regency, East Java, Indonesia",PANTAI KOTASELO,"[{'height': 469, 'html_attributions': ['<a href=""https://maps.google.com/maps/contrib/100196074981706796806"">Kaconk Muza</a>'], 'photo_reference': 'AUGGfZnnbWdlAOZGPJ52P9BWtkoUg4EOCzcVc-dXBVC8XyxDEYY1pApSIFCyuvPZ20euLV5HWoLNIszQFjCGagBPOJf0IMPMshrVuVWHgSg8_s4nh20HJ6jrOne8SYl1RP6J0pcb7rqr6NGy0vNNbTTMXaK65e9jladS57SO7fCWBXJ7_3xo', 'width': 700}]",ChIJKUDDI0x71y0RcaTT7JUrU5c,0.0,"['tourist_attraction', 'point_of_interest', 'establishment']",0,-7.225042999999999,113.554751
"VF2X+9MP, Barat Satu, Sentol, Kec. Pademawu, Kabupaten Pamekasan, Jawa Timur 69323, Indonesia",Bukit Cinta Pamekasan,"[{'height': 4032, 'html_attributions': ['<a href=""https://maps.google.com/maps/contrib/107439087490802764433"">Mtaufiq Amirazp</a>'], 'photo_reference': 'AUGGfZl4mtztdvsPpmLy8vfkBSH9S0eSR9HlSQmgLurfTZUsWecDmzvC7NrYQnaQLjGq_SSl-8Y-6-mG39R-2aZoqsMS8Ai26CCK5ZHRJhKS8aN70LMXfqnkCbqlFcc5pir8BGhYmuLuIX37iJWc6Ujom0R5kJOFzdECjRoH3Jrw2VqbosPf', 'width': 3024}]",ChIJleZh7_R91y0ROJXRHoP7DhM,4.0,"['tourist_attraction', 'point_of_interest', 'establishment']",768,-7.1490315,113.4992127
"VGQ3+P9F, Toron Semalem, Blumbungan, Kec. Larangan, Kabupaten Pamekasan, Jawa Timur 69383, Indonesia",Kampoeng Toron Samalem,"[{'height': 3120, 'html_attributions': ['<a href=""https://maps.google.com/maps/contrib/110364662737023889733"">Dyah Ardya</a>'], 'photo_reference': 'AUGGfZmIEuTrvWEzLwpZV0TYlMDZzVsTmIgLT22PAQCj_5Lv6KalBn5el8jQWvSkZ4hhdgEz764Pl0JZk2mViQsRTBO2u5qLEZ3nQ_hpE7oK0ioj_w9nR_wmFJUojAGFWKBz6MIPHvoM70WOEMiaJNmujwuyf5s7NBz6nHdh1W-EyZL24kz1', 'width': 4160}]",ChIJZdtNjSvX2S0Rk8B4-nlcAHA,4.2,"['tourist_attraction', 'park', 'point_of_interest', 'establishment']",301,-7.110697699999999,113.5034318
"QG9H+27G, Area Sawah, Padelegan, Kec. Pademawu, Kabupaten Pamekasan, Jawa Timur 69323, Indonesia",Pademawu,"[{'height': 415, 'html_attributions': ['<a href=""https://maps.google.com/maps/contrib/111209160439990543179"">geslim 44ws</a>'], 'photo_reference': 'AUGGfZmpC9Hoq_qzPI-coRgmyo_xIJqNmx19RksAqMAoI869FpWOZ15UROdNs2smvzAK8ky3lPF0gn_YC1qwMBXhJ01QC3HiOiEr1lwIJ02jd-iMyXjqcO8NV3FC6wY3lRWYqyZLB75hGA_3M1X8WJ3l6ZPFoC1k8xCN4meRwTrFJdvTyszQ', 'width': 739}]",ChIJZTP-t9N71y0RGKz0Kdwct2A,5.0,"['tourist_attraction', 'point_of_interest', 'establishment']",5,-7.232428199999999,113.5282081
"WG8V+7PQ, Unnamed Road, Jalinan Barat, Bangkes, Kec. Kadur, Kabupaten Pamekasan, Jawa Timur 69355, Indonesia",Bukit Bruten Bangkes,"[{'height': 1920, 'html_attributions': ['<a href=""https://maps.google.com/maps/contrib/108051607920552330830"">A Google User</a>'], 'photo_reference': 'AUGGfZmZDpRiPxpEro6v5tp_u_9JRvvugEUcVIbbBfP0GK1YBd9k04I9YmiHQI4VAt30v4IrZH1CrGFqLJblQ06tiptgMTjKo0LSvuXoiuec6RloFdgjknwY0tVu8dqSeD6WjBjJbChigBpl_0Cm2VoyK0Q2bVa4eGEeEpCc9UWeQPeeLy0A', 'width': 1080}]",ChIJ2-S6HY_X2S0RR_32tMHBHO0,4.3,"['tourist_attraction', 'point_of_interest', 'establishment']",6,-7.0842784,113.5443697
"WJF5+78P, Moccol, Kertagena Daya, Kec. Kadur, Kabupaten Pamekasan, Jawa Timur 69355, Indonesia",Wisata Bukit Kehi,"[{'height': 3000, 'html_attributions': ['<a href=""https://maps.google.com/maps/contrib/118270593424384591158"">A Google User</a>'], 'photo_reference': 'AUGGfZnW7Vmh0zYANMQwIWFogiAitvLjDALwdKq3vYUPDs8DZXSYgkEJLy0hPd_d6yPC63olFYGbov794q2MH9aIDR04dOo3C9soXO21K0EgRowXS7E9fIQANxy3QP3srHCVPTD7c77vgwjEgi2466rrsMOjP4tpLK0WmPqMULqjWIInXxel', 'width': 4000}]",ChIJ7RwArLDZ2S0RSoILC7zmdMk,4.1,"['tourist_attraction', 'point_of_interest', 'establishment']",236,-7.0767869,113.6083417
"perumahan royal, Tengger, Panglegur, Kec. Tlanakan, Kabupaten Pamekasan, Jawa Timur 69321, Indonesia",FineFinetourTravel.Agent,,ChIJRUIWNdd91y0RpK432f0J4FM,0.0,"['tourist_attraction', 'point_of_interest', 'establishment']",0,-7.1514437,113.5072461
"Tarokam, East Pademawu, Pademawu, Pamekasan Regency, East Java 69323, Indonesia",Wisata Mancing Ngai Mateh,"[{'height': 960, 'html_attributions': ['<a href=""https://maps.google.com/maps/contrib/108138575165931786236"">Finum Aja</a>'], 'photo_reference': 'AUGGfZmfSpHZZQlNO5yxfJdGitJZsdC4mhG0VhXKe7ypGlYMOrsEIp4DqXWORQzphqf4kxKKwHzCH3KH1x51jfFPFyIBV1UcNGqKurcj3cH2WAJAn7Me_YXB4yPIQtNbf_hS31hZHfaTe8i18yWUBT4k7G31FSROybk2lhRRWJWqjDO_9PpF', 'width': 1280}]",ChIJPSdKWbJ91y0RpaJkrR_2Kvs,1.0,"['tourist_attraction', 'point_of_interest', 'establishment']",1,-7.2224034,113.5199139
"RFRG+R82, JL. Kabupaten, Jungcangcang, Pademawu, Sumur Putih, Bugih, Kec. Pamekasan, Kabupaten Pamekasan, Jawa Timur 69317, Indonesia",Revanussy,,ChIJZ2QXXQB_1y0RlbcdDp1xcRE,0.0,"['tourist_attraction', 'point_of_interest', 'establishment']",0,-7.1580704,113.475623
"WC6X+FQ, Pakes, Rek Kerrek, Kec. Palengaan, Kabupaten Pamekasan, Jawa Timur, Indonesia",Torajeh,"[{'height': 644, 'html_attributions': ['<a href=""https://maps.google.com/maps/contrib/113022885031825011268"">Jay Brenxsex</a>'], 'photo_reference': 'AUGGfZke7G-a2yXeNa2Dow7Yq8tgNCJ3eBcDmKP8g4D32BUSgm7b2YjH2VBI2RGiw23OjmUuY2nT3fqA7iq345VOQ6NhGP_E1luFUxPUw5caVwbUx8e3eMSFsxxktYtbUXvmCVhi2OaWHrU53g7KKGXain9wdTnvp_bb948rGKOf2A7FvCxD', 'width': 476}]",ChIJQSEPMADV2S0Ry_JH5nzDfmw,5.0,"['tourist_attraction', 'point_of_interest', 'establishment']",1,-7.0888396,113.4494252
"QFW6+2C6, Asemanis Satu, Larangan Tokol, Kec. Tlanakan, Kabupaten Pamekasan, Jawa Timur 69371, Indonesia",Wisata Api Abadi,"[{'height': 2322, 'html_attributions': ['<a href=""https://maps.google.com/maps/contrib/110788092251127701686"">A Google User</a>'], 'photo_reference': 'AUGGfZnY1VmMrhypHdgm_R4boA8m8U7AynhFw4hi9zmoROFZQdVnN5_qSmvBgGYb3tmtts30j6tAcRlJ-PhBew2KK-8m7rSul3rmuQ9hvGjEvGhVEpRLIWvy3fj10Po-pW2VMtzawnVxJTxbUX3I66LKxPqB3ECjj-P06xepoOsedX_bbCCX', 'width': 4128}]",ChIJTX5RlJZ-1y0R5WUOTx_CvNo,4.2,"['tourist_attraction', 'point_of_interest', 'establishment']",2180,-7.2049631,113.4610187
"VF5M+3G, Kowel, Pamekasan, Pamekasan Regency, East Java, Indonesia",jembatan gantung kowel,"[{'height': 1200, 'html_attributions': ['<a href=""https://maps.google.com/maps/contrib/116572009967705253258"">A Google User</a>'], 'photo_reference': 'AUGGfZm_iKjdkN5YKoZPGrBBNkbKymKsv_RFnLCSSGaftKBa5AkAEFo4BC1qGuOp_O1d8xqj5PRxEp5kvpgpDoJT7bpkJqduX6LbuPPyPbqC1VpLzKhLLkMq4JxLZdDrHMbmdW98oLjW1Gk-qEZIt_t9OovuaBBWfcmvfB_o-UqZ6hMsGjpp', 'width': 1600}]",ChIJ92e2LrrX2S0RsqJHlNLPDDM,4.4,"['tourist_attraction', 'point_of_interest', 'establishment']",7,-7.1428125,113.4836875
"VJF3+5W5, Pesisir, Kaduara Tim., Kec. Pragaan, Kabupaten Sumenep, Jawa Timur 69465, Indonesia",Dermaga pesisir kaduara timur,,ChIJmeplYUnZ2S0RHV-iTyXW-as,4.8,"['tourist_attraction', 'point_of_interest', 'establishment']",4,-7.1271033,113.6048667
"RGM4+367, Jl. Balai Desa Murtajih, Murtajih, Kec. Pademawu, Kabupaten Pamekasan, Jawa Timur 69323, Indonesia",Waduk Ds. Murtajih,"[{'height': 1632, 'html_attributions': ['<a href=""https://maps.google.com/maps/contrib/106305616724784365462"">mahrus buhari</a>'], 'photo_reference': 'AUGGfZkD5Qh7BuFtAcAjyfPwdu8eDih9Hu7Zk5lqv00NMmDAis0am7UNSPrJyPxBPn2BWO1p_pJ_iSktOYo3FeNpscFhR3jNCyTaAQDI5R17YT77QSMsUhwOAgU3nDQW3sK5IXcYdAN9VTUT5fZApEzHiLASpwI9uM5IguD_p19atWHOWTxp', 'width': 3264}]",ChIJi1yJu7191y0RDtOeMM2kBhk,4.7,"['tourist_attraction', 'point_of_interest', 'establishment']",9,-7.167329799999999,113.5055543
"WFG7+4Q6, Bungur, Patoan Dajah, Kec. Palengaan, Kabupaten Pamekasan, Jawa Timur 69362, Indonesia",Gerasi hjr tran,"[{'height': 4000, 'html_attributions': ['<a href=""https://maps.google.com/maps/contrib/114740344551822158675"">A Google User</a>'], 'photo_reference': 'AUGGfZmAPZJS0tdSAfTaMZEI0uHtn8MeSlkpZMofdicg5FCJoZbO9qyQo_MHR5ku3lzOOdCxB0XcNBkhiS5-QfsPs7x7YdwtQwRiKKl7JiQPMT5Bnbno_DAXgm86Js-325Y0MAZZ305NFGk_NXPMkciXkjZsvvqhiFKG32m8jNTQc2sqryiI', 'width': 3000}]",ChIJ_VPSsqHV2S0RTrlJzA1TmuM,0.0,"['tourist_attraction', 'point_of_interest', 'establishment']",0,-7.0747011,113.4643964
"WCMW+XM, Sajanah, Kacok, Kec. Palengaan, Kabupaten Pamekasan, Jawa Timur, Indonesia",Area pemakaman buju'pulanjang,,ChIJbWZp4ILT2S0RQUIIF5XSBxE,0.0,"['tourist_attraction', 'point_of_interest', 'establishment']",0,-7.065049999999999,113.4467226
"WHV3+8M5, Sawah Selatan, Dusun Ndalangan, Kec. Pakong, Kabupaten Pamekasan, Jawa Timur 69352, Indonesia",Sawah Aktif DALANGAN,,ChIJHb4bPgDR2S0RdRyOF2GuI80,0.0,"['tourist_attraction', 'point_of_interest', 'establishment']",0,-7.0567338,113.5542497
"VFWR+X5P, Unnamed Road, Sabe Laok, Plakpak, Kec. Pegantenan, Kabupaten Pamekasan, Jawa Timur 69361, Indonesia",Sumur Api,"[{'height': 1080, 'html_attributions': ['<a href=""https://maps.google.com/maps/contrib/117031932181330288833"">Akbar Sanjaya</a>'], 'photo_reference': 'AUGGfZmu8O5ndkFzbEHJYWCI5sR642SNXo597yni1FRtNwqinh-vDV2w-JXHktgigQYOojzQpMj5kxQZzDudShYvgcwU3ZCZJMjULCpTnz_2MLPBfewMXkXLyxua_EP3M25bNHHu5lOK3PsqaWYkm5vXLqqMaA9bu2IwgCf8CvR0Ub-8TJPX', 'width': 607}]",ChIJGUlA2-HX2S0RMOCtR0heBsY,3.3,"['tourist_attraction', 'point_of_interest', 'establishment']",4,-7.1025356,113.4904516
"VF8F+7H9, Sumber Papan I, Larangan Badung, Kec. Palengaan, Kabupaten Pamekasan, Jawa Timur 69362, Indonesia",METRO,"[{'height': 3000, 'html_attributions': ['<a href=""https://maps.google.com/maps/contrib/116501133378739658877"">serdadu padangpasir</a>'], 'photo_reference': 'AUGGfZnOju4gXlKbZCj7K1H4LCVZ0fBABxTQYioQIYtQWrO2x46tUsPNJRP2ulTZxAT8IWVzOFVWHU3yXUlv4FYox0xoKfnAnBrnnQT9LfrWNhkMuxbAZW5NojMsu2iDzhvv1RIroocF563YwFhICEHMB2-JWrAAMskSjLMICACFK9WncTPY', 'width': 4000}]",ChIJg4Xm-GrV2S0R49aEclkqYJM,5.0,"['tourist_attraction', 'point_of_interest', 'establishment']",1,-7.134331899999999,113.4739946
"XGXM+5Q3, Turpuken Gading, Sumber Waru, Kec. Waru, Kabupaten Pamekasan, Jawa Timur, Indonesia",Lancaran Waterfall,"[{'height': 393, 'html_attributions': ['<a href=""https://maps.google.com/maps/contrib/101138792932830966907"">A Google User</a>'], 'photo_reference': 'AUGGfZkO4LlVX45Ie66o_bEdMWrrPPoT33wjm5d08WCsC1k-QG0xFgWaZR7OboC4cd088ZuTZFWg5KZWW1tZtyLrXdJ5dvqmIdRKpwudzF5vJp_GHyL5gPxG2A0lmSIA0AKpqpsV6vmbXm0LcdxTx8lsCpzyxw2eC82FE_tpYagVVyf1maTf', 'width': 700}]",ChIJlzMsj-bR2S0R-aVCe2xlZaE,4.0,"['tourist_attraction', 'point_of_interest', 'establishment']",4,-7.0021038,113.5344184
"WHPJ+4W, Barengngik, Kertagena Daya, Kec. Kadur, Kabupaten Pamekasan, Jawa Timur, Indonesia",Khadijahmed,"[{'height': 1920, 'html_attributions': ['<a href=""https://maps.google.com/maps/contrib/108029130050650433181"">A Google User</a>'], 'photo_reference': 'AUGGfZmwrHQLfqevKa3IIsEbIKtRZeQEio_BE999lqIEzKtdOosu0bASZG5SvrVoNCFWT1881TrMNSfPiJDk5EfgiBpbxDV0imzpyc0ZUmDHkJ4CjMzyIfKRALv9U-ftbULcKlJPYwAxp98rGjfCkGRkbaakrmGuNZgxhfrGNhC1v_sb7cXU', 'width': 1080}]",ChIJF543CQDZ2S0R1kvhbngy3aE,5.0,"['tourist_attraction', 'point_of_interest', 'establishment']",3,-7.0646401,113.5822545
"Jl. Kh. Moh. Nuruddin No.4, Keppun, Samiran, Kec. Proppo, Kabupaten Pamekasan, Jawa Timur 69363, Indonesia",Rumah Apriliya,,ChIJ1bqMAAB_1y0RPPZQfLrnxK8,0.0,"['tourist_attraction', 'point_of_interest', 'establishment']",0,-7.1545464,113.4444989
"QFH2+FMW Pulau Madura, Tinjang, Branta Pesisir, Kec. Tlanakan, Kabupaten Pamekasan, Jawa Timur 69371, Indonesia","Kali Gangsian, Branta Pesisir",,ChIJL1tmUP1_1y0RPR5trczWu9c,0.0,"['tourist_attraction', 'point_of_interest', 'establishment']",0,-7.221256299999999,113.4516896
"Sebelah timur Bank BCA, Jl. Jokotole No.4, Rw. 03, Barurambat Kota, Kec. Pamekasan, Kabupaten Pamekasan, Jawa Timur 69321, Indonesia",Cìtabğligh,,ChIJjRquNBl91y0REs4kFHOEj9o,0.0,"['tourist_attraction', 'point_of_interest', 'establishment']",0,-7.1608255,113.4842413
"QFW7+VCM, Asemanis Satu, Larangan Tokol, Kec. Tlanakan, Kabupaten Pamekasan, Jawa Timur 69371, Indonesia",Api Tak Kunjung Padam 2,"[{'height': 4608, 'html_attributions': ['<a href=""https://maps.google.com/maps/contrib/102246211442622546835"">Pin Suhardi</a>'], 'photo_reference': 'AUGGfZmn3v0ae4F1c2-pB8ivtUttnkbG7VErpbhuIU2LHk4AMKb72oXH9vEpc6BIJXifQ0bUWJ8BeEON3frgakyItC6l64648KuatPu8IFttB9rTCwtg_P2A1HKycUEhy_z9rX1cxxrwswZ3qAeC4PkKYy9qlctFfcq-U2LSzajTOXgX3e1A', 'width': 3456}]",ChIJB8L2z5B-1y0RkNMPYBhxzmA,4.3,"['tourist_attraction', 'point_of_interest', 'establishment']",83,-7.2027887,113.4635336
"WHMR+FP9, Bunggaran, Kertagena Daya, Kec. Kadur, Kabupaten Pamekasan, Jawa Timur, Indonesia",Forsisan 2024,,ChIJufl1NADZ2S0REiAgtWWgfBw,0.0,"['tourist_attraction', 'point_of_interest', 'establishment']",0,-7.0660129,113.5920477
"2H44+9PW, Guwa Dua, Tampojung Guwa, Kec. Waru, Kabupaten Pamekasan, Jawa Timur 69353, Indonesia",Patobin,"[{'height': 1920, 'html_attributions': ['<a href=""https://maps.google.com/maps/contrib/117932721186267593590"">Samsul Abiroyal</a>'], 'photo_reference': 'AUGGfZlfYyXphW6kpENFiRo9CRMHIThOKwrVkKEzazpLSPswQjhkN_Fl8yyhamgTZt_i4C9_1HyyteXNGEhgRhxsYkVGjMP4KYLVv9XHZRgy1Zfw62o-Nczp7tzjNM4YRMBAEEE2Gvy-RAWRLU6dzPa3cgfnyL8ldOa3T1TIJZOFHlh6ekzW', 'width': 1080}]",ChIJ8d3gbgDR2S0R05BCNgZuX5A,0.0,"['tourist_attraction', 'point_of_interest', 'establishment']",0,-6.9940406,113.5568782
"QG22+GM, East Pademawu, Pamekasan Regency, East Java, Indonesia",Pantai kepala Burung majungan,"[{'height': 4624, 'html_attributions': ['<a href=""https://maps.google.com/maps/contrib/113479645547435017705"">A Google User</a>'], 'photo_reference': 'AUGGfZlQEm3XQnxPLXVKZ8jTh2fJ9VuoFJVv0YWnVRJaAT487I32glZSNtlQxcoHd_PV6OZwnbLZlMjOvbAyZj6gSbXz8QbZoEm7OKEDYY8QBZxkYuU_oMs6iJ6ZaLCc0TLOu7CJ-t8B23sRD5t2AkcgXxK4Gc1UzuOVAcU33VIWEgev2SPi', 'width': 3468}]",ChIJ5_K-zr171y0RI4RR5PjYAY4,4.7,"['tourist_attraction', 'point_of_interest', 'establishment']",6,-7.2486901,113.5017226
"WFWQ+RM7, Jalan Raya, Timur, Pegantenan, Pamekasan Regency, East Java 69361, Indonesia",Tongkrongan Barokah Jaya,"[{'height': 4000, 'html_attributions': ['<a href=""https://maps.google.com/maps/contrib/114517556735708920099"">A Google User</a>'], 'photo_reference': 'AUGGfZlGsIDJco_CzoPnUXHR5r8lDJrcSlsOmP3hd4ukfi9iblvnh_5QQWhbS0gvbhA9FdTVoCIdRmtHFzCpCdfrDCK37OWZL7Sk5bRp18n5WJ03ajDlFOfa34_ZmGJS0kQ9c3QZ6u_3-bDdwJQ8U1iTujDVVWe8EuttndUDFSC9-4uUm1s3', 'width': 3000}]",ChIJQz2y0iPR2S0RRqQKI0dUGf4,5.0,"['tourist_attraction', 'point_of_interest', 'establishment']",2,-7.0528017,113.4886639
"Jl. Bonorogo No.3, Taman, Lawangan Daya, Kec. Pademawu, Kabupaten Pamekasan, Jawa Timur 69317, Indonesia",BUJUK LENDHU,"[{'height': 1836, 'html_attributions': ['<a href=""https://maps.google.com/maps/contrib/111076177294854269156"">A Google User</a>'], 'photo_reference': 'AUGGfZnNQC9Dx-sevoArycTLk4XLy902UV9292dZH15BriSm15IBmn6ymInsMp0kaysc25wUkB_pZCAmg5uJzyCdNw1wpanfIpg2gSVrn55zU8qQlMAyJaerinxAcdIGL2LdVq8H9cWo1gaGb2B6s0IWz4ntulXIvoEssG94CLEm9yf9BC0A', 'width': 3264}]",ChIJ7TnoUlp91y0RrBSzKkwjJ6E,5.0,"['tourist_attraction', 'point_of_interest', 'establishment']",2,-7.1556579,113.4894981
"RG72+7G8, Kebon, Sumedangan, Kec. Pademawu, Kabupaten Pamekasan, Jawa Timur, Indonesia",Kelinci pak Jenggu',"[{'height': 4160, 'html_attributions': ['<a href=""https://maps.google.com/maps/contrib/101501871729276780805"">Yudha Wijayanto</a>'], 'photo_reference': 'AUGGfZliI_1U2xLgYFfsM4NhZ4S5OJeHpHc-AzlWmiuv2qKhvLY32l0guv3uaeQaIRmXxD82WOEF9c-5hrAS58LCnLeTlfpFKqIXfa8Rc4ejlAfesatNjMTf9QQ0Jkj0oOrxKkcO8j6z4ZLYvHP1nHkPp69qUryxmcK-DQDwNHchJBFAHBYg', 'width': 3120}]",ChIJJ_cwAyZ91y0RzcsCWHktCzk,4.9,"['tourist_attraction', 'point_of_interest', 'establishment']",10,-7.1868422,113.5013229
"QFGW+C4, Sorok, Pagagan, Kec. Pademawu, Kabupaten Pamekasan, Jawa Timur, Indonesia",Astah buju' jengguk / buju' isa,"[{'height': 1280, 'html_attributions': ['<a href=""https://maps.google.com/maps/contrib/114826713127623411205"">A Google User</a>'], 'photo_reference': 'AUGGfZm8y8OE91vVbNtsIYl9M2oHb1rdI7chXgIfuS5Rh2kCIz4loPZkvpMwepI5xf3anhcAaS_7sqV0fiH_fBWs_5kSaQ-83b2sHuSlaRH-krqJBoj-qTm3sY27yieqjTE7Pw3Nd0_x4Mkq2ahI-Rg6fxJ99E71yZSGyVtJtS6p5JrIud0I', 'width': 640}]",ChIJE24DHwZ91y0RPb6uYisG3_E,0.0,"['tourist_attraction', 'point_of_interest', 'establishment']",0,-7.223966000000001,113.495316
"Q9MX+35J, Bandaran Satu, Bandaran, Kec. Tlanakan, Kabupaten Pamekasan, Jawa Timur 69371, Indonesia",Syarif Prengtale,,ChIJ6_AQVAB_1y0R-oZO613-XOI,0.0,"['tourist_attraction', 'point_of_interest', 'establishment']",0,-7.216677000000001,113.398343
"WCGW+2FH, Daajuh Daja, Rek Kerrek, Kec. Palengaan, Kabupaten Pamekasan, Jawa Timur 69362, Indonesia",Rekkerrek daajuh dajah,,ChIJwcJeRwDV2S0RMLeoVvOvj14,0.0,"['tourist_attraction', 'point_of_interest', 'establishment']",0,-7.074940499999999,113.4462318
"V9HV+399, Dumpol Laok, Campor, Kec. Proppo, Kabupaten Pamekasan, Jawa Timur 69363, Indonesia",Ziarah sidinglangger,,ChIJp0iSvsnV2S0Rt1rzOS3ORLg,0.0,"['tourist_attraction', 'point_of_interest', 'establishment']",0,-7.1223382,113.3934696
"G2X5+C9F, Kadur, Karnataka 577548, India",Kadur manay,,ChIJ1S_v6oLrujsRZ3R5fBJFxPw,0.0,"['tourist_attraction', 'point_of_interest', 'establishment']",0,13.5485598,76.00842589999999
"H234+MWC, Swarnamba Colony, Kadur, Karnataka 577548, India",Kadur Fort,"[{'height': 4608, 'html_attributions': ['<a href=""https://maps.google.com/maps/contrib/116091282617944606645"">Maruti Gole</a>'], 'photo_reference': 'AUGGfZlPBLcWX4m5iUU6MDoju42ZoOFB8efxUapInfm8k7BkskWfOeGMBwlhLs2TZnBDluDa9BuhG-Twi11ty_8-7icuvWQxWq_OHX0C6HJd5_i3lonl-m_c-3Qp_sTLRHYiyAONGty0OW5DoxTYxjT13F5u5rVisBjCcd6CaU5fET9YEmy5', 'width': 2080}]",ChIJ7zAv9yXrujsRXM-84TL8WeY,4.3,"['point_of_interest', 'establishment']",3,13.5542095,76.007312
"GXPR+FPG, Kadur Rural, Karnataka 577548, India",Chikkapattanagere sunset view point,"[{'height': 2160, 'html_attributions': ['<a href=""https://maps.google.com/maps/contrib/112149290487851860783"">A Google User</a>'], 'photo_reference': 'AUGGfZnpTiL9TyK5tGlCeleFYtNTdp8sWEgO_q-27NL0_lNFBd6zpCz9kHi91m0Y1rsiEtlX4Cyl5MMWP94S3CwzA8kByiFgjI3echi5PAZ90aOMoR7-gFyD4vpOfM3wfzaCC9NjRtHDLhhNx7i9eczh25gxaPoeVvPubLDS_DTspjmrxFuW', 'width': 3840}]",ChIJXRWb2X7pujsR1EI_odHanGE,3.3,"['tourist_attraction', 'point_of_interest', 'establishment']",7,13.5358289,75.991294
"H244+6XM, Chenna keshava temple kote, Swarnamba Colony, Kadur, Karnataka 577548, India",Hoovadiga MADHAYYA circle,,ChIJWWt2ARfrujsRqLnMppue6a8,4.0,"['tourist_attraction', 'point_of_interest', 'establishment']",2,13.5555919,76.00742319999999
"FXWW+C9P, Karnataka 577548, India",Pattanagere Check Dam,"[{'height': 1920, 'html_attributions': ['<a href=""https://maps.google.com/maps/contrib/106197551806299966742"">Darshan Drush</a>'], 'photo_reference': 'AUGGfZny7GwqRM6yUL767yD9tjiLX-mJStw4UoX0ZuCH_eWlnIHRYlVl2s2s-h4ps7OKEcJyy6jx_LFYcLH1G5D6sa2NKjN7a2l_OFu0pCwYXSW5MQI1P9tRC53hp_vJxcUYV64IA7EyrKK80YoFLEJXMIl9si1t4-a66sWcKir8yX_M6FNE', 'width': 1080}]",ChIJNXsWRLjBujsRn8OvMqEs20I,4.5,"['tourist_attraction', 'point_of_interest', 'establishment']",17,13.4960789,75.9959671
"F4H3+732, Kuppalu, Karnataka 577548, India",kuppalu,,ChIJax_2CgC_ujsRThhDDsbVEV8,0.0,"['tourist_attraction', 'point_of_interest', 'establishment']",0,13.4781318,76.1026382
"VGRW+P2C, Kaduara Barat, Montok, Kec. Larangan, Kabupaten Pamekasan, Jawa Timur 69383, Indonesia",Larangan kadur,"[{'height': 1080, 'html_attributions': ['<a href=""https://maps.google.com/maps/contrib/110282585553570130448"">Van Delenko</a>'], 'photo_reference': 'AUGGfZnjD0q6N9wvGycSqmlqdy6VleG-pIXHSDK5WUuWFAwesrEexF0gLVghBGnd2VKdrTv1P4rQPQyaqBasfJ9GlaOVqrP0jZEtRFkazyOmm6K7MaJrIlp5eJHBW9GpaZRJgMqJeixhwWaS22WG-t0S-hPSZ_UKvgLcfABLMbtkZuSXpQx_', 'width': 1920}]",ChIJ048UwKvX2S0Rg0t0GQM535A,3.0,"['place_of_worship', 'point_of_interest', 'establishment']",2,-7.1081917,113.545008
"GVVF+JGR, Hoggrekhangiri, Hoggrehalli chickmaglur,, Birur, Karnataka, India",Shivagiri Trails,"[{'height': 3024, 'html_attributions': ['<a href=""https://maps.google.com/maps/contrib/106856509373854568604"">Aravind</a>'], 'photo_reference': 'AUGGfZkkkgI901JXMpaiAzvnXWO2rHaAE2nPjuwMwNX1M42ir_Yrca1A1_Up400y7b6ShuL1hMbsxTLA9iTffpeRL_y7nn5qurD90ZKc7Z9FTav9gF2NB3zfurgefQ5eyPhkuDsqLRjTKavBmkkmiOiUbgxUHGSiWK5YksZQDDkdCWC-WNnq', 'width': 4032}]",ChIJAz4jdrfnujsRzdv0sE7Qnpo,4.3,"['park', 'point_of_interest', 'establishment']",35,13.5441,75.8737537
"WHG8+R2F, Daleman, Kadur, Kec. Kadur, Kabupaten Pamekasan, Jawa Timur 69355, Indonesia",AZAL,,ChIJ067JOADX2S0RtE0032jx7Ws,0.0,"['point_of_interest', 'establishment']",0,-7.072827699999999,113.5655899
"WHHW+F5J, Tobajah, Bungbaruh, Kec. Kadur, Kabupaten Pamekasan, Jawa Timur 69355, Indonesia",Air Terjun Kertagena,"[{'height': 2448, 'html_attributions': ['<a href=""https://maps.google.com/maps/contrib/101812834069612130716"">Achmad Renaldi</a>'], 'photo_reference': 'AUGGfZkQWVPRxOwY3peKybpGB2Iws_M9fL8bTjSVLyotNo5nbgAAXyzB3QiSGBekcry3jKoomqhAUFWam19YJqCxqGyxxlKYPtYn2NhIqoLnFbhR_VJxEyH_12cnAKOlFiSq1pUYLAfPgVNiqNGkAPY_Qgoubvc-neDzGdMUhBbLoMqQYT8H', 'width': 3264}]",ChIJfxswupLZ2S0Rqo-HQVMqydA,3.9,"['tourist_attraction', 'point_of_interest', 'establishment']",84,-7.071291599999999,113.5954044
"WJ3F+JPP, Unnamed Road, Somber Gentong, Larangan Pereng, Kec. Pragaan, Kabupaten Sumenep, Jawa Timur 69465, Indonesia",Embung DAM Larangan Perreng,"[{'height': 1520, 'html_attributions': ['<a href=""https://maps.google.com/maps/contrib/110044035569300949125"">A Google User</a>'], 'photo_reference': 'AUGGfZmQ3VOyGjsQTSLPrCfhUO6qNFp1eOZi59WStqarGzlelV8XUtcet60WvO9h7Tkn1YqbliQEljD_eiAUEfg9qoLSsEuNGJxyCRQKHC0AKcADF5ry8cAygK2LUnQ-xhBlbjJhlJeoocEz1UzZvSwNglZpD-XwhgsTqzxUXqcNnwYhs8Jq', 'width': 720}]",ChIJBWwX0R3Z2S0RbdVvIWnXPpI,5.0,"['tourist_attraction', 'point_of_interest', 'establishment']",1,-7.095916,113.62432
"VFJF+7XM, Jl. Raya Palenga'an Larangan Badung, Dusun Gn. I, Larangan Badung, Kec. Palengaan, Kabupaten Pamekasan, Jawa Timur 69362, Indonesia",AGEN TIKET Tour & Travel Raden Jaya,,ChIJP1wxFOvV2S0RBf7Kr5GDkDI,0.0,"['tourist_attraction', 'point_of_interest', 'establishment']",0,-7.1192829,113.474923
"XH3F+H73, Desa, Duko, Somalang, Kec. Pakong, Kabupaten Pamekasan, Jawa Timur 69352, Indonesia",Wisata Lokal Sumber Penang,"[{'height': 2304, 'html_attributions': ['<a href=""https://maps.google.com/maps/contrib/106650759652951316538"">Moh. Badrih Unisma</a>'], 'photo_reference': 'AUGGfZlayQcAP_dBO-JoE458DTItlhkM5U7aVy_Z4nzViTfO8imKwR2LngN3jEowkl6TTuE7j9Gu8EAe3mCRTfGypTH8P6ARfyKR2YYCkrXUS37l2XCeN4MeuJEKnzmy52l6HhWP4IobsXQU3nxOHk7so0_aZbES9QmjM9o4Id028Y7QuqQh', 'width': 4096}]",ChIJ6xmwxJTb2S0RwhU0_OK8ieA,4.3,"['tourist_attraction', 'point_of_interest', 'establishment']",63,-7.0461146,113.5731773
"WHRH+X6C, Brukoh, Bajang, Kec. Pakong, Kabupaten Pamekasan, Jawa Timur 69352, Indonesia",Hill Nature Brukoh,"[{'height': 1836, 'html_attributions': ['<a href=""https://maps.google.com/maps/contrib/106344866257344817716"">M. Anwar Anwar</a>'], 'photo_reference': 'AUGGfZk8DMj0eMDT3geOG-7RfovXHsFSm8xcWuz7bYRAzxyjqHzvzU5BOhdaWrXF5W6YO0RhIhFmAAh8nHxc_ocWVRZdRN-DyH9gIA6UjgGI8oTR_EMp70SYvVrOPAn4nBQX-Pt_O-LtALN62wspbyBVEDMn6p-GJD12fFmy4oCmLPEiGsPk', 'width': 3264}]",ChIJ__GSTQHa2S0RbTwQd92BRSw,3.8,"['tourist_attraction', 'point_of_interest', 'establishment']",393,-7.0575682,113.5780043
"RGM4+278, Murtajih, Kec. Pademawu, Kabupaten Pamekasan, Jawa Timur 69323, Indonesia",Wisata Terpadu Bhurunan Pademawu,"[{'height': 3120, 'html_attributions': ['<a href=""https://maps.google.com/maps/contrib/109562238133267698611"">aditya wicaksono</a>'], 'photo_reference': 'AUGGfZkk7zmVY_Mz_BZCVRLHqSUEHXMiNkXyLUoH_y71AigSF77JF7NldUCU8rl22HjPizUuhg-EIIcax6ZvhFWtrpKII8kk14Dnt_UKiiYpE4DBOPOXpiNGqmWUMWhJz9IDXNdUHgM3lSg3eyQ0N4xXAAqSFGnbye18hhcD81yTwv4qCav7', 'width': 4160}]",ChIJp8My0AF91y0RO3HUC-r412s,4.0,"['tourist_attraction', 'point_of_interest', 'establishment']",10,-7.1674527,113.5057013
"QGCC+F2R, Tarokam, Pademawu Tim., Kec. Pademawu, Kabupaten Pamekasan, Jawa Timur 69323, Indonesia",Bengkel deisel dan sewa sound sistem arofa dan jahit baju,"[{'height': 1080, 'html_attributions': ['<a href=""https://maps.google.com/maps/contrib/116867794759773815616"">A Google User</a>'], 'photo_reference': 'AUGGfZk3UFm8GeSydDFKFUhcWMY5pi04rNGiBgEDayCg8lHsE2SyeHLumdtBvTSkYTCTBnu1LsTWXlQvM-bw30GbIGEEYgRGTT4bY1CXMbiVi1jeixxeMz4tuhgUxBTgWo4OJ4FvZciZXXA4hIqwxcPMsZeGPxtOvOFaCdKkzJTjfWyba0pz', 'width': 1920}]",ChIJz_fhCYx71y0RRh3-ngTbWJc,5.0,"['tourist_attraction', 'point_of_interest', 'establishment']",3,-7.2287624,113.520024
"PGX7+MW8, Unnamed Road, Mor Laok, Pademawu Tim., Kec. Pademawu, Kabupaten Pamekasan, Jawa Timur 69323, Indonesia",Pantai padelegan,"[{'height': 900, 'html_attributions': ['<a href=""https://maps.google.com/maps/contrib/112010257798140212319"">Nanang Suyanto</a>'], 'photo_reference': 'AUGGfZlE-3DOBeDeiM5Uo_BB0Ojn2Nx0r4nDnX5Bi2Q5g-QspN4vh8m2qWE3DTsTnbr9Hxy6MNaSQuzVP-hSPnLHAcWAm58X6vsx5kgtWrLAQ-9-bxbHdQY8m_x_yjxVSUD-IY6l73SY1_EznRWZbYUbRMolcq9IQKytKop0zi6fL7LmWW6g', 'width': 1600}]",ChIJ8bipF_p71y0RCHoCGUyY6eM,4.6,"['tourist_attraction', 'point_of_interest', 'establishment']",10,-7.250829,113.514825
"RFQM+Q36, Jl. Mesigit, Rw. 03, Barurambat Kota, Kec. Pamekasan, Kabupaten Pamekasan, Jawa Timur 69317, Indonesia",Alun Alun Pamekasan,"[{'height': 3000, 'html_attributions': ['<a href=""https://maps.google.com/maps/contrib/104507801618205005912"">NUSANTARA CAFE</a>'], 'photo_reference': 'AUGGfZmk2kziSal7vJ3c44JT9wKq6xXFPfFnJlhQb-WjfrIcy0Z6ywTIyeaZVYtNJVQ2z-Qc3rbTFIWZFpnHvmyjeJYEo9cQ0ug3DW-Rz7E2EikFQKHPASIKCoKbg1nHY-p1cfgmBCAr8aTXxBwqe8NGySTlUjDIVVPI9EwTsMc9ifxP3_RA', 'width': 4000}]",ChIJryLykON91y0RATxakMwFKrA,4.5,"['tourist_attraction', 'park', 'point_of_interest', 'establishment']",9629,-7.1605975,113.4826549
"QCCX+7MF, Branta Pesisir, Pamekasan Regency, East Java, Indonesia",Pelabuhan Dermaga Brenta Pesisir,"[{'height': 4032, 'html_attributions': ['<a href=""https://maps.google.com/maps/contrib/110293323044338616026"">A Google User</a>'], 'photo_reference': 'AUGGfZn95M6orPqcZnhsfEQI0UM1hGWx3sOsuC3nZH5Or_jw9cSIzfyJZ7zw4h9LU9v4BvUi0nvEycQTJcKN_JKuc07VsCzEJt3MHCFt3lbCNf6PSIaR3MXdbGE0ybr63V1wPVLKI8CDewqvA_17mhGda3_EXaMccfNIrsdgz5EB-odpv1LJ', 'width': 3024}]",ChIJM6xSSAB51y0RaP_0pPjQt7s,4.8,"['tourist_attraction', 'point_of_interest', 'establishment']",4,-7.229322900000001,113.4491835
"RFXJ+6P2, Jl. Sersan Mesrul, Gladak Anyar, Kec. Pamekasan, Kabupaten Pamekasan, Jawa Timur 69317, Indonesia",Taman Gladak Anyar,"[{'height': 1920, 'html_attributions': ['<a href=""https://maps.google.com/maps/contrib/104747941602181559828"">harry astrianto</a>'], 'photo_reference': 'AUGGfZkwiKsYS0nDY2nKp2Ck2-qoO3QWMvUuN03lcuC072-FsRvsJ1ZpoimBk1FE-wGKTy-kstj0BqYtHs7qfNxghD5z3BsXRET9YqjptqGfvgaYFIm8cJwqsRnhz8UDHHEEuZUm_-9gLAqBWOQYjSG-MJwBg4sPlcPCAR4h_bX9rFzQZ7br', 'width': 2560}]",ChIJ5RZsmf591y0RVXngxRTfkLI,4.0,"['park', 'tourist_attraction', 'point_of_interest', 'establishment']",637,-7.1519773,113.481776
"QFJ2+32W, Bandaran, Branta Pesisir, Kec. Tlanakan, Kabupaten Pamekasan, Jawa Timur, Indonesia",pantai branta tlanakan pamekasan,,ChIJ3bSaOqB_1y0RLDfld7gxnAE,5.0,"['tourist_attraction', 'point_of_interest', 'establishment']",1,-7.2197702,113.4500765
"QCHX+7RR, Bandaran, Branta Pesisir, Kec. Tlanakan, Kabupaten Pamekasan, Jawa Timur 69371, Indonesia",Pantai 3 Dermaga,,ChIJd6NEMgB_1y0RtIzLtzeCR68,0.0,"['tourist_attraction', 'point_of_interest', 'establishment']",0,-7.222583699999999,113.4499006
"No. 221, Sec 2, Zhi Shan Rd, Shilin District, Taipei City, Taiwan 111",National Palace Museum,"[{'height': 658, 'html_attributions': ['<a href=""https://maps.google.com/maps/contrib/111030368240275651949"">A Google User</a>'], 'photo_reference': 'AUGGfZlD8Z0W5NGYtEfZnKFBY-Gi7qYqHmoSSSpZpXNh5Yx4pqmW9oRcDTpNbOzXFr18bRU4XoYrC9szNPQIVmpS1W6tQlUjt61V3Zn4TqFQBWF1cREB1OrJjQZNnHO3zhZ3rnZpgz4RG8ZFr8Ul8Ksk9y74JiQTmYtuFukcKIG55nKkB0XF', 'width': 986}]",ChIJfUpAzTqsQjQRwQl6ORhwbV0,4.5,"['tourist_attraction', 'museum', 'point_of_interest', 'establishment']",49299,25.1023554,121.5484925
"100, Taiwan, Taipei City, Zhongzheng District",Chiang Kai-shek Memorial Hall,"[{'height': 2400, 'html_attributions': ['<a href=""https://maps.google.com/maps/contrib/114028531780960412706"">Vivien Yin</a>'], 'photo_reference': 'AUGGfZmvB_WeO1C9dpJUsBkMOJ6aQVFmvjQotxJoaRCHsuBMFkE8DhrQzEAQSWAOnG4Q5anRjWaOzq36-6wsRLxCKn0h8LXFyg7jypAi5_RmHPTgv_QqBq3B50CfTNes-7kZKS_g7sFCsJjhaJw0L751p_CPKOfaDH4nLAeGbjemKKhllYTD', 'width': 3200}]",ChIJTamiuZ2pQjQRsmnfkkID6UM,4.5,"['tourist_attraction', 'point_of_interest', 'establishment']",71355,25.035502,121.5201832
"432, Taiwan, Taichung City, Dadu District",Wanggaoliao,"[{'height': 2304, 'html_attributions': ['<a href=""https://maps.google.com/maps/contrib/111322354881506091271"">呂敏男</a>'], 'photo_reference': 'AUGGfZnj_zwsMEIOzRcN3PQ79BTxoQk3eolS_379-yH5OQ5sxJJoXuvmFf5bsg9LiOErfLIc_w_4ECvukfOuWeIPYwF09dxEd4rAQVwnJNWo2rpvVHAyzM74I7MRoqZWjb6vikqNAiEEFKMSyVITbmPjizt74BtFoCXXFr6bKPBvf0NLpZGQ', 'width': 4608}]",ChIJiZ98eTE-aTQRN_qOo2IvUa0,4.2,"['tourist_attraction', 'point_of_interest', 'establishment']",860,24.1469257,120.5757056
"No. 3號, Butou St, Lukang Township, Changhua County, Taiwan 505",Lukang Old Street,"[{'height': 3024, 'html_attributions': ['<a href=""https://maps.google.com/maps/contrib/110299571902703542304"">吳聖崧</a>'], 'photo_reference': 'AUGGfZnLGa9pX_crEB55aCKcik8T5dWS9P9Ipni8BvERXU3pPT6qjiqIPPF3i3VlidTrmwllChlK9dogloMOoG6tbLYMvkAXEteQkGY7d0Lac3RpoVJrXxq0ePtkGsFU-M2dXiqE1NjkmU4SWJ51545ccaTHfArb2ECM1Hn0oJYCCER_y2We', 'width': 4032}]",ChIJbZ03BtZFaTQRVSahxk_O324,4.4,"['tourist_attraction', 'point_of_interest', 'establishment']",35828,24.056301,120.4325817
"No. 30號, Lugong South 4th Rd, Lukang Township, Changhua County, Taiwan 505",Taiwan Glass Gallery,"[{'height': 2268, 'html_attributions': ['<a href=""https://maps.google.com/maps/contrib/112564911150562964717"">馬銘毅</a>'], 'photo_reference': 'AUGGfZlYxMZ6pf469i7ouXKHf4U8iqs-1sssG7XzIbFlcr98bDFon8BP9Vm2Zvp90ha902hDrcRuFII4bCMRaHYOUc7bIvZJt-AiLzdQZPVkJZiv_ERmx0VN6rgXuAW8IiG4xb7msY6eV5JfR1PEvoU3TxWDp_9-soJ1nbYuNIXnFXrHE8xi', 'width': 4032}]",ChIJbSGqBZxFaTQRMgOxsNfqnGs,4.1,"['tourist_attraction', 'museum', 'point_of_interest', 'establishment']",18423,24.0671834,120.3945595
"No. 30號, Section 2, Xinguang Rd, Wenshan District, Taipei City, Taiwan 116",Taipei Zoo,"[{'height': 2252, 'html_attributions': ['<a href=""https://maps.google.com/maps/contrib/114901751849875603168"">A Google User</a>'], 'photo_reference': 'AUGGfZmQD9jnEsKiL-JzChZS8mJAtWfQMW8JBQnV-ixVpqJF-AwolPKjZg791jvhqtzwXuzxA5Cj96Zp1kLc3Q7gJYmp0Wf_04BDROH7aUr17ThYN2AZck-LmTfwcb-BDmAXfaKHk3z4JTJ8s9IHAFwGU3oP0qCixkwnx0cof_JWDy9qhFYY', 'width': 4000}]",ChIJj4EySmCqQjQRZte0Cf0G_qo,4.6,"['zoo', 'tourist_attraction', 'point_of_interest', 'establishment']",68373,24.9985514,121.5809945
"429, Taiwan, Taichung City, Shengang District",Tanya Shen Green Bikeway,"[{'height': 540, 'html_attributions': ['<a href=""https://maps.google.com/maps/contrib/100989472028481516807"">Petra Tsai</a>'], 'photo_reference': 'AUGGfZl4O7Ezj6bA20BYfYck4xWM5gYmX3oVdg7YnRx9-m9WCUas1oErxhMqV-7gaoloJ4jvaTvgrBtdBrcBSsh8NAS8PLLRbargznlLvjtH34AY6oab2rcWkNjaKrCt918iU61p1CRAGNBTfmwYPWUaIUJ6yIps5eEW3XIzHUMjcxoIVMit', 'width': 959}]",ChIJDfFZfkYXaTQRJxvCWohoeXk,4.3,"['tourist_attraction', 'point_of_interest', 'establishment']",3879,24.2327778,120.6944444
"Raohe St, Songshan District, Taipei City, Taiwan 105",Raohe Street Night Market,"[{'height': 3024, 'html_attributions': ['<a href=""https://maps.google.com/maps/contrib/101107354305426827554"">nuttapong imkaew</a>'], 'photo_reference': 'AUGGfZkPiCEiReBbCuhvQkJKpn6pT7Q2e_whCNEJJQ6GKOV2m-vyGodkMU4li1GcLCvuoM6XK2uxhhpI16DfdyLlsS4AxNCjbBUTIi_mAjjadzwBM_iIkyEhQDXKZz1Pb7yYIV-coa6CLPkotCfX5aA1LSodLl8COuKD2KUFpl3vnWbQx3lY', 'width': 4032}]",ChIJg6W0DZyrQjQR9vZdgYMRoj0,4.2,"['tourist_attraction', 'point_of_interest', 'establishment']",69294,25.0508854,121.5774891
"No. 36號, Liantan Rd, Zuoying District, Kaohsiung City, Taiwan 813",Spring and Autumn Pavilions,"[{'height': 2203, 'html_attributions': ['<a href=""https://maps.google.com/maps/contrib/111581661085849546137"">sandy</a>'], 'photo_reference': 'AUGGfZkQrsxLzb8Bbk95CnamLBDwLIHYYAFRRS4qIAvGaVe_DizERoKXQlyvVY6awmOnofy3pmahlxhgRnTXcdWM4TDOYteA_cSRSk6-pgSbDq3d46Y4w1Ri2n34JXGq5cSGndvfq0PtqH-AXfZGBEqAyDVz4rhb4E2TtRTsZU1ucNYyZdU0', 'width': 3584}]",ChIJH24YWp8FbjQRth_YQG30ohc,4.2,"['tourist_attraction', 'point_of_interest', 'establishment']",4251,22.6822687,120.2927297
"224, Taiwan, New Taipei City, Ruifang District",Nanya Rock,"[{'height': 3024, 'html_attributions': ['<a href=""https://maps.google.com/maps/contrib/100716790736697228513"">Adrianne Kam</a>'], 'photo_reference': 'AUGGfZk5cjlYfSLTGRg4tZMG7jUowsQ5PLw7_xE9OkBkHs6ht2BMf-1DKIXUoV7wfEiZS9gOTkxKfE_1fIpkjnSRjlPLQxBEcSuvFXPAy0cltIFJ7xidI4SikDn7uxS-l_AR1QAwxuXGQj2wCUjZdkRsYJE3eDQEyJ5lOdRXQ4zsN_LUS0oa', 'width': 4032}]",ChIJkwRkDH1EXTQRRjUuy9qciLE,4.4,"['tourist_attraction', 'point_of_interest', 'establishment']",5107,25.1201101,121.8931215
"803, Taiwan, Kaohsiung City, Yancheng District",Love Pier,"[{'height': 960, 'html_attributions': ['<a href=""https://maps.google.com/maps/contrib/112459142066227138274"">Hero Yang</a>'], 'photo_reference': 'AUGGfZmBfeIrznTLGCLvL6Q1J9S55m1FQcBngva2Fu79nvLfImwubCDbIG-90uzaxCPL3qPECWlkaM7SzW_kl2_Xz-fZrhH4W7V5yaCx_dT-Iv89NcXZIUfGan0g6P3rp8adjCQ2MjAN5XMzeIPF0IJ0EmyP4qMMJnFyRwf-ngUaYMCp0QJG', 'width': 1440}]",ChIJwcE3jngEbjQRJa0LDqjdqzs,4.6,"['tourist_attraction', 'point_of_interest', 'establishment']",385,22.6184858,120.2897204
"228, Taiwan, New Taipei City, Gongliao District, 福隆里",Old Caoling Tunnel,"[{'height': 3049, 'html_attributions': ['<a href=""https://maps.google.com/maps/contrib/113676570835016267941"">Jenna Hsieh</a>'], 'photo_reference': 'AUGGfZl-rE6lWSvOpEf4MiBfF4lRRLQYAQFRhMtxhh_6hfdJnV-7kK4qA6qAAvH9DK07_hm1QVoZ7mGJXlfmxq7SfoTxPRNCA2UrORcsibWtKuEY7lp3JDDpMnesXpZycCb7uM1OrSkXRjhnfkXYMgTJAOWNduq8h1uh8bwyb_JwS1ouvt0', 'width': 4032}]",ChIJmUjPHA1dXTQRB-tXTydBtUo,4.5,"['tourist_attraction', 'point_of_interest', 'establishment']",4826,25.0039454,121.9583462
"No. 21, Zhongshan S Rd, Zhongzheng District, Taipei City, Taiwan 100",Liberty Square Arch,"[{'height': 3024, 'html_attributions': ['<a href=""https://maps.google.com/maps/contrib/100986338517655561036"">WinnLee1980</a>'], 'photo_reference': 'AUGGfZkfB4kGsmHsGftVgNzk7UtImERw5bGO4EkRxWXDfrJLdsocTytQh3PyYjdqJtp3WqaO_LRf14AIwB3OggTlRHbcWp-vLN-eB8b6SgepIutmeoC_d970ueQHfPv9D48sXGyqP0fns4pJUbQBRdiSZgzejW1tpO7GddENplFCRbf2sRsd', 'width': 4032}]",ChIJoXv-L56pQjQRJ0xYVbIxJrY,4.5,"['tourist_attraction', 'point_of_interest', 'establishment']",4545,25.0366259,121.5175666
"228, Taiwan, New Taipei City, Gongliao District, 研海街45號",Blue Bay Park,"[{'height': 3024, 'html_attributions': ['<a href=""https://maps.google.com/maps/contrib/112998656242898561313"">Jeff Wei</a>'], 'photo_reference': 'AUGGfZntOKu4yvaWAJkWS3wjPKLNDPJNcIbS2fmeX9PyPP6r2fzi0drbOwzczjF5pwnRJBaeoR-8aRpeRPi9IE2LOnlvJ9msVFkyx2fYb22nctLDHWZkDdAHMTCWt5wu3TlM4MC8VD0SSFJII8xwITRYWuddTptOdIVAWqzMtnmFOpRcZHNi', 'width': 4032}]",ChIJK97PkO1cXTQRhsV8IQygqiU,4.0,"['tourist_attraction', 'park', 'point_of_interest', 'establishment']",1672,25.0412256,121.9264475
"No. 60, Fulin Rd, Shilin District, Taipei City, Taiwan 111",Chiang Kai-Shek Shilin Residence,"[{'height': 2252, 'html_attributions': ['<a href=""https://maps.google.com/maps/contrib/105247005301969627395"">楊舒雯</a>'], 'photo_reference': 'AUGGfZlvnhKXD6YuMgB_RWbrVGpoCDINl1z4zr5nOqCa_NnSjmkGNLtwxO2AAOC77OJfKRwHTMU5b3vzyDpCUQZHCsV-wS75Lvj8PyywXqW_Bx_tN_cZXg4mntTgIsiQ6p2m3W0FTYCQnbJc0ae9JWXjmRAXTyUeSq9SVD06PuaA4fI2s4l8', 'width': 4000}]",ChIJm5fgyKOuQjQR3vKgJWoDVPk,4.3,"['tourist_attraction', 'point_of_interest', 'establishment']",22005,25.0930342,121.5323955
"No. 1號, Dayong Rd, Yancheng District, Kaohsiung City, Taiwan 803",The Pier2 Art Center,"[{'height': 4032, 'html_attributions': ['<a href=""https://maps.google.com/maps/contrib/112912770405992889771"">toi ka</a>'], 'photo_reference': 'AUGGfZnPXPf0MvI1wH22twfE5II069iRvpa9uDt9TQkbwetIiNi0z70PQS7ARK-euJqfvfc9Aa3wXImNKg3xXZD8ALyP9FNsf_LPaug0ca-KrMelC8jIGgsVJvgJ8y6WJiD2_azj_thGasRF73EoBdTS4SgbXrqsvmcmmyFhZnYuySvNK7Ww', 'width': 3024}]",ChIJW8ThIHYEbjQR8k12HL3R1uY,4.4,"['tourist_attraction', 'store', 'point_of_interest', 'establishment']",69483,22.6199803,120.2815287
"Yizhong St, North District, Taichung City, Taiwan 404",Yizhong Street Night Market,"[{'height': 2268, 'html_attributions': ['<a href=""https://maps.google.com/maps/contrib/101453172748226089897"">simon kuo</a>'], 'photo_reference': 'AUGGfZl1oJuoZUS-B2zNqcOuBmNPHLVVFhuXZBMmPpwjdkE7iUOeZx_lcTPCtkNWg9K8DFNi3ikw8-Lb6CHINh_RCdgbDUxDAOlieNUQjgt0CaF_i8YKc_5GZfdqqXYeDsoinrpeVKr-FYkyyPXBB8-GvjHnQJmBYGGwvbflyTqNoyVVxNVb', 'width': 4032}]",ChIJeZhxjmg9aTQRu4ClJlnbzHk,4.3,"['tourist_attraction', 'point_of_interest', 'establishment']",45601,24.1479393,120.6844636
"No. 68, Yinhe Rd, Xindian District, New Taipei City, Taiwan 231",Yinhe Cave Hiking Trail,"[{'height': 2268, 'html_attributions': ['<a href=""https://maps.google.com/maps/contrib/106885542356807546507"">Chang Michael</a>'], 'photo_reference': 'AUGGfZny8rowBJm19N6UmXdx9hwgCeUIYdWPelFz_XWNJsQcXcXSJgstSpUAeneoMz69ZgMKZCniE4Cj7dBTafQQkjVhC8v1vBDrXhQ9JHpkcqKqcEk39jYELXk55R4V1D4SPrNV8M1w_045ZUIMu4fRKrF2CE1hAzLQsIp1u6COOKVVN27R', 'width': 4032}]",ChIJ_R7bljQAaDQRDL_xmfIZyNc,4.4,"['tourist_attraction', 'park', 'point_of_interest', 'establishment']",2481,24.9587432,121.5812439
"XHHG+28H, Pogag, Palalang, Kec. Pakong, Kabupaten Pamekasan, Jawa Timur 69352, Indonesia",Wisata alam bukit sekaran,"[{'height': 3024, 'html_attributions': ['<a href=""https://maps.google.com/maps/contrib/117419692813983626702"">zainor rofiq</a>'], 'photo_reference': 'AUGGfZnhkHBURmF8H5FY-RxESOYdr9Swj3plqqOyRiAfQ3qoMyrlZVl2jHaUYkjMyIcgrHnCqTKIdX5M-vbgtj_Kgkv0-aI597bIqU6C-qkYd8vg4e0NrQLV9jmy9bIhNZEHI74yeLI74ycKxaqV1fn90Rme3VsZFJP65ahu7zou5NJC9poG', 'width': 4032}]",ChIJM8qDdibb2S0R_3wVu1SQUS4,4.0,"['tourist_attraction', 'point_of_interest', 'establishment']",18,-7.0224289,113.5758716
"Sumberbintang, Pakong, Pamekasan Regency, East Java 69352, Indonesia",Puncak Pakong,"[{'height': 3000, 'html_attributions': ['<a href=""https://maps.google.com/maps/contrib/112504640692438537357"">A Google User</a>'], 'photo_reference': 'AUGGfZk8H36BgvelItUTTvvonDaTUeUCvBTK1codcvodPmY5V9LGFLK7tPq4wlzvdlAreixGexD_NYBnrBW7Yaj3UefYxOxCHL-Pqec3ffwWSUypZy_yvJkhPipoU5suAKa8YOjlEtP8Y8oj8mzUmc375XD79D4aWhKuX-ouWGDFnTHyIabP', 'width': 4000}]",ChIJ1Uu6OrvR2S0RbbH7W43N76Q,4.8,"['lodging', 'point_of_interest', 'establishment']",4,-7.0247808,113.5398358
"Kejen, Central Sana, Pasean, Pamekasan Regency, East Java 69356, Indonesia",Lembah Durbugen,"[{'height': 3120, 'html_attributions': ['<a href=""https://maps.google.com/maps/contrib/117892261083593969326"">Abim Habibi</a>'], 'photo_reference': 'AUGGfZkwldAC-VLi-mG2s0e3n-Y8hcnviIkgR9gZmJ1rYhowZ0rPSUCwvQ5XJXs6ZZ0BEjZWwzfEPvcDwG6DOo2l1G884Jv7Rdb5Y1V0SK8F_geSCvcf0yuC0Be3P2iL9UewIM_Ol_ETHG5xeu_kekFQ0fxauOXKJp3-UQNkuEmAy4gHagS2', 'width': 4160}]",ChIJ00lNOaPF2S0R7w3QfE0bxUw,5.0,"['tourist_attraction', 'point_of_interest', 'establishment']",2,-6.9516619,113.5945097
"VCP6+H34, Bijanan, Biccenan city, Kec. Proppo, Kabupaten Pamekasan, Jawa Timur 69363, Indonesia",Biccenan city village,"[{'height': 3000, 'html_attributions': ['<a href=""https://maps.google.com/maps/contrib/114070720121900601132"">A Google User</a>'], 'photo_reference': 'AUGGfZnLoGSB3ZNbOJV0XaGrKPNEQPmAsWnIk3ZEsG2MmbblDlQd9y1eFczYLRtUhyjPHjjmxGyVnrZyMQSODifgGqns8uwDlOmJnjGY0CcPUEivW2I7jWSROgIKIGhFKOS5uXKLF_2oz_f53LddwVih2rJnlv1o3-aN7Q1C7DDxo45rOVDJ', 'width': 4000}]",ChIJX483Y5TV2S0R8mF7oRz9D2s,4.5,"['tourist_attraction', 'point_of_interest', 'establishment']",8,-7.1136108,113.4102046
"2GPV+6P, Co' Gn. Atas, Waru Tim., Kec. Waru, Kabupaten Pamekasan, Jawa Timur, Indonesia",Wisata puncak tinggi waru,"[{'height': 4160, 'html_attributions': ['<a href=""https://maps.google.com/maps/contrib/115892903251260008195"">A Google User</a>'], 'photo_reference': 'AUGGfZl9PogLe-VQtgqkyqpC-IPmXoDE10XreGCNJo-htxZl8zspxGLjqJcEIAuo7wXoYt94zT1gQTgLuw7fAr5bC_PVkKX-cDyAKZHHxcnbBgMtscOJf_dK1vwyRlJV4NGAl-w541d2lB7OnsvbXph1SfRQGvTdepxYp84HLRfY_X2ZIAwM', 'width': 3120}]",ChIJB3Cr3WTP2S0R_PjdX4F7grU,4.8,"['tourist_attraction', 'point_of_interest', 'establishment']",5,-6.9644128,113.5442778
"3H4P+JP, Laok Gn., Sana Dajah, Kec. Pasean, Kabupaten Pamekasan, Jawa Timur, Indonesia",Wisata gunung elang,"[{'height': 1920, 'html_attributions': ['<a href=""https://maps.google.com/maps/contrib/102703772200057501409"">A Google User</a>'], 'photo_reference': 'AUGGfZkFP2IxUZgooBheBJeFikHurljYsTSz65uZ3RIbi2dh-HhEUclidW5T__56RePCW_gsh1eu_BJ6C362OLMix4FNqL4DQXt4dBQc2wvkxkHdT5YKbhBILPJOklBTrVoK2TYDm7ulfQBOZ8DvG6WH_9DPHq3zT3JGTuodVQ5uGfAQdHks', 'width': 1080}]",ChIJj9whxsLF2S0Rzu5GshvhpE0,3.0,"['tourist_attraction', 'point_of_interest', 'establishment']",2,-6.943428099999999,113.586751
"Jalan Pasar Pakong, Pakong, Kec. Pakong, Kabupaten Pamekasan, Jawa Timur 69352, Indonesia",Pasar Pakong,"[{'height': 3096, 'html_attributions': ['<a href=""https://maps.google.com/maps/contrib/116195434153470958430"">IGRA Larangan</a>'], 'photo_reference': 'AUGGfZni5a5B6hvAdTXxXAIv2lBNlnY0xeZFS9cC2Zd0iIig3JRen0RrmamM0tKKsDaBzf9E5yPsIepEoxENtRD7j48cLP--ordr9oS2wJsM2dPmixD7wTn-WYyGumlPcgKNp3UX4OJ4KcNIK8SpGIP6-2ZptKh-HSFC1oNKg2hm8bAVwS_n', 'width': 4128}]",ChIJd_oBRpDQ2S0RjuhldwOQmdA,4.1,"['point_of_interest', 'establishment']",1267,-7.034975699999999,113.5587557
"RCWV+5QH, Jl. Kh. Moh. Nuruddin, Keppun, Samiran, Kec. Proppo, Kabupaten Pamekasan, Jawa Timur 69363, Indonesia",Wisata petik jeruk,,ChIJlw3a32N_1y0R0v-XLg568l0,0.0,"['tourist_attraction', 'point_of_interest', 'establishment']",0,-7.1553359,113.4439193
"RFQJ+RV9, Rw. 03, Barurambat Kota, Pamekasan, Pamekasan Regency, East Java 69317, Indonesia",Arek Lancor Pamekasan,"[{'height': 3456, 'html_attributions': ['<a href=""https://maps.google.com/maps/contrib/118091948146140520275"">nurholis adi</a>'], 'photo_reference': 'AUGGfZnYKACI29xz5J7LlSYQdbhHMOSWKcuNp-It4KIvKoQ5TY4skFAJryEhwGChjwTk2oLKaMJr1ImchwxCVzWzMtaN7YRCHIL3vH3WcoxEiHJn12CLlVpIcUD11_0B7r2tqEjqnxcjAZ3gXz8keEbTV_hJ0Q6CfNw8rtkVTxr_gvLdQAOf', 'width': 4608}]",ChIJsWkbsTJ91y0RLt9wJuxuNHA,4.7,"['park', 'point_of_interest', 'establishment']",1770,-7.160470699999999,113.4822335
"WCCR+9QF Laok teklampok 1 sumber batu, Daajuh Daja, Rek Kerrek, Kec. Palengaan, Kabupaten Pamekasan, Jawa Timur 69362, Indonesia",Sumber batu,,ChIJrQwwzwPV2S0RP5AUCTAX9XA,0.0,"['tourist_attraction', 'point_of_interest', 'establishment']",0,-7.0791159,113.4418939
"QCH9+GFH, Atoran, Ambat, Kec. Tlanakan, Kabupaten Pamekasan, Jawa Timur, Indonesia",Pantai tak genna. By: hilwa,,ChIJS5tnAAB_1y0RVzWZtq_1t-k,0.0,"['tourist_attraction', 'point_of_interest', 'establishment']",0,-7.2211911,113.4187404
"Jl. Cokroatmojo No.1, Rw. 03, Barurambat Kota, Kec. Pamekasan, Kabupaten Pamekasan, Jawa Timur 69317, Indonesia",Museum Mandhilaras Kabupaten Pamekasan,"[{'height': 4000, 'html_attributions': ['<a href=""https://maps.google.com/maps/contrib/104733377872766962498"">A Google User</a>'], 'photo_reference': 'AUGGfZlP5gBwDOT-3HVfeID13KWFeJ-AR0Ee-i7rWLynGJ0-17Z83HIAUgIFoSge1XsgO2p0vL8vu6Mq5XzSBT1y_bTf7JJRFG7BSUC84_vtbZvIWnwVPOSGD-rJqzKYng2acLWrDeB-gJQW101pUDVB7r7zkDPsR-nx2PkcqsDr43CmDX4R', 'width': 3000}]",ChIJN2uQm-N91y0RKMTpYdWzrwM,4.1,"['museum', 'point_of_interest', 'establishment']",23,-7.1602057,113.4825813
"RFMM+CHG, Rw. 01, Barurambat Kota, Pamekasan, Pamekasan Regency, East Java 69317, Indonesia",Palm Water Park Pamekasan,"[{'height': 3000, 'html_attributions': ['<a href=""https://maps.google.com/maps/contrib/107954729127153074299"">A Google User</a>'], 'photo_reference': 'AUGGfZl5FN-xUfoTW-TU-IbtT--zSR9vqp_tBX9-FXKwnYEK5R7vk6jBUIBl7zJSbeEL1lLDXfAY6so3f5g5bdjGSP7Y1VMpwpLpYAaX6IP4KmP1NVvcR1KmkaRoafqtGXldKm4zng3epkS8vukDfqY3iUXG21KsRKfhlAKX3HDMksNcLRrm', 'width': 3000}]",ChIJlaOaTud91y0Rb7J-Ywvp05I,3.9,"['point_of_interest', 'establishment']",19,-7.166394700000001,113.4839642
"R9XP+3X5, Dusun Tengah, Gro'om, Kec. Proppo, Kabupaten Pamekasan, Jawa Timur 69363, Indonesia",Simpang 4 batuputih,"[{'height': 3024, 'html_attributions': ['<a href=""https://maps.google.com/maps/contrib/116344126460971721439"">Yuniar Ahmadani</a>'], 'photo_reference': 'AUGGfZkSjDp6fEX9WLYUvJzBiIpfHaJwGM7LbxCAls3fh4ik8kameE3BDZU8Cr2NCnG7zRenIPCqkZnwoJYYmOhuOVSBary7bVcVIojY6zSEHTmVMOhdB0jl40y-zrCN8Cun4Y6eCnPhdsD8a12gaFk6-M1fm7zyyhFTRSn_ItF7mg870aOl', 'width': 4032}]",ChIJPbTnSqvV2S0R8xAGKUGBIzI,4.0,"['tourist_attraction', 'point_of_interest', 'establishment']",2,-7.1523723,113.3874688
"Jl. Purba No.16, Rw. 01, Barurambat Kota, Kec. Pamekasan, Kabupaten Pamekasan, Jawa Timur 69317, Indonesia",Kolam Renang Palm Water Park,"[{'height': 3120, 'html_attributions': ['<a href=""https://maps.google.com/maps/contrib/103589873731938146366"">faried hasan</a>'], 'photo_reference': 'AUGGfZk_9nmlMjMIz2i6l1gZ4HnDBVQiQUsyMfNGjs6i_XRy7BxLPK0tOXqhGstaaKahGB-QEtd3F5wByogNxKPqECmZ9_tEPAzkHSWxfI3zAsLrbl0huH722AD42Xz3yDdW7v4B7cwglrEc4DlrBa3oJwBfC5NYB_4b6dTtxu943yksbZ6K', 'width': 4160}]",ChIJUaHQxOB91y0RTcV0UkrKnQo,4.1,"['amusement_park', 'point_of_interest', 'establishment']",235,-7.165414800000001,113.482621
"QCFX+5GW, Jl. Pelabuhan Branta, Kec. Tlanakan, Kabupaten Pamekasan, Jawa Timur 69371, Indonesia",Pelabuhan branta,,ChIJdYLiZgB_1y0RDmKspiOJKLE,0.0,"['tourist_attraction', 'point_of_interest', 'establishment']",0,-7.227001599999999,113.4488127
"VF2X+4VQ, Jl. Lawangan Daya, Barat Satu, Sentol, Kec. Pademawu, Kabupaten Pamekasan, Jawa Timur 69323, Indonesia",Edu Wisata Selamat Pagi Madura,"[{'height': 3120, 'html_attributions': ['<a href=""https://maps.google.com/maps/contrib/108955042216609637651"">Rini Mause</a>'], 'photo_reference': 'AUGGfZm9bMNWqXzoxFLeGGQCLLf-a2nTZkRzSKspkY0XZpQmo6vpy81TrcEq6TvxJpr_wTW32DcNHR7XZur80P33cWxN0C65FId_42W89KkGGDsK9mMYlj9WZnZ4vq0gDzvgvxlheeB-gZQHD8cTDxDkEmKeShc_5FvxDPMbiABcwOHwgWPu', 'width': 4160}]",ChIJyVTx6PR91y0R9uSEWYhQ45M,4.0,"['amusement_park', 'point_of_interest', 'establishment']",275,-7.149651599999999,113.4997237
"4J22+7GR, Unnamed Road, Area Sawah/Kebun, Batukerbuy, Kec. Pasean, Kabupaten Pamekasan, Jawa Timur 69356, Indonesia",Savana Bukkol,"[{'height': 3120, 'html_attributions': ['<a href=""https://maps.google.com/maps/contrib/117892261083593969326"">Abim Habibi</a>'], 'photo_reference': 'AUGGfZkuJDIgsMpUCyEQ5vqhTCuSqYKsRZJv_IZGxKqrY0GYCzQvznG17lU9HC36ny0JGCwZ8A26iLydpMSIXf4kSCVYZcRH3UUCkegvJI9xejOYEuAaRiro_eTj6j0QgPUPMpFN5TJSq139zHZbHMy39x8oqiVdg1GRY_h58eyvKcTkZl9M', 'width': 4160}]",ChIJvdau6Z3H2S0Rsbls9ZiJdK0,5.0,"['tourist_attraction', 'point_of_interest', 'establishment']",1,-6.899254200000001,113.6012614
"4H2F+J46, Lb. Timur, Tlontoraja, Kec. Pasean, Kabupaten Pamekasan, Jawa Timur 69356, Indonesia",LEMBAH SEMBIR,"[{'height': 2448, 'html_attributions': ['<a href=""https://maps.google.com/maps/contrib/102783446160568892233"">slan deliora</a>'], 'photo_reference': 'AUGGfZmt9w514NYy9chu1nD-d19QKqDg8P4anl0HgK23QmmwyQSVvFkPtVgOoqjWBqtxknD5tS3qdx6HIo-n9OLvnvLSJX4dNtO2k-uttE9-tSIGxk_mQ-1LdWhtvihX1l60Qo6P0OHGTT72c0bpkN2VWqibFhhbSt6qgrxGVrmk8-KBdvL0', 'width': 3264}]",ChIJobG1AKrI2S0RJT5Di86gtuA,3.7,"['tourist_attraction', 'point_of_interest', 'establishment']",32,-6.8984597,113.5727669
"3HC9+W4H, Duko, Tlontoraja, Kec. Pasean, Kabupaten Pamekasan, Jawa Timur 69356, Indonesia",Air Terjun Ahatan,"[{'height': 3096, 'html_attributions': ['<a href=""https://maps.google.com/maps/contrib/109794773690946878705"">Titim Nuraini</a>'], 'photo_reference': 'AUGGfZnsO68trtng3OV_IAoF3W9PAM64udqv4IMbB1l00QrCh5cAsiLO1AxvKjUMjvSj7W_WLAOj7sJ4DMonPU3imNIwv63DhD7TsdFVgnsizG572_byjOQLZqio06cAhvpifccttOkn8DnJYZ1afr6um_Q2GOnBNnkLu-noeMiFfvAW1Bo', 'width': 4128}]",ChIJS4nfWmHP2S0Rc5E8fTyJW98,4.1,"['tourist_attraction', 'point_of_interest', 'establishment']",105,-6.927683699999999,113.5678597
"2HQQ+Q4G, Jungjang, Sana Tengah, Kec. Pasean, Kabupaten Pamekasan, Jawa Timur, Indonesia",Family Bu' Mahfud,"[{'height': 3000, 'html_attributions': ['<a href=""https://maps.google.com/maps/contrib/107606487972909829827"">A Google User</a>'], 'photo_reference': 'AUGGfZlb9J5m-gXEQ823eLEYK4XMWgpBWcjdz5HNsRCX6OWCaAIPPkoQfh94UtAtDTU5PAfchuAKe-wGCR2qIJ09ofh48f1RnfOOwaUZENdBpPd4_UUGHqUa6Gh7RVHVzHI8tC3LePXVBnVVjQHToHiVzZwoi7-ZX4DpSN5GSkWVQY7jyTeQ', 'width': 4000}]",ChIJwcqKnVbF2S0RaWZG0ONuGuE,5.0,"['tourist_attraction', 'point_of_interest', 'establishment']",1,-6.960550899999999,113.5878285
"Jl. Raya Pasean, Lb. Barat, Tlontoraja, Kec. Pasean, Kabupaten Pamekasan, Jawa Timur 69356, Indonesia",Kebun inab 2,"[{'height': 3120, 'html_attributions': ['<a href=""https://maps.google.com/maps/contrib/113008702523705549614"">A Google User</a>'], 'photo_reference': 'AUGGfZkXu9M9EU1WJZmobUduWTNlV9z5yRmF72cVR63frCVPGhuVsJe6DxL43lqMnOmXRl80dEVVTW6rjdAP-HHL8czm4J5--i7TJbLa7HzT0owOe_DMy0MCfULjVM7ap_FeH7k6NUFXu80GlwgUnLocNIMyzCu6Mz4cuXMDhxAOu75xQEA_', 'width': 4160}]",ChIJW-uXQezJ2S0RVQVJnHO70bg,4.5,"['tourist_attraction', 'point_of_interest', 'establishment']",2,-6.897911799999999,113.5541068
"Korong Daya, Central Sana, Pasean, Pamekasan Regency, East Java 69356, Indonesia",Goa Ghuttol,"[{'height': 4160, 'html_attributions': ['<a href=""https://maps.google.com/maps/contrib/114044060296687330380"">A Google User</a>'], 'photo_reference': 'AUGGfZmzSQTQfiPWTVdkvTivAQLe2vt9432t9Klbs4tkraUqKLcGlenhCiZsTeYmdq4naPmZwpr9SAfnu4mCIEdpIIebmboJLKSkQr2UPI1zNM8Vbz5SUiVQllFG5eM7TouxzWW_W_UTfqcnhnXjIyg2lVcMgy57-xnIhZ6TL5IH3UW6nOHz', 'width': 3120}]",ChIJPYfD6WbF2S0RQkVNMSMp2VM,0.0,"['tourist_attraction', 'point_of_interest', 'establishment']",0,-6.9417354,113.6137046
"4J62+GW5, Jalan Raya, Pasean, Madura Island, East Java 69356, Indonesia",Pantai Cemara Indah,"[{'height': 2304, 'html_attributions': ['<a href=""https://maps.google.com/maps/contrib/106227161065654351959"">Ila Muizza</a>'], 'photo_reference': 'AUGGfZkxrF3rysNoPC0FUnb1txHy7H0l-Srnj0Bg9fi_oE9NhnTCAOv38-XHwae1Uqxy_O7wh9bqZohTogWoEVZessT9MM5l1T6pCHKSn7TJPizrdMSpyd6BfrD5e3apLXoRwI1fFMOgXvAS8fx1pnCOHfihfBgU9ydAx4a2cWvyn1qWD2V3', 'width': 4096}]",ChIJGZOEmwvH2S0Rrjrx_7TZFoc,4.3,"['tourist_attraction', 'point_of_interest', 'establishment']",125,-6.888732,113.602368
"2JQR+64, Bertah, Lebeng Bar., Kec. Pasongsongan, Kabupaten Sumenep, Jawa Timur, Indonesia",Dam Bertah,,ChIJixTKkGXF2S0R2fUbgfKLmZY,0.0,"['tourist_attraction', 'point_of_interest', 'establishment']",0,-6.961159599999999,113.6410469
"3FRP+G28, Rojing Daya, Blaban, Kec. Batumarmar, Kabupaten Pamekasan, Jawa Timur 69354, Indonesia",Heritage Caves Blaban,"[{'height': 4160, 'html_attributions': ['<a href=""https://maps.google.com/maps/contrib/115212406926565011886"">zhen To Zain</a>'], 'photo_reference': 'AUGGfZmhhIJr7TKqfQ5i9oggmT8OpUa4YP4hvhXMVYcDXXlmEXViDh6D8HfPu-x8phgN35gmf6hV22LhMAdYqwi5UuN9iOm_QZO7IbJIYlWEweAQK0OY_IO9qpNQSJFLmpSZJR5AiYpDQuqO9mIeO-VV4BRm1W3cm761chYa0N_xKG_9p9mk', 'width': 3120}]",ChIJ08WewKzO2S0R059KAS3Viqo,4.2,"['tourist_attraction', 'point_of_interest', 'establishment']",65,-6.908720600000001,113.4850706
"4H5G+696 Pantai Batu Kerbuy, Jl. Raya Pasean, Kec. Pasean, Kabupaten Pamekasan, Jawa Timur 69356, Indonesia",Pantai Batu Kerbuy,"[{'height': 3377, 'html_attributions': ['<a href=""https://maps.google.com/maps/contrib/103669919651573398344"">A Google User</a>'], 'photo_reference': 'AUGGfZkttZet_WzMYyQ4tS13MyyhnzXga9LZF15hTDYy-b5vA7DPp6W8dA2hK7YmOiM85lgYc-w2OsYU5jdmaQksUhJ1jGt2ESPxo7uKyG1lgrLkYZvmFgiqcJtFBVrfOJ4xrO5RD0T20DBvYOkda9cp6_3e0uwQv7afY4dIWAT29lQDvcie', 'width': 2160}]",ChIJrdW_6CPH2S0RskG4B_4XBXE,5.0,"['tourist_attraction', 'point_of_interest', 'establishment']",1,-6.8919684,113.5758797
"2J89+M66, Tanggul, Montorna, Kec. Pasongsongan, Kabupaten Sumenep, Jawa Timur 69457, Indonesia",DAM TANUNGGUL TIMUR MONTORNA,,ChIJV5ovsTfb2S0R2dG91ahzIXQ,0.0,"['tourist_attraction', 'point_of_interest', 'establishment']",0,-6.9827878,113.6184922
"2MF5+3C, Platokan, Prancak, Kec. Pasongsongan, Kabupaten Sumenep, Jawa Timur, Indonesia",Wisata PETANI,,ChIJtSWxMADF2S0RKd6Chi5a7x0,0.0,"['tourist_attraction', 'point_of_interest', 'establishment']",0,-6.977317299999999,113.6585591
"XJJP+447, Jeruk Durjah, Tambuko, Kec. Guluk-Guluk, Kabupaten Sumenep, Jawa Timur 69463, Indonesia",MOUNT PANGELEN,"[{'height': 3120, 'html_attributions': ['<a href=""https://maps.google.com/maps/contrib/114650971245018991862"">A Google User</a>'], 'photo_reference': 'AUGGfZkiG3OP2pyIs2AiiLtdWLbOosSGTUSacX_XaP9pgvr7i7_A6B6M34jDywVDVN6vuSrSJq8Kh6NYv5mzZbnMgN2bTN2a62gAb9rXzsTbdGClPAh8k1zEom2LJv5CLy4JvEG6tRtv7lhqQXlIT5b1GvTaBf_4BpDXtzjA6kgmnNrCuAYZ', 'width': 4160}]",ChIJcRZSyu7b2S0RbayjF7fw2Lw,5.0,"['tourist_attraction', 'point_of_interest', 'establishment']",1,-7.0197069,113.6352825
"3JCX+FV9, Pancor, Lebeng Bar., Kec. Pasongsongan, Kabupaten Sumenep, Jawa Timur 69457, Indonesia",Wisata Pemandian Beto Tete,"[{'height': 4160, 'html_attributions': ['<a href=""https://maps.google.com/maps/contrib/107723009152046200449"">A Google User</a>'], 'photo_reference': 'AUGGfZmW--Wwsh60xZgP90LYGmvBfoYDC7Zz9IdizmHkCrsZ2N4Qw_zISH03BBpwwjUcKPaLELUYSo6lSyOosYGDFlOpocvIVM153yoktu0ZgoVg_o-6cSAFo1uBldFoeumh-8UsUKT0ziVTqmeDmtzrIDK-td5yh5-HnPhH0c9qTQjVDku1', 'width': 3120}]",ChIJlS1W-6XF2S0Rrtv0LQL6uPI,3.0,"['tourist_attraction', 'point_of_interest', 'establishment']",2,-6.928844199999999,113.6497222
"4G6V+HG3, Tlontoraja, Indonesia",Tmpt mancing,,ChIJpcu3BQDJ2S0RIn0nyHMEVlc,0.0,"['tourist_attraction', 'point_of_interest', 'establishment']",0,-6.888608899999999,113.543783
"4J8F+CR, Batukerbuy, Pamekasan Regency, East Java, Indonesia",Spot pancing GACOR,"[{'height': 1440, 'html_attributions': ['<a href=""https://maps.google.com/maps/contrib/106436629103772207759"">A Google User</a>'], 'photo_reference': 'AUGGfZkhdQf3UrtA5-ZN69JMOV9tfjOwh_hUKIHLGIcAb3vGiQ5ZfP1kBxmlx-DrDr4CIS2ykRMuGZ4iXsCFDoOjiasw1gS78CVKmhD6wXxZh6vrAAvp6-DnfBIzY3UOn8M_JgaJsceoXsbIM4Ne8wgBAqj_cB2-gWSxx7_P76AG5gueqgQr', 'width': 2560}]",ChIJI_vIx7nH2S0R1XLZDbdNz04,4.3,"['tourist_attraction', 'point_of_interest', 'establishment']",3,-6.8839375,113.6245625
"4M54+CP5, Lebak, Pasongsongan, Kec. Pasongsongan, Kabupaten Sumenep, Jawa Timur, Indonesia",Sumber Pasongsongan,"[{'height': 1280, 'html_attributions': ['<a href=""https://maps.google.com/maps/contrib/115720387334312618315"">A Google User</a>'], 'photo_reference': 'AUGGfZnTFKxe3JtnSwRkgWlM5C8Hpl4kgvCjJMJB-gesoJeCCS07hh8tMfB74RbvM4IaeLt3pVk_IwmyZdK1CTCi5b63w-35ZeLhGcaqRSqopiFC8MWiv4maebnVBrJTnhiFo4Dd98m16Q-KUP33yvUPivPYcnvw3zlhyb_o_P6d-28KoPuK', 'width': 720}]",ChIJganQGKrH2S0RUWy219-j79Y,5.0,"['tourist_attraction', 'point_of_interest', 'establishment']",2,-6.8914985,113.6568642
"2HX7+M8W, Tobalang 3, Waru Bar., Kec. Waru, Kabupaten Pamekasan, Jawa Timur, Indonesia",Sumber Air Taman,"[{'height': 6144, 'html_attributions': ['<a href=""https://maps.google.com/maps/contrib/114440134796136724836"">hikam eva</a>'], 'photo_reference': 'AUGGfZk3XGSB-1QWLj4vO24ZRz_hnafQ8jwKXjTwkhS5UAw8vbGDTyfAmIpXPj0xvT-7dM1Tdyfday_rPcnANkQ8qOkNpBFyrFevtD7ZNrWOWuZ6BHnDhzwRB5dwEvS_YJVFahBH3d5xtlvPvrbxdpeuN9Z6rf2qqKwM99SwjGwmp40B4i92', 'width': 8160}]",ChIJEdYyprXP2S0Rqk_JSKYp_qA,4.7,"['tourist_attraction', 'point_of_interest', 'establishment']",13,-6.9507625,113.5633281
"3MP3+WG6, Pangarangan, Panaongan, Kec. Pasongsongan, Kabupaten Sumenep, Jawa Timur 69457, Indonesia",Gerujukan Waterfall,,ChIJpSv2mBHE2S0RmBwqrVc9Ph0,3.0,"['tourist_attraction', 'point_of_interest', 'establishment']",1,-6.9127011,113.6537539
"4P72+V66, Jl. Raya Ambunten, Bajung Timur, Ambunten Bar., Kec. Ambunten, Kabupaten Sumenep, Jawa Timur 69455, Indonesia",Tambak Cahaya II,"[{'height': 1280, 'html_attributions': ['<a href=""https://maps.google.com/maps/contrib/102345737243192521453"">A Google User</a>'], 'photo_reference': 'AUGGfZlp_Tl7dUVdWlTm0URIN60JcePFeHlSfX9xqzFYUSJp-sIf96Y_RDzdMdo_6c6MsXPSu1R7tq-DE4hshsol99-wjNQSgYAJNGBThkvl7qiytRhmHRDT2ukRDLsHBo1g0WFP2bEYfxEcMX6FJv4IuZ16usursnOpOjlTAdRkhaU90cJ0', 'width': 720}]",ChIJjYK7CHLB2S0RAGf8br9joRE,5.0,"['tourist_attraction', 'point_of_interest', 'establishment']",1,-6.8851749,113.7005437
"2G6X+487, Jaah, Tampojung Pregi, Kec. Waru, Kabupaten Pamekasan, Jawa Timur 69353, Indonesia",Air Terjun Kappul 447,"[{'height': 3000, 'html_attributions': ['<a href=""https://maps.google.com/maps/contrib/104502359919061693808"">A Google User</a>'], 'photo_reference': 'AUGGfZlMcgvCNwQ-2S_wcy3UKjJwIxev9KKIQ5J1Xk385aa8Ku2_-TKbpPz47dCy0Sm_NM4CGF9cpTk7BAgmmYXdKTnWCnlIzFNLPziu_5DCojteOkXReobgDy7_9dkcXBJu998zQg6YlVVANoCnmIIO50NMXKj_zmcQHRHhlIVk5K-S51MU', 'width': 4000}]",ChIJ_dGusufR2S0RRIyvnQIrJr4,5.0,"['tourist_attraction', 'point_of_interest', 'establishment']",2,-6.9896781,113.5488822
"Jl. Perikanan Ambunten No.40, Jung Torok Laok, Ambunten Tim., Kec. Ambunten, Kabupaten Sumenep, Jawa Timur 69455, Indonesia",Paseser Ambunten,"[{'height': 960, 'html_attributions': ['<a href=""https://maps.google.com/maps/contrib/101174401897844448442"">A Google User</a>'], 'photo_reference': 'AUGGfZk3fgY5PIs0_Pta3K7mW3J9PKAbKth0QUnXVaEDsrKWtozP3Qc7FCdXh-5SFI32FZD1aTIhfFClmxwuT3PB6UIU6m_7hNMXa9U7JbXJZbIDu7-g_RbUw44733-81UQvGj4PxK33aPc3xMQBamhvatae7b_kCSL6Fi-h55BfFiXumkoK', 'width': 1280}]",ChIJgfZUQAPB2S0RqUdI2R_PGdk,5.0,"['tourist_attraction', 'point_of_interest', 'establishment']",3,-6.886690000000001,113.7361937
"XJJC+8CH, Mlangan, Payudan Daleman, Kec. Guluk-Guluk, Kabupaten Sumenep, Jawa Timur 69463, Indonesia",GOA PAYUDAN,"[{'height': 1944, 'html_attributions': ['<a href=""https://maps.google.com/maps/contrib/100045091911676217951"">A Google User</a>'], 'photo_reference': 'AUGGfZm72ZdKtmHTjQyIaRatkqzsUy0EA-Kxf_dmMrNjmGoes6dE7wSES2PepjxZW7o45CioCIS0q80GweYJdB_2fBpW760J3I8ZNjll2UBeWEuXaU-9UIGavJ8dvCef46O0gqfmy9L321m0TYT2uKulMIJWXCeVMJmX76BF7zD5CluXknQU', 'width': 2592}]",ChIJt5X0GQDb2S0RNtvdkSpljHw,4.6,"['tourist_attraction', 'point_of_interest', 'establishment']",90,-7.0191902,113.6211218
"XJWP+37, Prancak, Kec. Pasongsongan, Kabupaten Sumenep, Jawa Timur, Indonesia",Wisata air terjun1,,ChIJe0NQTADb2S0Ro541EmsGb-4,0.0,"['tourist_attraction', 'point_of_interest', 'establishment']",0,-7.004770300000001,113.6357281
"4P6H+PJ9, Pandan, Ambunten Tengah, Kec. Ambunten, Kabupaten Sumenep, Jawa Timur 69455, Indonesia",Pandan Ambunten Beach,"[{'height': 3264, 'html_attributions': ['<a href=""https://maps.google.com/maps/contrib/100870817773981471270"">akhmad zubaidi</a>'], 'photo_reference': 'AUGGfZkEpuclxoPZa1VVdWaSh_b3DBxw6wkQi70xwCwx602RV3RI0eQgy8d4MfBPWcCCoF0pQeb6TnFgHAzOYpznJi03G73AmT57dGh_OSIMagA_X3PEVWkvSM42K2Y9RtOJDCybAgHZQtHpbk1LCIQnGkvuwo9Tae92LnzadG8LSRN-yz0X', 'width': 2448}]",ChIJRbYiVvXB2S0RchtWCKLWGZc,5.0,"['tourist_attraction', 'point_of_interest', 'establishment']",3,-6.887181,113.7262171
"XJRJ+R8X, Tegal Barat, Prancak, Kec. Pasongsongan, Kabupaten Sumenep, Jawa Timur 69457, Indonesia",Embung montorna,"[{'height': 2268, 'html_attributions': ['<a href=""https://maps.google.com/maps/contrib/115534518798803385618"">Yusron Dwi</a>'], 'photo_reference': 'AUGGfZn0qS8T-_mwQLzFlzpKhEfezW-7LfuyF4TN9mTI4ntlogUL7iMLarKZQHvFj4H2fxRduYDDVDHlv6Lgk6-bmDvAk4lVWcy3Pivp3mH6rbotHmzTtrWL92YYU026bPyGcCx-K9wzO4bWmAbTOYWfWfFx7VUgnwv6q6sdu5ABZtSLYWlC', 'width': 4032}]",ChIJ71D97Krb2S0R3cvdDcry9sg,4.4,"['tourist_attraction', 'point_of_interest', 'establishment']",13,-7.007893699999999,113.6308545
"4P77+FP7, Jl. Raya Ambunten, Jung Torok Dejeh, Ambunten Tim., Kabupaten Sumenep, Jawa Timur, Indonesia",Pandan Fishing,"[{'height': 1080, 'html_attributions': ['<a href=""https://maps.google.com/maps/contrib/113390390758625797227"">A Google User</a>'], 'photo_reference': 'AUGGfZm1eOutJaAjG14Xb0t5q1z7PlJ1bVYsTzM5oh60oWr3loeeJQQscuYIsdGDx70MvBUM3cmNd9Mqd-8HCGls7u4AJVv1iJOgTp3GecOTtp9HAJ6cJ3SA1nUOVqpSqsjktsls09DpM_PbUUpeFIJAOyNLAN-g8bJssDmO1CgHd8_Q1Xwh', 'width': 1920}]",ChIJG8GHW8jB2S0RcIQpeWL_SGE,0.0,"['tourist_attraction', 'point_of_interest', 'establishment']",0,-6.886326899999999,113.7142917
"XJC8+CRW, Jalim, Payudan Daleman, Kec. Guluk-Guluk, Kabupaten Sumenep, Jawa Timur 69463, Indonesia",Sumber Potre Koning,,ChIJ9YC8RgDb2S0R2mLT0rMGwEw,0.0,"['tourist_attraction', 'point_of_interest', 'establishment']",0,-7.0288979,113.6170843
"XJ9J+G78, Basaba, Payudan Nangger, Kec. Guluk-Guluk, Kabupaten Sumenep, Jawa Timur 69463, Indonesia",Pemakaman Umum/Makam Camplong,,ChIJDfHgXF_b2S0RNTZmEmnB078,0.0,"['tourist_attraction', 'point_of_interest', 'establishment']",0,-7.031212099999999,113.6307147
"XGG4+Q3J, Desa, Nyato, Tebul Tim., Kec. Pegantenan, Kabupaten Pamekasan, Jawa Timur 69361, Indonesia",Wisata Kampoeng durian,"[{'height': 2304, 'html_attributions': ['<a href=""https://maps.google.com/maps/contrib/106227161065654351959"">Ila Muizza</a>'], 'photo_reference': 'AUGGfZkf4jM74qVcj-m6-JS2qAk4y4uDrl-CdIGLkCy0Ni9siBVnqTyIlxshBdMe0e4qZ8JeA2Xk_nEkngRTOXJR-AjHMOqQvLMkrUkYw2PJWLGA6iSAIYmUVppS4v9Zw1fn16xduzIFNu7p6GIa2QHStJWcDTrHUhKIaZ-I5k_fk4d-9tzm', 'width': 4096}]",ChIJO-SreiDR2S0Rn99doWzEHAY,4.1,"['tourist_attraction', 'point_of_interest', 'establishment']",78,-7.0230279,113.5051555
"XJ5X+MRJ, Lengkong Barat, Bragung, Kec. Guluk-Guluk, Kabupaten Sumenep, Jawa Timur 69463, Indonesia",SUMBER MINGSOY,,ChIJT0Q6TRLb2S0RKahptB7l49k,5.0,"['tourist_attraction', 'point_of_interest', 'establishment']",1,-7.040792,113.6495307
"XFRQ+4C8, Montor Laok B, Bujur Tengah, Kec. Batumarmar, Kabupaten Pamekasan, Jawa Timur, Indonesia",Air Terjun Buk tretah,,ChIJk4zudnPR2S0RfjhPfCqRY3Q,5.0,"['tourist_attraction', 'point_of_interest', 'establishment']",2,-7.0097203,113.4885771
"3H46+W8W, Jl. Kendal, Lembanah, East Waru, Waru, Pamekasan Regency, East Java 69353, Indonesia",Soca Center,"[{'height': 3000, 'html_attributions': ['<a href=""https://maps.google.com/maps/contrib/109088251321233782790"">Romdhan Feriyadi</a>'], 'photo_reference': 'AUGGfZnP3-BHGKEjetRZNe78wPflpmmRNwOZhNJ3tSYoT_bY1byLeBRKrPzt1qhRHCt6jX93zCmDU6NZswSXo8ZkK986ExCBMDZYl5N-jxbs9PHU6dtpa5wfK1I-_cyaKtepfLL5HLXHu6N1ydTWYv85J_dTzpT03NqlxS9GynNI5CMgLCK_', 'width': 4000}]",ChIJi88fX07P2S0RjcI8K24kggQ,4.6,"['tourist_attraction', 'point_of_interest', 'establishment']",47,-6.94264,113.5608174
"Utara, West Bulangan, Pegantenan, Pamekasan Regency, East Java 69361, Indonesia",Lapak Durian Mb' Nur,"[{'height': 4000, 'html_attributions': ['<a href=""https://maps.google.com/maps/contrib/104120016717818603763"">A Google User</a>'], 'photo_reference': 'AUGGfZlTvVPYtLLKfFiKE4CEspJrhljBVMdIFoH_3t16rpgoFq7B0sraCxPYla9WIonPrf4zvG9eqevbAbqDTVVCyZNd9sTqtzmNiPdqLPYCwYWNPQxtc1h3nTOrwz4DhYtOcP5W3Gni1sIpH6s5hNgH-OdopL9hgtrVsNtr8J48WH-4IOD7', 'width': 2250}]",ChIJL_XRtJnR2S0Rvzutn8UJeiY,0.0,"['tourist_attraction', 'point_of_interest', 'establishment']",0,-7.0356314,113.5025125
"V989+WJ3, Dusun ombul, Badung Tengah, Badung, Kec. Proppo, Kabupaten Pamekasan, Jawa Timur 69363, Indonesia",Wisata,,ChIJw68yTAAr2C0RrdyR3MG-nBA,0.0,"['tourist_attraction', 'point_of_interest', 'establishment']",0,-7.132726099999999,113.3689514
"V9X9+8XW, Dusun komis, Badung, Kec. Proppo, Kabupaten Pamekasan, Jawa Timur, Indonesia",Makam montokan,,ChIJMwm3aQAr2C0RDNT6srZ3eZo,0.0,"['tourist_attraction', 'point_of_interest', 'establishment']",0,-7.101635,113.3699633
"Dsn Ombul, Badung Tengah, Badung, Kec. Proppo, Kabupaten Pamekasan, Jawa Timur 69363, Indonesia","ASTAH, BUJU' OMBUL JAUHAR","[{'height': 1920, 'html_attributions': ['<a href=""https://maps.google.com/maps/contrib/112017376731839732916"">A Google User</a>'], 'photo_reference': 'AUGGfZlMiMnrnJfZ2frjK0hyyO2r057o4bI26czi1BpF8vxBvbswc4O43FLcvOI7p5_F7j7yuvjr0eYsY4jHSMwOpi8HWzaad9bG7e_scHp1uCs2qFcKiNoVbPnJYtl3TRQV399UzyYJQLha3ZPmSPSs82wrelFjeDa2QAtA-tKT9u5D3hzM', 'width': 1080}]",ChIJWYc_cgAr2C0RnbribFf7lpc,5.0,"['tourist_attraction', 'point_of_interest', 'establishment']",2,-7.131411699999999,113.3706077
"ASTAH BUJU' OMBUL, Badung Tengah, Badung, Kec. Proppo, Kabupaten Pamekasan, Jawa Timur 69363, Indonesia",ASTAH BUJU' OMBUL MENANTU DARI BUJU' LANTONG BATU AMPAR,"[{'height': 1280, 'html_attributions': ['<a href=""https://maps.google.com/maps/contrib/103616135044259936550"">Ra Alung</a>'], 'photo_reference': 'AUGGfZnS7cwMrd0cUxUJuE29WTsQ_W8OcOiyEW0Z4k8aUrX3aSUssb8wtIQcLIT_NNrbstCwy_7XFYIP6YfC3bI8bxYIgvX8_56h72zvVZy4p5uo_2cHQ2v5AMa5TOJSs5Og7U-szpx2q4oAiSaeNIfispCVEbht20ghESY_j7fIJH7H_lvp', 'width': 720}]",ChIJMeSuUQAr2C0RC5K2Fb1EAgs,0.0,"['tourist_attraction', 'point_of_interest', 'establishment']",0,-7.1314289,113.3706092
"VCW4+4RP, Bennil, Proppo, Kec. Proppo, Kabupaten Pamekasan, Jawa Timur 69363, Indonesia",Kopok,"[{'height': 4080, 'html_attributions': ['<a href=""https://maps.google.com/maps/contrib/106835211342046926673"">A Google User</a>'], 'photo_reference': 'AUGGfZnKrwChQXo7N21WZXSFfVEfCq059eaqU8NCxaz59oP56WwK65FiJAuOnWgLCOfQ-03IRxxNTm04r0O4CQaS8FmOHSPz3J1GBHIppi0ZDDQGJUP5nx_2ggoSzG6YDldn9iZoRKa_GxJ2vApAwSO48WzxMb5lvYezxVYEYAnh7_p2JIu-', 'width': 2296}]",ChIJ-ZgeIADV2S0RgKadZmv_TqU,5.0,"['point_of_interest', 'establishment']",2,-7.104651199999999,113.4070288
"QCJ7+V88, Jalan Raya, Trasang, Ambat, Kec. Tlanakan, Kabupaten Pamekasan, Jawa Timur 69371, Indonesia",Pantai Sampang Pesisir,"[{'height': 4032, 'html_attributions': ['<a href=""https://maps.google.com/maps/contrib/116140281812037203762"">jendral tienpeng</a>'], 'photo_reference': 'AUGGfZkyNn6um9WxZ8dW_AfT33tgBmnAry9QZmgWUmljF_f6g-5k6YhsXm5Gq7Z_ZFdTrmPfbKXyBvonaNUkRJWb69cBt9geS4lXUOfoiASFZeRJbsOQobgsbt6cXtXLAvdY9ljWkWTIYbLmot-nLEzrCV41bd-h-P7yay2beFkbVHtwBypV', 'width': 3024}]",ChIJ36iIkcx_1y0RGisOdnPiows,4.7,"['tourist_attraction', 'point_of_interest', 'establishment']",23,-7.2180768,113.4136784
