formatted_address,name,place_id,rating,types,user_ratings_total,photos,lat,lng
"H2M9+WJF, Tomoli Selatan, Ampibabo, Parigi Moutong Regency, Central Sulawesi, Indonesia",Tomoli Selatan,ChIJt-VIQgAvii0RMh0VWHp0Hhc,5.0,"['tourist_attraction', 'point_of_interest', 'establishment']",1.0,,-0.4151956,120.01906
"J22W+Q2, Buranga, Ampibabo, Parigi Moutong Regency, Central Sulawesi, Indonesia",Pantai Keramat,ChIJw5-DdAAvii0Ru_XTT_fjNlE,0.0,"['tourist_attraction', 'point_of_interest', 'establishment']",0.0,,-0.3983943,120.0457004
"H269+FMP, North Ampibabo, Ampibabo, Parigi Moutong Regency, Central Sulawesi 94474, Indonesia","PT. MALLISA ""PhilNes""",ChIJQ4a7dxAvii0RtU1Ol7mYWt0,5.0,"['tourist_attraction', 'point_of_interest', 'establishment']",7.0,"[{'height': 720, 'html_attributions': ['<a href=""https://maps.google.com/maps/contrib/107216393720432495500"">A Google User</a>'], 'photo_reference': 'AUGGfZmY82U3Rw39_pGOcp3RocNE9wgJUKO8cdBukJuzOytQmnWoKaZe_iVZdYZkn2zVGAlqRgAzfEKJXKoWXzXJOth9N_iR2pKiikYg57f7FYZn8oPN3Dn8buQCKJ2Rd4BY6mmsBe8z7koBGHLzvcmDpA3bNsdBBQySQCoT6zmQXceYuxBu', 'width': 1280}]",-0.438789,120.0191944
"Jl. Trans Sulawesi No.36, Lemo, Kec. Ampibabo, Kabupaten Parigi Moutong, Sulawesi Tengah 94474, Indonesia",Reef Pass Salangka,ChIJeQV1z9Qpii0RfQ0hM-4sraY,1.0,"['tourist_attraction', 'point_of_interest', 'establishment']",2.0,"[{'height': 3456, 'html_attributions': ['<a href=""https://maps.google.com/maps/contrib/116775438860112065705"">A Google User</a>'], 'photo_reference': 'AUGGfZkurRlWG05_g8-YhGbdTRwCuEaz7afKWbDTE09ky7OuSbO1dAdf18Ywe_BjC9yPm6igT-R6b-ODFIxQDmXrYuxbxIE0WlUh4kRA_DMkIsCysnorg5fqUeic9ywuL3NSMkhsrilPDuAZlEufPTdbPVUP3NWbn5nynjUpK3WynipY83zD', 'width': 4608}]",-0.4412093,120.0764003
"G24W+WR4, Tolole, Ampibabo, Parigi Moutong Regency, Central Sulawesi, Indonesia",Tolole raya,ChIJib0E6Qctii0RndqiHTDh0v8,0.0,"['tourist_attraction', 'point_of_interest', 'establishment']",0.0,,-0.4927432,120.0470696
"F2XX+HV8, Jl. Trans Sulawesi, Tolole, Kec. Ampibabo, Kabupaten Parigi Moutong, Sulawesi Tengah 94474, Indonesia",Wisata Pantai Karang Tolole,ChIJgSty2C8tii0RF-njQiQae9g,4.2,"['tourist_attraction', 'point_of_interest', 'establishment']",21.0,"[{'height': 6944, 'html_attributions': ['<a href=""https://maps.google.com/maps/contrib/114377701848148146691"">Reynaldi j</a>'], 'photo_reference': 'AUGGfZliiVdCxBVj1TGFcKlq0rtNTkALum-6jzPSJCMDhmNqHs1c_qWyl8NA8rFL0XQgPxcb3AGFqmGh7wqkayyuqHNxyafwpCMbuYfBPbX0dAFrwgKX0ALXjvt1FMIB2ohu_k1eIPsl8ohkzYg1396ZPqAJuEmxZm0yBha81oKOWbDZRmIH', 'width': 9280}]",-0.5010903,120.0496983
"G26X+9Q, Toga, Parigi Moutong Regency, Central Sulawesi, Indonesia",Pusat Wisata Polindolara Beach,ChIJW1hcrQMtii0RqZKd3rKz6xA,5.0,"['tourist_attraction', 'point_of_interest', 'establishment']",2.0,"[{'height': 3024, 'html_attributions': ['<a href=""https://maps.google.com/maps/contrib/109276953693195843284"">A Google User</a>'], 'photo_reference': 'AUGGfZmLC5FPPuBaceKyBg74fio2B_yBVLTE8I6irmWir1BIocs97riUKXpFWjcK5X27VAGQfguqRR6_if3vOsp-USgc3zJGyYdfea3mJecdN6yoziVCobR4zfPpmKCE9-NAkfRpN0PHGmcbULCRg-hrEWLcYPUFdtNmF24omAzcsuurOamv', 'width': 4032}]",-0.4891032999999999,120.0494414
"J2JM+WH3, Tomoli, Toribulu, Parigi Moutong Regency, Central Sulawesi, Indonesia",Tambak Tomoli Keluarga,ChIJqVcbeAAlii0Rj85bWhrWWCw,0.0,"['tourist_attraction', 'point_of_interest', 'establishment']",0.0,,-0.3677445,120.0339205
"Lemo, Utara, Parigi Moutong Regency, Central Sulawesi 94474, Indonesia",Lemo Utara,ChIJb2srciovii0RBF5hHM2DvFQ,0.0,"['tourist_attraction', 'point_of_interest', 'establishment']",0.0,"[{'height': 3264, 'html_attributions': ['<a href=""https://maps.google.com/maps/contrib/114816345548132588430"">A Google User</a>'], 'photo_reference': 'AUGGfZmqnaEGQ05soxyJrgXSPAsfHnXPxr1e0bP2RXKjBSjZsVUx9rUieY3Ebmt-YgK8QZwFpYWLFeGwNgm6XgffUX1kBsHdulCzj_S-Ev-8abHF0BaUoseMLmej3Ba94lWOja0Z4WEXSdJd0Rz6_9WSZyKxFOFHfKt8u16XO2QlpCWkRGQs', 'width': 2448}]",-0.431107,120.050903
"J2GR+GC5, Tomoli, Parigi Moutong Regency, Central Sulawesi, Indonesia",P. Kelelawar,ChIJD_2mAAAlii0RncB5pt_g6Pc,0.0,"['tourist_attraction', 'point_of_interest', 'establishment']",0.0,,-0.3737421,120.0411208
"X95R+XR, Beraban, Balinggi, Parigi Moutong Regency, Central Sulawesi 94473, Indonesia",kebun,ChIJzXHmYLVNiS0R0pmD8ABHXa4,0.0,"['tourist_attraction', 'point_of_interest', 'establishment']",0.0,"[{'height': 4608, 'html_attributions': ['<a href=""https://maps.google.com/maps/contrib/111845732028944004101"">A Google User</a>'], 'photo_reference': 'AUGGfZkLyPQ_W1rcY2jaz-TUtFUvdQvoAjZE6RRavhdx_9gN2T3cPvrgZf0STv-xKupp-tvWw567E6zkxM-SN3O0nwy4xd3AlPu7WQtJPI8yIDuhXg5DZG6BhBKZzzPJmILzKjjMl1SimCEcXD4pSjRK0M6P_b5JevuMJsppjZpB758J9FEP', 'width': 3456}]",-1.0401246,120.3920731
"X985+VC4, Balinggi, Parigi Moutong Regency, Central Sulawesi 94473, Indonesia",Air Terjun Baturiti,ChIJLUzDVl9NiS0R7tFC_XHY0q4,4.5,"['tourist_attraction', 'point_of_interest', 'establishment']",85.0,"[{'height': 3000, 'html_attributions': ['<a href=""https://maps.google.com/maps/contrib/105263847620061161917"">I Nyoman Sudiara</a>'], 'photo_reference': 'AUGGfZlnOjqZu8qm5Dq1a_4njJTFfBKrQE-qIEL-SFSc6czMqSzJpliTvkt0jLkCeYdaZ8dGDc8lIgbBD0qDcnud4DOO9juSHgXFwGQ1T5xoDB0HdT6ZbYEsRiqSz7V-PTsw6L4-khTGStmzOksg2diJy-x-6nAjrsY7QO0fQPxNxcsloxPj', 'width': 4000}]",-1.032857,120.3585921
"Unnamed Road Balinggi, Balinggi, Kec. Balinggi, Kabupaten Parigi Moutong, Sulawesi Tengah 94473, Indonesia",Air terjun Tolai,ChIJMbyRzsZNiS0RnbPp1hUFJZA,5.0,"['tourist_attraction', 'point_of_interest', 'establishment']",5.0,"[{'height': 4000, 'html_attributions': ['<a href=""https://maps.google.com/maps/contrib/110670969627193900208"">A Google User</a>'], 'photo_reference': 'AUGGfZmb6bEzGnMFh2MDvC4kTz1lQ4rZbag1onzETiqmnkYlNYRIK1KXxPhVWAMYsGG9kA_Xn2842OQ8bf45Qv3i60u73tfqzH3vBw3KFepVOOy9nbXXG6xoH75JSjdyMv-apfneW-7NZsTNS04pCW0ugj6EiLpREVjQ_KKCTc2iLuH-siAh', 'width': 3000}]",-1.0306485,120.3595319
"X9F2+WJG, Balinggi, Parigi Moutong Regency, Central Sulawesi 94473, Indonesia",Niagara Rainbow,ChIJxcNfKGRNiS0R4pV3s_hIuOE,3.2,"['tourist_attraction', 'point_of_interest', 'establishment']",6.0,"[{'height': 3000, 'html_attributions': ['<a href=""https://maps.google.com/maps/contrib/117250827328130582941"">edy pranoto</a>'], 'photo_reference': 'AUGGfZlgTFfmmJxCTJjC5V1LStGVQXFPyM3BDlMYWZqJC-4J8Qb2YacGsQZqrbPK-g1HWRUI6rg2DUOHETvZiSUe_fV317H6uDTEemmpUxHH8Z-B04zHFtFf7_3Q_SkpPyQ-L0QpjFWfDR53OutrbUHkbz0FVWAwkynCQdLPioMbv1QEQ8b_', 'width': 4000}]",-1.0251795,120.3515718
"2C67+M6J, Suli, Balinggi, Parigi Moutong Regency, Central Sulawesi, Indonesia","Objek wisata batu kapal"" Bunga Tirta""",ChIJfb3HVl1NiS0RdnYAS3GIhsk,0.0,"['tourist_attraction', 'point_of_interest', 'establishment']",0.0,"[{'height': 3264, 'html_attributions': ['<a href=""https://maps.google.com/maps/contrib/116098544701746403859"">A Google User</a>'], 'photo_reference': 'AUGGfZlrjzAlTZBBZ9ubh5lN-y81Qs0AfkumCEeDLk5doTwv52VTM4dEb8m9txdd63RICqXrDUVitXQqMDkLNwp3ofWfRV4bC3gs4TH3Joub1pJRqpmoPkLjCxmwrSSJ95nTtfO0XB3cbE6RU5FqO8eTbptGGKrqK3aDQpsLHKxvR5OO-x_q', 'width': 1472}]",-0.9882884,120.4130138
"2C63+765, Suli, Balinggi, Parigi Moutong Regency, Central Sulawesi 94473, Indonesia",Objek Wisata Sawah Hijau,ChIJMWrq9jpMiS0RVlmgRSXeGzU,5.0,"['tourist_attraction', 'point_of_interest', 'establishment']",1.0,"[{'height': 3840, 'html_attributions': ['<a href=""https://maps.google.com/maps/contrib/104002865713271354562"">Juan Ketut</a>'], 'photo_reference': 'AUGGfZmixwxFz7uH5HbIH3Pm0kZ-8o1uKbNk60_r2_YQTsRLPgtA6KTsoKjm0YvgmgpNfEK2e8rYmg6i1kt0uzTG3hjouBuS2oinJX-VOn8ch04poxOCDvw_DHOwbNrbdgAnp-RH4STd5KFBcgOjfVba_XDHpEdDEZ_-Ii5xaO8skGrwTMjM', 'width': 2160}]",-0.9893717999999999,120.4030977
"2CQJ+WQW, Malakosa, Balinggi, Parigi Moutong Regency, Central Sulawesi, Indonesia",Tumpapa Indah,ChIJSQONzWRPiS0R9Pxp7_3rm0w,3.8,"['tourist_attraction', 'point_of_interest', 'establishment']",8.0,"[{'height': 1920, 'html_attributions': ['<a href=""https://maps.google.com/maps/contrib/116435905056418263687"">Sofyan GLembah</a>'], 'photo_reference': 'AUGGfZnv6x-Aw5PMF-eY2gevlF8aXmanYWBOHB7uJi91sYo3Y11_DLOvQ2Gxd7rfkFU0iaRz8cyCkA8N4LH0BUescVu97Zcq_d_WfKddUp44Lgx7DP6YfshRkZshh7Txn3BOolE-aEym8XqgP7tploYnCXR7Yee64ljcQ2iT4Hw2vWGPl6VF', 'width': 1080}]",-0.9601467,120.4319398
"2C67+HJG, Suli, Balinggi, Parigi Moutong Regency, Central Sulawesi 94473, Indonesia",Objek Wisata Gunung Batu Kapal,ChIJd-uKwBdMiS0R72YC2T-r4XQ,4.8,"['tourist_attraction', 'point_of_interest', 'establishment']",5.0,"[{'height': 1080, 'html_attributions': ['<a href=""https://maps.google.com/maps/contrib/104002865713271354562"">Juan Ketut</a>'], 'photo_reference': 'AUGGfZl1Wz7C4DxCtu8-a1-T-Y9CcQVRw99DB8Geo9xjtIFlwZAPAxcyb4gMn-B6eoCcBu8sjj2MEDB2GkchL_en98oOp-Rs6sUk9K8h-fcNNMNMjqxIwNnwSHUw8Omix1MZss1gR5ILy-ImHnMoAO7XGDz-bnGEanK3aGYkaDLaE6MgQ05n', 'width': 1920}]",-0.9885500999999999,120.4140735
"X9X7+3VP, Balinggi, Parigi Moutong Regency, Central Sulawesi, Indonesia",Wuling,ChIJOaDHJABNiS0RtTC378Cq8Hw,0.0,"['tourist_attraction', 'point_of_interest', 'establishment']",0.0,,-1.0022906,120.364708
"Desa Tumpapa Indah, Balinggi, Parigi Moutong Regency, Central Sulawesi 94473, Indonesia",Dpur Yamma,ChIJ3TcoHbNPiS0RAFEQOU7NDeM,0.0,"['tourist_attraction', 'point_of_interest', 'establishment']",0.0,,-0.9624681999999999,120.421397
"2CW2+6FP, Malakosa, Balinggi, Parigi Moutong Regency, Central Sulawesi, Indonesia",Dusun tamasovo,ChIJR1zRcwBPiS0Rwx6FsFhnD54,0.0,"['tourist_attraction', 'point_of_interest', 'establishment']",0.0,,-0.9544136000000001,120.4011911
"X9C7+H23, Balinggi, Parigi Moutong Regency, Central Sulawesi 94473, Indonesia",I WAYAN RUDIASA,ChIJxYgYawBNiS0RAU2j3Ckd3rc,0.0,"['tourist_attraction', 'point_of_interest', 'establishment']",0.0,,-1.0286034,120.3625039
"382Q+JW, Tolai, Parigi Moutong Regency, Central Sulawesi, Indonesia",Spot ikan popong,ChIJn6DYOQBRiS0RIuHSyFNhVoA,0.0,"['tourist_attraction', 'point_of_interest', 'establishment']",0.0,,-0.9484720000000001,120.339829
"X8FG+GV4, Tolai, Torue, Parigi Moutong Regency, Central Sulawesi, Indonesia","Air terjun Buanasari,Tolai",ChIJH5-7M65TiS0RRl55aZkbiyI,0.0,"['tourist_attraction', 'point_of_interest', 'establishment']",0.0,,-1.0262361,120.3271918
"X9X7+3VP, Balinggi, Parigi Moutong Regency, Central Sulawesi, Indonesia",Putu Munika,ChIJwaHXDABNiS0R4A-q7dWG4ro,0.0,"['park', 'point_of_interest', 'establishment']",0.0,,-1.0022906,120.364708
"G277+H3, Ogorandu, Kec. Bolano Lambunu, Kabupaten Parigi Moutong, Sulawesi Tengah, Indonesia",Tirta Rahayu,ChIJ1W-0f3-pdzIRX4ByWzt2XaY,4.4,"['tourist_attraction', 'point_of_interest', 'establishment']",5.0,"[{'height': 3468, 'html_attributions': ['<a href=""https://maps.google.com/maps/contrib/117045361302227922821"">A Google User</a>'], 'photo_reference': 'AUGGfZmDm90DGtcPBdk2r_DHTvxtNW_cn04G-wnC_x6Yf4i8Z8mmOAdHX8IPkWI8KkqY_i0W_QMaREbVULlqhtRR3G3lgzcKL83kh8XURpJNuCwFflketU4SJYrNOKpblEHOwc2KsEI20Ho0DXSodoc0ziFExeQnDUXOXL3SCAJn6Bddk39w', 'width': 4624}]",0.5136404999999999,121.0120366
"GW9F+JFF, Wanamukti, Bolano Lambunu, Parigi Moutong Regency, Central Sulawesi 94479, Indonesia",Villa garden,ChIJ_f-ca6ABdzIR9ltQWYmK9FU,4.0,"['tourist_attraction', 'point_of_interest', 'establishment']",2.0,"[{'height': 1080, 'html_attributions': ['<a href=""https://maps.google.com/maps/contrib/111062074200276143414"">A Google User</a>'], 'photo_reference': 'AUGGfZmTxg2NNCmK7s4xOZ-d5c4b3FyW04GdX3NT-WzCYqNEC3DrAhG8_8emewUf86Hu67pC0Mo-ysB-jQQKL3K7aYFS_RINPBgBtW4g0NZU2fC_yfR5UdmDCTktJSRW9d2FAL9eMUbJEhhTYY3nrs2fKSvAMLbdOf7PezRr_6rA9wRpnUGJ', 'width': 1920}]",0.5190697,120.9236712
"FWCP+2GG, Beringin Jaya, Bolano Lambunu, Parigi Moutong Regency, Central Sulawesi 94479, Indonesia",Kolam renang,ChIJeTL7UgCrdzIR_TjygTEAGGI,0.0,"['tourist_attraction', 'point_of_interest', 'establishment']",0.0,,0.4711083,120.9372137
"Siendeng, Bolano Lambunu, Parigi Moutong Regency, Central Sulawesi 94379, Indonesia",Wisata Pantai POLU SOBOA Siendeng,ChIJnXNUrLmtdzIRuGI5l7Y6hVw,0.0,"['tourist_attraction', 'point_of_interest', 'establishment']",0.0,,0.4245745,120.9848742
"HX3W+3MG, Wanagading, Bolano Lambunu, Parigi Moutong Regency, Central Sulawesi 94479, Indonesia",KUALA BUGIS,ChIJB9_fazgHdzIR5vWP5PjV2AI,5.0,"['tourist_attraction', 'point_of_interest', 'establishment']",5.0,"[{'height': 401, 'html_attributions': ['<a href=""https://maps.google.com/maps/contrib/115965463537717769321"">Sodry Official</a>'], 'photo_reference': 'AUGGfZmYyiHMZEOTSOFn2XCCMPyYM0enMhTFb4ZdyN4FyYGa5bqcrcjr7eeu50gDZEq80tfFO_pd_Ckvn5MEjmfgDjaMH127LQw4v61mSBSypbne8CTfA1UPYONeAwA5SE9EqlZgSjJaIpuyYeSgY175v3EhH3j_FWbXueF9XeE8bFlkoZzb', 'width': 506}]",0.5526907999999999,120.9966933
"G239+974, Gunungsari, Bolano Lambunu, Parigi Moutong Regency, Central Sulawesi, Indonesia",Fishing area tirta kencana,ChIJZbSbBpqpdzIRaMAh-Kcdpzc,5.0,"['tourist_attraction', 'point_of_interest', 'establishment']",1.0,"[{'height': 1920, 'html_attributions': ['<a href=""https://maps.google.com/maps/contrib/113371039168809029053"">Andris Haipi</a>'], 'photo_reference': 'AUGGfZnmspVd68razSuaIwqm8sdh19tWaoCGutzZL_ZPjzrVyOd_I3XAg713-sEPiCcCP9y3JoWC6LIongBy2n96TEoUY_fsjM8eMdn3xLjtSeioTxTdFfIfxKYt-qfHXxNwhjTg0dbqNiKyCGVhVp0Z0ylR4ThTUT_K5vbDHLqQ36gbM_eM', 'width': 1080}]",0.5033947,121.0182265
"G25F+985, Gunungsari, Bolano Lambunu, Parigi Moutong Regency, Central Sulawesi 94479, Indonesia",Griya Wisata Asri Gunungsari,ChIJiU2YBU6pdzIRYk-jZCn-wLU,5.0,"['tourist_attraction', 'point_of_interest', 'establishment']",4.0,"[{'height': 960, 'html_attributions': ['<a href=""https://maps.google.com/maps/contrib/106876328643317451521"">Wira Suta27</a>'], 'photo_reference': 'AUGGfZnOwt_NMpyY_MGjcXoyPcYpb-ooOvadQzhYceaQbV5bE9jeuBJugJia37aCtTZO--VpoTRa_f3CfZGf1f0WXRirWp0dorcyGX4G-ZG7_O1eqUBCCfPd0u0RW3BQo60OEiAXlXYHwq19o7Ok2-_d1AfXkmsICr87-sROIz91TfwwjNln', 'width': 1280}]",0.5083926,121.0233481
"CX8F+WF, Bolano, Parigi, Parigi Moutong Regency, Central Sulawesi, Indonesia",Wisata polu soboa,ChIJ4ycSAgCtdzIRSB2mzWee7Oc,1.0,"['tourist_attraction', 'point_of_interest', 'establishment']",1.0,"[{'height': 3264, 'html_attributions': ['<a href=""https://maps.google.com/maps/contrib/107196614328620094530"">A Google User</a>'], 'photo_reference': 'AUGGfZn6eSqdFo75lgFUci-QiQvzViFAnozCH5-D-ODN8LqwJrUra_eShmIHkKWswriHUgWRQbmwEP4BPbQ8yMgLlN998xpykGiqgT-bbfdOn88ksY47x5f9U6mDGyLEnZmPU8HYCcf62vNKcsVUfqqbg6hbsJsXuTBdahWg9t_RGF8F63lw', 'width': 2448}]",0.4173447,120.973743
"C2PC+C7P, Jl. Trans Sulawesi, Palapi, Kec. Taopa, Kabupaten Parigi Moutong, Sulawesi Tengah 94479, Indonesia",Muara lolas,ChIJ7auhNxivdzIR0QXnIvhksf0,0.0,"['tourist_attraction', 'point_of_interest', 'establishment']",0.0,"[{'height': 4624, 'html_attributions': ['<a href=""https://maps.google.com/maps/contrib/108659552438050741690"">A Google User</a>'], 'photo_reference': 'AUGGfZlnFcrVDpB4MjdiaSWZ4Z3GUHnb8JoaYJFMkFB8U3Fbmntw6Mu0g2Lg2773DTl1AIE60JbYIOXlG-DEWNpCIIJwZ9mfYApWCpRFRVyqFx5oUd2VkZX13Rt3MQIoVYOAbec9lE4lg1yjlO_ejI95V4naOnuBgwYzMoH9wFEg9-r9rmqo', 'width': 2600}]",0.4360791,121.020688
"GV5H+M95, Lembah Bomban, Bolano Lambunu, Parigi Moutong Regency, Central Sulawesi 94479, Indonesia",Air terjun lembah Bomban,ChIJfUE_iZVVdjIRqaUxqdOVcq8,5.0,"['tourist_attraction', 'point_of_interest', 'establishment']",1.0,"[{'height': 960, 'html_attributions': ['<a href=""https://maps.google.com/maps/contrib/118141919399987486559"">A Google User</a>'], 'photo_reference': 'AUGGfZkYGvKnnsKc80VA7_YmEufOgUrq3KGLS1lgicozvoWnHntcU3sE6OuBIXvlbtHPuIfzN7CE_9g7iUMXtu7fHYzAA3Jl9YsG3YVTItlWwUVHaD-e7FGFSUxFbhIqRTf2PTLtrMBlq84qLCwWphvhsE9BMlxBbKknK3qSAH4wQBRHt5yb', 'width': 540}]",0.5091487,120.8784746
"GX99+59M, Desa, Samabahari, Bolano Lambunu, Parigi Moutong Regency, Central Sulawesi 94479, Indonesia",Pulau saboa Al Fatah Samabahari,ChIJTeKGWAABdzIRsPEIfho6tmY,0.0,"['tourist_attraction', 'point_of_interest', 'establishment']",0.0,,0.5179502,120.9684228
"CXC6+5PW, Bajo, Parigi, Parigi Moutong Regency, Central Sulawesi, Indonesia",PULAU SOBOAS,ChIJTV2iPQCtdzIRYoRNO9OjorM,5.0,"['tourist_attraction', 'point_of_interest', 'establishment']",1.0,,0.420485,120.9618181
"CXFR+P4C, Siendeng, Parigi Moutong Regency, Central Sulawesi, Indonesia",Muara Mogogondo,ChIJjaADYiivdzIR3dxwEiBJzTs,0.0,"['tourist_attraction', 'point_of_interest', 'establishment']",0.0,,0.4243038,120.9902678
"CX85+9W, Bajo, Parigi, Parigi Moutong Regency, Central Sulawesi 94479, Indonesia",Dermaga samabahari,ChIJzaruDpCtdzIRiCyPxFb2iSk,4.5,"['tourist_attraction', 'point_of_interest', 'establishment']",4.0,"[{'height': 3120, 'html_attributions': ['<a href=""https://maps.google.com/maps/contrib/106509956047116658505"">A Google User</a>'], 'photo_reference': 'AUGGfZnl8Nkf3XdYA0DgD9TMILkNYFTPBVuQaAsE2Aat-yNYA-ZP-Au-IBilpg-QTB3n6--kX8vAEJvdsKE7OHCOkIbmUB1tdfqYJS6TYUzoVHcKaP08-kcodAdFGsl8yvIzgFkRHlEtpqEam2Ud85Uhivb0meT67vZsnoJBR2zgy1FOQ5y9', 'width': 4160}]",0.4159372,120.9597925
"CWHF+6R7, West Bolano, Bolano Lambunu, Parigi Moutong Regency, Central Sulawesi 94479, Indonesia",HUINTIMG GREEN LAKE,ChIJBVkaNO2tdzIRMYGU6VKyUtE,4.3,"['tourist_attraction', 'point_of_interest', 'establishment']",3.0,"[{'height': 2142, 'html_attributions': ['<a href=""https://maps.google.com/maps/contrib/110662086746562579982"">A Google User</a>'], 'photo_reference': 'AUGGfZl4SzTW81kw87nBpUY6TR2XFhRxEM8y0pPG-94F4MzJe7kwki1bafvS-SE7WZBz5aSiK5q00aCMj5-OR1t39usnltnu0QLGjYppGHjtJ2Nqw6Do_GPrcBEGrh_apn3l6reWJK6rdw9xzUZd7kPJYrch-YjiVwH5llWJ3yFOVZFCkiqG', 'width': 2464}]",0.4280441,120.9245456
"C2GQ+J95, Palapi, Taopa, Parigi Moutong Regency, Central Sulawesi, Indonesia",DERMAGA PANTAI MOIAN,ChIJV114Q9-vdzIRc404p9A86FQ,4.5,"['tourist_attraction', 'point_of_interest', 'establishment']",4.0,"[{'height': 1468, 'html_attributions': ['<a href=""https://maps.google.com/maps/contrib/115493741707989122652"">A Google User</a>'], 'photo_reference': 'AUGGfZm0WqQ5XcQpquFF0QZol8lJT4yEjDveeDP8GEbqfG__j20DiQfK2yvu1_x0gx1aiR7uNwSxHBww0qNv_BlUUvOdah0FeE4V5OlsKNMZpYKDlck2lxLAlHx9VHUd_bWqIzXxeoXLEFwB7bKCeZNlqNXDFQIePiBa0Cxx1OfoLOBFylLw', 'width': 3264}]",0.4263399,121.0373729
"CW66+PXF, Bajo, Bolano Lambunu, Parigi Moutong Regency, Central Sulawesi 94479, Indonesia",Tambak Sologi Indah,ChIJYdygbDStdzIR9g6dLCaQ0SI,0.0,"['tourist_attraction', 'point_of_interest', 'establishment']",0.0,"[{'height': 3456, 'html_attributions': ['<a href=""https://maps.google.com/maps/contrib/112668147521160192553"">Ridal Presley</a>'], 'photo_reference': 'AUGGfZm9ACWawc0BeKt8fCTNglYpMKfhwScZxvpILDGcngvEWxySGZVQkdL0RbT_R_Ris4IPbMAYhDRpcUgHp79znoIw7JVSK2kPg47aUEchKPbY0OsSb7ZbFtHoK8z12RbEGBbGCRAx0Gi4F7zj98yqm6Vf_QHZUYymLJyensPJHZT-cqg', 'width': 4608}]",0.4118141,120.9124063
"GV5Q+QP, Lembah Bomban, Parigi, Parigi Moutong Regency, Central Sulawesi, Indonesia",puncak bomban,ChIJSUYILQBVdjIRwMcmCnSrK-E,5.0,"['tourist_attraction', 'point_of_interest', 'establishment']",1.0,"[{'height': 4080, 'html_attributions': ['<a href=""https://maps.google.com/maps/contrib/108031726285854727896"">A Google User</a>'], 'photo_reference': 'AUGGfZmA5I3U8WhD-o4tkSt077nb2zcd1mB198KhMD35wQL_ekykmP0zO0hjZJ2VfcVuMxV1GJF_iWTPHfulGlzpBZ32fJokKRfTn6ndXc17ut5God1lq3Z62sP_rB7XJlxfTvMhfZEDw22A-5VhoMUMFJeIFnI8ytsQ_ImeeByMWgw1GQxw', 'width': 3072}]",0.5094283,120.8893114
"GW3J+8R, Wanamukti, Parigi, Parigi Moutong Regency, Central Sulawesi, Indonesia",Tempat Nyore,ChIJew1hHx2rdzIRoNVQaNkFSWM,0.0,"['tourist_attraction', 'point_of_interest', 'establishment']",0.0,"[{'height': 4000, 'html_attributions': ['<a href=""https://maps.google.com/maps/contrib/101447181288074522274"">A Google User</a>'], 'photo_reference': 'AUGGfZmrOWqkdyxTuc04NmhnuVlptFBY_0q25UXVxQ4jdmEm5sRylHLqpQwJ_wNrdT4fApvB--Fnffl_bEaiegDrZ6Otm5dXzmPQ2L7D4N012xzuG1At69rx3DuAbahBCtt3zAMWaf_jBECifC1ixbROW6YFztAziifKSDJn5MSXoAhkYuYm', 'width': 3000}]",0.5033613,120.9320011
"C29W+VV5, Unnamed Road, Palapi, Kec. Taopa, Kabupaten Parigi Moutong, Sulawesi Tengah 94479, Indonesia",Pantai moian,ChIJ89Yo4f-vdzIR0XgUSa5B5Qc,3.4,"['tourist_attraction', 'point_of_interest', 'establishment']",12.0,"[{'height': 3120, 'html_attributions': ['<a href=""https://maps.google.com/maps/contrib/114936589486251372974"">A Google User</a>'], 'photo_reference': 'AUGGfZlU35lcv-5K-kpkNPJV457glFjMXHArqYPxtHKW-moVdPcXZ11Qq_uzn7_BRtgP459jw2ccgsURJvR1YYcKzdjt0kxwvpMliCCOZyrfwuXUTLZleN0yG-CAhU9NKVr741wG01h1DBUyTeneidzb-ln3tQuIrUuFYQSnQEcmJAjmoF-l', 'width': 4160}]",0.4196305,121.0472443
"JQCP+VG9, Karya Mandiri, Bolano Lambunu, Parigi Moutong Regency, Central Sulawesi 94479, Indonesia",Air Terjun Tinombala,ChIJHw39wjb7djIRnUdrUmqXxQM,4.7,"['tourist_attraction', 'point_of_interest', 'establishment']",7.0,"[{'height': 1600, 'html_attributions': ['<a href=""https://maps.google.com/maps/contrib/117431992037496065406"">A Google User</a>'], 'photo_reference': 'AUGGfZljrqG5RceODS1lFY4eGmReV40BnJJy8g0P7u_R_v5gPqzOHqdviIrLDDHzEXFn72yenjGyTr2Ht24gE4UcEKsPYmcVSeK_86kwxrC7b2-elvhjAV9kz7w9pQT22YcAd9ekuJLWp_yrNiVcZVm0OyDcr5xWJHZjWbpIqq9YmlCm3LHt', 'width': 1200}]",0.6221749999999999,120.786346
"HQH5+5X7, Tinombala, Bolano Lambunu, Parigi Moutong Regency, Central Sulawesi 94479, Indonesia",Aden alhadar walet,ChIJW5UwfOb5djIRBn0k0N9f36Q,5.0,"['tourist_attraction', 'point_of_interest', 'establishment']",2.0,,0.5779229,120.7599125
"C562+WG3, Tuladenggi Pantai, Moutong, Parigi Moutong Regency, Central Sulawesi 94479, Indonesia",BAMBANYO BEACH,ChIJ965AtVKldzIR7IwvnDcxYKw,4.2,"['tourist_attraction', 'point_of_interest', 'establishment']",5.0,"[{'height': 3120, 'html_attributions': ['<a href=""https://maps.google.com/maps/contrib/109115395872359793881"">A Google User</a>'], 'photo_reference': 'AUGGfZkAQB4oACe4AAmzTHwEeFS1BovpNO8RZWnK42LwmXBXEmaamsZRsHVBMpY1jwpk0mx7NLhkwrIAU-BjH7wE5UmG8YaNyIqFj9rcJTRHBueRAQ2LUk237D58Iye374U0sUPC0qyQp2LepHjyi1Tim19iFTkkVDwH9OfTS_PFkRM2gRA', 'width': 4160}]",0.41226,121.1512858
"GPXC+6J, Moubang, Mepanga, Parigi Moutong Regency, Central Sulawesi, Indonesia",DAM BAGI OLONTOGI,ChIJ2Z2Qjnz5djIR194mfmsLIsE,5.0,"['tourist_attraction', 'point_of_interest', 'establishment']",1.0,,0.5480984,120.7215436
"C2CW+8C, Palapi, Taopa, Parigi Moutong Regency, Central Sulawesi, Indonesia",Tugu wisata Pantai Moian,ChIJVVq8t9-vdzIRXPap77b673k,4.3,"['tourist_attraction', 'point_of_interest', 'establishment']",3.0,"[{'height': 1468, 'html_attributions': ['<a href=""https://maps.google.com/maps/contrib/115493741707989122652"">A Google User</a>'], 'photo_reference': 'AUGGfZmdOMovGjzCMfTal_EQy1RcCXM7Hvn4WQPcwHzlcuMZyD-6Tn2LiqoDfgT-hjIKwKM9aIOE0gqDrZtFP_s2cWHEjtACF_GLtx07gEtKUC1qh7iF1HwTnSiQ_qM67Yb7ZG5lk2cRUYw0-6zbWQs5nTcimgAETCwJbYPBdsSMFmQhZJTd', 'width': 3264}]",0.4207754,121.0461331
"C6MC+WXP, Moutong Barat, Moutong, Parigi Moutong Regency, Central Sulawesi, Indonesia",beach Lelayo,ChIJQTXIKDGjdzIR5TrGAZuvfNs,4.5,"['tourist_attraction', 'point_of_interest', 'establishment']",2.0,"[{'height': 1280, 'html_attributions': ['<a href=""https://maps.google.com/maps/contrib/105256660268936254441"">A Google User</a>'], 'photo_reference': 'AUGGfZkXGPzQjUQDMm47YhuWBPiEIfZ-MyGbM5IYBBai0---S5wsbF6dZ7sMYhHBAVso_7sILnw7yJljUDNAdhrJylpUFtk3bZnZ3WyeaF4CjzivRmgzUlyoqgnoK2bSLE_SE6kq31X8XV07iCpaZqMk-gFU_2iQqX3lnUF7jg4BqmwWBJtX', 'width': 960}]",0.4348315,121.2224637
"FVHQ+4M, West Bolano, Parigi, Parigi Moutong Regency, Central Sulawesi, Indonesia",Danau Batudako,ChIJBwiDU7ZVdjIRHz_9HDgxo1Q,5.0,"['tourist_attraction', 'point_of_interest', 'establishment']",1.0,,0.477834,120.8891596
"FVXC+FR, Lembah Bomban, Parigi, Parigi Moutong Regency, Central Sulawesi, Indonesia",Air terjun Karangtaruna,ChIJq56w5oFVdjIRdLGolRgQMWU,5.0,"['tourist_attraction', 'point_of_interest', 'establishment']",1.0,,0.4986287999999999,120.8720605
"FQ82+VJ, Malino, Ongka Malino, Parigi Moutong Regency, Central Sulawesi 94479, Indonesia",Mangrove Malino,ChIJOfImc5VXdjIRbr98HAE8pBg,4.7,"['tourist_attraction', 'point_of_interest', 'establishment']",3.0,"[{'height': 1080, 'html_attributions': ['<a href=""https://maps.google.com/maps/contrib/115734169203123860238"">A Google User</a>'], 'photo_reference': 'AUGGfZk5921sPB5tx_076e0A0ocAMN8Rc71-lBIeklsbIh0adyDg4sq1G7BVhPXEB2PaBvGchvyGduOb0SrEXHwnpIntTob3C00tt79q6ap5R-xTFAogFX3jryDR2GLBjKFHnWe7pQEejcRCePzB_7kNrXtr7w1aC7UMRsPwUhKWflfR6lva', 'width': 1920}]",0.467245,120.751535
"F6HW+VGJ, Moutong Timur, Moutong, Parigi Moutong Regency, Central Sulawesi 94479, Indonesia",Pantai Ternati,ChIJGfE8rRihdzIRReRqHiKAV2U,4.5,"['tourist_attraction', 'point_of_interest', 'establishment']",6.0,"[{'height': 2322, 'html_attributions': ['<a href=""https://maps.google.com/maps/contrib/109709878637352322306"">Marwan Kokoti</a>'], 'photo_reference': 'AUGGfZl2ZNWX8CEP3Y5Gd-KA0h8uQnhopYUwqkJP7qRVh8dCz7V4m2PniGCLSKuXYIpYS-GIZu5NoQ3aZcILxdLtIjcrxukYcvpfj3I4pt8yC3m-TdBJWQbgQGkgrUtZABXmlKULCkb6ttdhzURmS07-bfb_4czvfa2UuWok4IA5I2O6g1s7', 'width': 4128}]",0.4797172,121.2462655
"C4W5+F62, Tompo, Taopa, Parigi Moutong Regency, Central Sulawesi 94479, Indonesia",Lambunu,ChIJWbv7MRuldzIRgMsfc6ifOdI,4.0,"['museum', 'point_of_interest', 'establishment']",1.0,"[{'height': 2768, 'html_attributions': ['<a href=""https://maps.google.com/maps/contrib/116322779355804343346"">A Google User</a>'], 'photo_reference': 'AUGGfZmvt076rdmmkL9k_MjJAPqCB6HSxq1xkLZiQ284xShsLVo8frpjxJiTohWWb-4buKhIBhAZ_lm2xiXuh_B8WiyyJmyuI-n0T56a__wNTLS58YMXlRCTD7VmUxizH7dVJVBvmI7AbSlt5F0gAeJKjPEuqSY0BW33b0znKPfGGiTQUEcm', 'width': 2076}]",0.4461291,121.1080244
"HQCG+G59, Kecamatan, Tinombala, Kec. Ongka Malino, Kabupaten Parigi Moutong, Sulawesi Tengah 94479, Indonesia",Taman Pemandian Sumber Indah,ChIJF34eR535djIR9gxTjTnX0kk,4.3,"['tourist_attraction', 'point_of_interest', 'establishment']",4.0,"[{'height': 400, 'html_attributions': ['<a href=""https://maps.google.com/maps/contrib/110226026529049277850"">A Google User</a>'], 'photo_reference': 'AUGGfZmnMI-SmNk5JVoeThDczjUz9h86yR9Vj8hAQaSglezVzaxgQ2w2BFksiz-ioGFc24fZg_UF1wKtvhJeHNq5A8Ke7kJdco2pdgqPjlE6T4NAzxF2s3vD7-nY2MEyWdL4GFt5KTxpGq2Rpw8Hzt6kfAxqDHX1hT9s32UTJ9YsrQ4Z7WK5', 'width': 534}]",0.5712823,120.7754926
"GX7F+HRW cabang tiga, Jl. Britama Desa.Kotanaga, Lambunu, Kec. Bolano Lambunu, Kabupaten Parigi Moutong, Sulawesi Tengah 96000, Indonesia",Penginapan Hikmah,ChIJb942dDurdzIRNUnq2iV4sTQ,3.9,"['lodging', 'point_of_interest', 'establishment']",22.0,"[{'height': 3120, 'html_attributions': ['<a href=""https://maps.google.com/maps/contrib/114797015383840317961"">jane sirupa</a>'], 'photo_reference': 'AUGGfZlzJqtF5u8Hh0cxheP7BiwAj-KZQZr_KWOM9EbAoAkapl9vTy3pp_sYk1AXS6iYqGnkLEcJeAC4eqxopSCCuKiK0NWJaiDQitOAqym9YllSZc1wsVPfu5UKNkAwmKObbMgIm8dvQw3-kC6xKNDkIr_JjL9wrsWlmJmTYuARbEf5ve6J', 'width': 4160}]",0.5140047,120.9745698
"HQ44+X33, RT.Buluye/RW.Bosagon, Kayu Agung, Kec. Ongka Malino, Kabupaten Parigi Moutong, Sulawesi Tengah 94479, Indonesia",Desa Bosagon jaya,ChIJw4ZchNf5djIRn14-0hWLW0A,5.0,"['tourist_attraction', 'point_of_interest', 'establishment']",2.0,,0.5582231,120.7550985
"FW49+XJG, Sritabaang, Bolano Lambunu, Parigi Moutong Regency, Central Sulawesi 94479, Indonesia","Bukit Desa Garut,kec.Bolano Kab.Parigi Moutong",ChIJibDlbUerdzIR0GGfebN1Ynk,4.2,"['lodging', 'point_of_interest', 'establishment']",5.0,"[{'height': 1536, 'html_attributions': ['<a href=""https://maps.google.com/maps/contrib/101236103729582098686"">Ayu Novianti</a>'], 'photo_reference': 'AUGGfZndvojy3b44lsJqMK58CMidWYLnuk2uvwqLvPV_Mc06sTNc5yzQu4jKziOvMwfLmgpJboLLAcnoE8M2KdN8XcLHpEcLgHbxTt2iHfpj00r5sYhwvK0Fay7DDXKy0ARB86_j4QBxUvYwlC4Z96zBfvVqH_1xSWVBagn8keuA5pfvkII2', 'width': 2560}]",0.4574442,120.9190626
"HP7V+XFH, Sumber Agung, Mepanga, Parigi Moutong Regency, Central Sulawesi 94479, Indonesia",TAMAN BUNGA & PEMANCINGAN MEKAR ASIH,ChIJiYTYr-D5djIRqkmwGiYLfvA,3.5,"['tourist_attraction', 'point_of_interest', 'establishment']",4.0,"[{'height': 514, 'html_attributions': ['<a href=""https://maps.google.com/maps/contrib/112145425206397755971"">yety sukardy</a>'], 'photo_reference': 'AUGGfZmENHPgv5Qi3IgT1mTJ7iczhpsgIzxkJUga1Due2q6b6k6cQOwj2_kC7h5lO_km9LO-LJtR-VEABkGoN76HpZxSRSS7QHHmJ-ARRxmu89YHWlUTMyDmxVdNvZb8Tcqs_579DvuHEby3Kd_N3N4q2syM2Yn7tXwtGpb7_qbU4ypcUpQa', 'width': 1080}]",0.5649258,120.7437422
"FRC9+4W, Santigi, Ongka Malino, Parigi Moutong Regency, Central Sulawesi, Indonesia",Puncak cam,ChIJWTL4XgBVdjIRolsds-WPNpI,0.0,"['tourist_attraction', 'point_of_interest', 'establishment']",0.0,,0.4702678,120.8198345
"GWF8+P4, Wanamukti, Parigi, Parigi Moutong Regency, Central Sulawesi, Indonesia",Perkebunan Jagung dan Durian,ChIJ3ewvdAABdzIRkszyaFFDew8,0.0,"['tourist_attraction', 'point_of_interest', 'establishment']",0.0,,0.5242931,120.9153349
"FVWQ+RQ, Bolano, Parigi, Parigi Moutong Regency, Central Sulawesi, Indonesia",Kebun Pak Dadang Agung Bu Rapi,ChIJT9v-MQBVdjIR9arQryRXVes,0.0,"['tourist_attraction', 'point_of_interest', 'establishment']",0.0,,0.4964419999999999,120.888322
"93V7+H5, Palapi, Parigi Moutong Regency, Central Sulawesi, Indonesia",Pemancingan,ChIJgb3sEcuvdzIR-3bMiz7Vwmw,0.0,"['tourist_attraction', 'point_of_interest', 'establishment']",0.0,,0.3939296,121.0629687
"FR87+G4, Santigi, Ongka Malino, Parigi Moutong Regency, Central Sulawesi, Indonesia",Pemandangan ongka,ChIJHeg2AQBVdjIRdTuelYMdYM0,0.0,"['tourist_attraction', 'point_of_interest', 'establishment']",0.0,,0.4662777999999999,120.8127521
"9R57+QJ4, West Bolano, Indonesia",WISATA PASIR PUTIH PULAU BOANO,ChIJ59ZCaY9NdjIRtdod0P7QZh0,5.0,"['tourist_attraction', 'point_of_interest', 'establishment']",4.0,"[{'height': 2448, 'html_attributions': ['<a href=""https://maps.google.com/maps/contrib/115096397395719687923"">Moh Asri L Lalo</a>'], 'photo_reference': 'AUGGfZnPO9K73SGL2OLTYPcFKZdQ-OUgex6dgoh3Ztgu8GLsHhQRsNMrh3e4mrO5BkrDJLmO7jI8GfQ-rG14f2J4H4jf9Ujgn37j56ExvvXrhI8sN-LG45-IZ03J-9-hRRCuairKIrIlR37zabhESP2j0Qf8JlQXx9TAaoVveMjBH6zKWyns', 'width': 3264}]",0.3593909,120.8140839
"FPJC+8J, Malino, Parigi Moutong Regency, Central Sulawesi, Indonesia",Kambing Tono,ChIJGe2QfupXdjIRI9yeyAyZKng,0.0,"['tourist_attraction', 'point_of_interest', 'establishment']",0.0,,0.4807551999999999,120.7216227
"GQ2M+RQ9, Ongka, Ongka Malino, Parigi Moutong Regency, Central Sulawesi, Indonesia",Darwis daeng siame,ChIJ1ai1xDBXdjIRAbAYai7p0zM,0.0,"['tourist_attraction', 'point_of_interest', 'establishment']",0.0,,0.5020359999999999,120.7845
"V25M+Q4H, Jl. Trans Sulawesi, Kasimbar, Kec. Kasimbar, Kabupaten Parigi Moutong, Sulawesi Tengah 94474, Indonesia",Wisata kasimbar selatan,ChIJ58mbKtMbii0R46knFJuydUw,5.0,"['tourist_attraction', 'point_of_interest', 'establishment']",1.0,,-0.1405516,120.0328509
"R2PC+4WW, Jl. Trans Sulawesi, Kasimbar Sel., Kec. Kasimbar, Kabupaten Parigi Moutong, Sulawesi Tengah 94474, Indonesia",PANTAI LAMBAGU,ChIJ3d8vaAAbii0RLly2CyfOCqg,0.0,"['tourist_attraction', 'point_of_interest', 'establishment']",0.0,,-0.1653412,120.0232493
"V2HR+58, Kasimbar, Parigi Moutong Regency, Central Sulawesi, Indonesia",Pantai Simangifan,ChIJMzJNBAAFii0RVk77iWWe73A,0.0,"['tourist_attraction', 'point_of_interest', 'establishment']",0.0,,-0.1221205,120.0408154
"VXG7+RGG, West Kasimbar, Kasimbar, Parigi Moutong Regency, Central Sulawesi 94474, Indonesia",Kolam Air Panas,ChIJmfYg23MPii0R39Eg1Ygz_MI,4.1,"['tourist_attraction', 'point_of_interest', 'establishment']",9.0,"[{'height': 1280, 'html_attributions': ['<a href=""https://maps.google.com/maps/contrib/107528479549197929881"">A Google User</a>'], 'photo_reference': 'AUGGfZlOZ8EcsvbR8gvhrbkqrVavlwJd_TuLOGQdoeNHb4a-c2_XI9zwIkuqTOD8NYwTeJY42VOdPxtdjdSTer5MCPCrQ_Qx3QwpZbFCzzpZvN-gOM8wuNvKpo_0N-zoqV6klPrdjf7pbB0Us073V_uFLVISDzMmv1YB2dnXIngCVBvsLXgt', 'width': 1920}]",-0.1229333,119.9638417
"VXG7+W64, Jl. Tambu - Parigi Moutong, Kasimbar Bar., Kec. Kasimbar, Kabupaten Parigi Moutong, Sulawesi Tengah 94474, Indonesia",WISATA MATA AIR PANAS BELERANG,ChIJ-a8_eAAPii0RCQ9qPM-yKXM,5.0,"['tourist_attraction', 'point_of_interest', 'establishment']",1.0,"[{'height': 1080, 'html_attributions': ['<a href=""https://maps.google.com/maps/contrib/103684914848928981101"">inael pontoh</a>'], 'photo_reference': 'AUGGfZldzz8W8SMmojA83EgmyLdI4gibZOArKhP8vzjRaFKUZ3vrzXtwMC1ackKF2aW89_V-bVAPGnJbAM0dkQj37vBThNzGeqDRBPOHxZnfai6XDYHl1vDRIgSMkkfhWzmkrRh80Mvz4R7ydv6-AVJwmZjPQveGvaY62BbhVTNQ_CMgsjko', 'width': 1920}]",-0.1227334,119.96309
"W25M+Q83, Jl. Trans Sulawesi, Kec. Kasimbar, Kabupaten Parigi Moutong, Sulawesi Tengah, Indonesia",Dermaga kayu PT. Tom,ChIJocGo1VIFii0RjqhVmff4TRk,3.0,"['tourist_attraction', 'point_of_interest', 'establishment']",1.0,"[{'height': 1280, 'html_attributions': ['<a href=""https://maps.google.com/maps/contrib/107528479549197929881"">A Google User</a>'], 'photo_reference': 'AUGGfZnNpwed6EKy9K5nrl59masHOsP0gy5Q1fEOb22pMhxS2FwQDTbtvrmLzwoOJZfbaWxk-qaepYAFeUDOhyjh_LmLFRjqcJsi9cMS4g5PogN-6lm1bRWX3hev-kZXDTbCBGVqocPIPbwbJJZX5Ph0Z02MaL_GVJYt4v2DKaMc2kZdX6hQ', 'width': 1920}]",-0.0906157,120.0333032
"VXQ5+RC, Kasimbar, Parigi Moutong Regency, Central Sulawesi 94355, Indonesia",Peerkebunan cengkeh,ChIJHzG__68Pii0Ri_Hrzzbwdao,5.0,"['tourist_attraction', 'point_of_interest', 'establishment']",2.0,"[{'height': 1920, 'html_attributions': ['<a href=""https://maps.google.com/maps/contrib/105692650617955465437"">Al Arav</a>'], 'photo_reference': 'AUGGfZkcFFWvvMyovZTJ_lYONxHfy-q9nJC_4v-iwWLN1ghWikkpK45E7gS9MjCwTVC-ypCPeTvqMVkFjw7Uj2JG7618tzZcsBBd4aBaLHEppTy0XENmr3oRFTM435k2XUSlLAspgE_2ZmuqdX-iwlk63yhLvO60C1e3QeG4rkTq8WXinK0i', 'width': 1080}]",-0.1104583,119.9585984
"V2QR+742, Silampayang, Kasimbar, Parigi Moutong Regency, Central Sulawesi, Indonesia",Pantai OGO BUAYA,ChIJ1dggWQAFii0R9HPhU-2VLLE,4.1,"['tourist_attraction', 'point_of_interest', 'establishment']",8.0,"[{'height': 540, 'html_attributions': ['<a href=""https://maps.google.com/maps/contrib/110402837153220332034"">A Google User</a>'], 'photo_reference': 'AUGGfZnQfgloKvmjdelz4KwRPzwzpujoT7FwOxZaRwv7QQQ_SX3R8xluYkzMgSJebLlGhasoYIyEARJRklCt4DYsmzJXiEUXBrrzX7Q6woDmxhvTBO9HgJvxMicO_j5cWZiAOVO9zCWF5Hx6jrYryDRPEkuPOw17NsNk7L3sEbm7MxLgSdWf', 'width': 720}]",-0.1118631,120.0402578
"W2HM+XF2, Jl. Trans Sulawesi, Posona, Kec. Kasimbar, Kabupaten Parigi Moutong, Sulawesi Tengah, Indonesia",Pantai Kompi,ChIJPXYj5ZUFii0RoZWO0t7Du-g,5.0,"['tourist_attraction', 'point_of_interest', 'establishment']",3.0,,-0.0701189,120.0336438
"R2R9+G8F, South Kasimbar, Kasimbar, Parigi Moutong Regency, Central Sulawesi 94474, Indonesia",Gunung seratus Kecamatan Kasimbar,ChIJlYGPnzUbii0RsbTYmwaXYF8,0.0,"['park', 'point_of_interest', 'establishment']",0.0,,-0.1586863,120.01831
"HM8Q+FJ2, Ogobayas, Mepanga, Parigi Moutong Regency, Central Sulawesi, Indonesia",Panapat indah,ChIJK1gTQgD3djIROXE2nLtDKAo,0.0,"['tourist_attraction', 'point_of_interest', 'establishment']",0.0,,0.56614,120.6890055
"HPF8+P7Q, Moubang, Mepanga, Parigi Moutong Regency, Central Sulawesi, Indonesia",Kemping jadi,ChIJq_XZLNz5djIRIvBG9qXiics,0.0,"['tourist_attraction', 'point_of_interest', 'establishment']",0.0,"[{'height': 4080, 'html_attributions': ['<a href=""https://maps.google.com/maps/contrib/113481870909759098797"">A Google User</a>'], 'photo_reference': 'AUGGfZkJbQE_5BCKm9Aj6D2tMifoD1uqDI-FSPZosXVnQc8IDvRHzN0pFZBfG-qsovdS5cJGtDAhKhGtn1qi30h4FC_cy2GvRI2e07l2zWoc__mrNq3OOWRdmyLwN9L0idW8_P48J8glWy0pexyiTa_9jTL6Bq6pneXwrFL2vep0KPxFzo4k', 'width': 3072}]",0.5743298000000001,120.7157477
"FMXC+5C, Mepanga, Parigi Moutong Regency, Central Sulawesi, Indonesia",Rep Ogodako,ChIJy09cNQBZdjIRQDZf4s8Bozk,5.0,"['tourist_attraction', 'point_of_interest', 'establishment']",1.0,,0.4979257,120.6711228
"HM8Q+FJ2, Ogobayas, Mepanga, Parigi Moutong Regency, Central Sulawesi, Indonesia",Anjungan Mutiara Indah,ChIJDz3uWwD3djIRaJfJl0B_rxU,0.0,"['tourist_attraction', 'point_of_interest', 'establishment']",0.0,,0.5661400999999999,120.6890055
"HP2G+MG9, Kotaraya, Mepanga, Parigi Moutong Regency, Central Sulawesi 94479, Indonesia",Tempat pemandia,ChIJERqTFGv5djIRTn3TspLDIR8,0.0,"['tourist_attraction', 'point_of_interest', 'establishment']",0.0,,0.5516568,120.7263732
"HP6M+JQM, Sumber Agung, Mepanga, Parigi Moutong Regency, Central Sulawesi 94479, Indonesia",Wisata Pemancingan Tumpangsari,ChIJy2gkBAD5djIRHva6jVcP6eE,0.0,"['tourist_attraction', 'point_of_interest', 'establishment']",0.0,,0.5615852,120.734437
"HP8P+3GC, Unnamed Road, Sumber Agung, Mepanga, Kabupaten Parigi Moutong, Sulawesi Tengah 94479, Indonesia",Kebun jeruk Sri Rahayu,ChIJIXtUfQ75djIR5RyQW06IAWY,0.0,"['tourist_attraction', 'point_of_interest', 'establishment']",0.0,"[{'height': 540, 'html_attributions': ['<a href=""https://maps.google.com/maps/contrib/117184378707762806992"">A Google User</a>'], 'photo_reference': 'AUGGfZk8kTczhh6ANZrj8a38Gx64O3WI-EKLbOIyWXOq975rpX3NKvgc-Fg3aHli1nOmvxOESi4d8LJyNYruVuQtlH-mpFNkCzQ7hrsmd69RgqrwS4Bbtmb3ukxaW8EhZJ-ZdZ_aPBTMqkHDpDlVFA6mCeZoA4TKhmFnQGX1P6XHIFgxnyo3', 'width': 720}]",0.5651762000000001,120.7362723
"HP2G+MG9, Kotaraya, Mepanga, Parigi Moutong Regency, Central Sulawesi, Indonesia",Permandian,ChIJ1ynp8vn5djIRmEZHwg0xJPc,0.0,"['tourist_attraction', 'point_of_interest', 'establishment']",0.0,"[{'height': 1450, 'html_attributions': ['<a href=""https://maps.google.com/maps/contrib/100393861591657027798"">A Google User</a>'], 'photo_reference': 'AUGGfZnFhbqeUtLA4iFbfolWsCrneCLGa8oaKldtgYDH_8faJWbdyYauRo0NsIxeHgeKuJ0wB_n6dGtHItlXchrPwdobmSzHraNyzLa5Od2IQhmlsvv08lUN8kU_r4MW_f8GBQexUzMs6cwungqSWTB6hoeCy4_Gdrk7E0oc-fcMloQahpje', 'width': 720}]",0.5516568,120.7263732
"HQJ7+6XM, Jln.Transmigrasi, Dusun 4, Desa Persatuan Utara, Kec. Ongka Malino, Kabupaten Parigi Moutong, Sulawesi Tengah, Indonesia",Destinasi Wisata Lembah Despot,ChIJNXf35dj5djIR0FZd3aL-0aI,0.0,"['tourist_attraction', 'point_of_interest', 'establishment']",0.0,,0.5805800999999999,120.7649084
"FHCQ+4C, Ogotumubu, Parigi Moutong Regency, Central Sulawesi, Indonesia",Korapu tompel merah,ChIJmcF8b79fdjIRHZa3PSseJhI,5.0,"['tourist_attraction', 'point_of_interest', 'establishment']",1.0,,0.4702967,120.58859
"HRJ3+PH4, Persatuan Sejati, Ongka Malino, Parigi Moutong Regency, Central Sulawesi, Indonesia",Pamsimas KOBAR,ChIJIaYiSAD5djIR1tndMmkhemQ,0.0,"['tourist_attraction', 'point_of_interest', 'establishment']",0.0,,0.5817607,120.8039474
"GHFV+3HV, Ambesia Selatan, Tomini, Parigi Moutong Regency, Central Sulawesi, Indonesia",Pasir Putih Lolaro,ChIJjwnGk6b1djIRToTZimJiUPg,4.5,"['tourist_attraction', 'point_of_interest', 'establishment']",4.0,,0.5227421,120.5939265
"G6VW+25P lorong TPI dusun 2, Moutong Tim., Kec. Moutong, Kabupaten Parigi Moutong, Sulawesi Tengah, Indonesia",Moutong Timur,ChIJu1zeXwALdzIRM7R4Ast35I4,0.0,"['tourist_attraction', 'point_of_interest', 'establishment']",0.0,"[{'height': 3120, 'html_attributions': ['<a href=""https://maps.google.com/maps/contrib/116225263264873814497"">Lismon A Paudi</a>'], 'photo_reference': 'AUGGfZlEMZuWwJ6mvTgZaB_nq_2cObwSeGpkA9igv5j0JZIPAxwPqiW9Yx-BGshWinXoXuJPHcjwDjSxiqe2Ypxt5O2xxQXhHiu9fosMaRXcM1yiHCUwSj8uJZHo3wVVbpLxMX4drIZv6HxC9cqrlvmtN1ECQVtdY180y01eZaoQLZEXR2iZ', 'width': 4160}]",0.5425854999999999,121.2454674
"FFWF+Q3X, desa ogomojolo, Palasa Lambori, Kec. Palasa, Kabupaten Parigi Moutong, Sulawesi Tengah 94476, Indonesia",Air Terjun Ogomojolo,ChIJA56J3bBhdjIRdq-Rx41wDlY,4.4,"['tourist_attraction', 'park', 'point_of_interest', 'establishment']",48.0,"[{'height': 1280, 'html_attributions': ['<a href=""https://maps.google.com/maps/contrib/114609732122199071076"">Iwal Wahyudi</a>'], 'photo_reference': 'AUGGfZlyTbObZVMUkRwzDV_iU1mxlVYW18wQ9Go-zqWU_Hj8VA94QVmxu46F0iAcuu49JXSOv0_rfW-C88z6tRXgRP9_DLPaI0W5q5altRrnJ68O70xaI61C77qceX1vCO2ErI1v89L88-AUe9Q1dQFBdCw1cs_1Z6gz1KIQZk-eJa3xQ5UI', 'width': 720}]",0.4969843,120.4727288
"Maesa, pantai, Parigi Moutong Regency, Central Sulawesi 94471, Indonesia",Alifa cafe,ChIJrXA6yXtfiS0Rn51ERU1gFBE,0.0,"['tourist_attraction', 'point_of_interest', 'establishment']",0.0,"[{'height': 2448, 'html_attributions': ['<a href=""https://maps.google.com/maps/contrib/105868045526188644714"">A Google User</a>'], 'photo_reference': 'AUGGfZkr3_bNdD9iLer1QKy8ddntsxYC-UMzPvcjYx8ws67LgU9Cpp-X3p50MuuMavjgPCW_FPWO8L7fzW80CbG6RxneH7zlwr76g231SU0MtbdqwwxA-8vdN0ufTpTAhqw2RFT-2aTmHVSeiaPc9X4-IsdI6derAKxJCkxVRQRPbhWl4bYi', 'width': 3264}]",-0.8152218,120.1798609
"553W+8Q4, Olaya, Parigi, Parigi Moutong Regency, Central Sulawesi, Indonesia","Pantai Sojen Olaya Korontua, Q,M,A,A",ChIJh7zoyI5fiS0Rg5IJ1oWh1TE,0.0,"['tourist_attraction', 'point_of_interest', 'establishment']",0.0,"[{'height': 3784, 'html_attributions': ['<a href=""https://maps.google.com/maps/contrib/109464127066649232963"">A Google User</a>'], 'photo_reference': 'AUGGfZn5TlD9TwSvSuqEn4mP6OWMwg8Jskwm0wELbs0I9uezWsIZ3IEjkgdfIUWWvSqgxnNnwDu_cU9l9Lg4r06buq2pakH2PqmswZt1lJ2qGbNScxPtcMDjaUDW9sudsd351RCb3jwsHW2FXD0DY0qsjUIFzvjPlylcj3MJdLNl6MbHuRYa', 'width': 3072}]",-0.8467275,120.1969508
"55XG+FF5, Bantaya, Parigi, Parigi Moutong Regency, Central Sulawesi, Indonesia",Pelabuhan Rakyat Desa Bantaya,ChIJWZJL7F5fiS0RBrBgGGv_gn8,5.0,"['tourist_attraction', 'point_of_interest', 'establishment']",2.0,"[{'height': 3000, 'html_attributions': ['<a href=""https://maps.google.com/maps/contrib/110085766132456720358"">yeremia rahmat</a>'], 'photo_reference': 'AUGGfZksRD6NWnqly_WxWaOrqBdEBZKliKZYVTuXJIdPncPvL03h_v7xNstrQpuXu1ibq0Gj6pQIepdpDus5vfOAsSIeH3GGMaU9ANwCF3lJbijIOLeQVZzkPU_uPm788Bi5eAL-QMaqdgXrK4lUTd_GWnrvMoq8THzgwSCVBtI_6Q9Hh11g', 'width': 4000}]",-0.8013606,120.1762421
"64FW+6CV, Jl. Trans Sulawesi, Lebo, Kec. Parigi, Kabupaten Parigi Moutong, Sulawesi Tengah, Indonesia",PAZ cafe & kedai,ChIJL3W8ZQnfiy0RuB9xshemRFc,0.0,"['tourist_attraction', 'point_of_interest', 'establishment']",0.0,"[{'height': 500, 'html_attributions': ['<a href=""https://maps.google.com/maps/contrib/103237109824748121366"">A Google User</a>'], 'photo_reference': 'AUGGfZmdpxZeeAr1tDSMfBOrtatdpPC2VbOFH0nnmnFLs2lKHE8iY-A6Q_vIqqjsxkU_9l0fgF1aDjHA1orINlR0YVDfZr64rhdJKs4tOuthh-lrrbmjhKTCg5oHzUuTtaN83sGyjpQml9kyXXM8kjSoE2DgXxKU9olU8mrFy_W5RlVMC-4E', 'width': 500}]",-0.7768710999999999,120.1460804
"64MJ+9H, Pelawa, Parigi Tengah, Parigi Moutong Regency, Central Sulawesi, Indonesia",Pantai Lentora,ChIJ6-MTvOzfiy0RG1IjgVjTFHk,4.2,"['tourist_attraction', 'point_of_interest', 'establishment']",28.0,"[{'height': 4032, 'html_attributions': ['<a href=""https://maps.google.com/maps/contrib/118397327192490074702"">A Google User</a>'], 'photo_reference': 'AUGGfZlJqVCantS4kALFBFt1Mu75oYqg_gmJ_oiR3hhnyW0a2VljHs_pqFhBZhiZyWmsbuqLuafMPTxIALRdkf2mx44fD5doJEr8If8WcrwV4HyCp3z813n52KE-pWi4t98T-OWJVG3XcQ8J6LFSil74YDJ07AmuKaEUcRfLdiFouYdU8bSC', 'width': 3024}]",-0.7666041,120.1314607
"64XF+6Q8, Pelawa Baru, Parigi Tengah, Parigi Moutong Regency, Central Sulawesi, Indonesia",Keluarga Papa Esang,ChIJB3esUgDfiy0Ra8JO1pEINdg,0.0,"['tourist_attraction', 'point_of_interest', 'establishment']",0.0,,-0.7524597,120.1237986
"Jl. Trans Sulawesi No.217, Bambalemo, Kec. Parigi, Kabupaten Parigi Moutong, Sulawesi Tengah 94471, Indonesia",pantai sa'ama,ChIJmQy0tS_fiy0RE0zEc4e5vR0,3.0,"['tourist_attraction', 'point_of_interest', 'establishment']",2.0,"[{'height': 4128, 'html_attributions': ['<a href=""https://maps.google.com/maps/contrib/110739679554840173981"">A Google User</a>'], 'photo_reference': 'AUGGfZlfAiS_k_YcO1jfplaNr0y_bKuSAhInLClbpYP6JID1J1JWD4X6DhlIMTvhMdRjitWUi1tvaXAQV1EQyFmaknYi84fp-M72rHSVWiABJtHN-lj0nvxAef4oVX9Yx0wq847_EJDtEsV4CO_Szi3nZDRUEfT0mNx4B03tuEEb3_zYeMAZ', 'width': 2322}]",-0.7737333,120.1420833
"55QH+6R, Loji, Parigi Moutong Regency, Central Sulawesi, Indonesia",Pelabuhan loji,ChIJw6YGlsBfiS0R82oyFokenR8,4.8,"['tourist_attraction', 'point_of_interest', 'establishment']",8.0,"[{'height': 4160, 'html_attributions': ['<a href=""https://maps.google.com/maps/contrib/105273152554895062284"">chris de&#39;siewot</a>'], 'photo_reference': 'AUGGfZmP5OZEe3n0YjCLSJLFA9e_uK1kEZDR1wI4RJAtGge3ajRmHDkK1CIzBRnwRTdArZvqD4zka_jW5arrZSdFu6mFaEa1mhwT65PVGMf2rdKfRMDD4N0IeWS5dfiQ0aZnRl1FEZPfvhSJXiM7rApdaj-DkGeK8PbZafv_G38qDtR4Lu9j', 'width': 3120}]",-0.8119653,120.1795252
"654C+45W, Kampal, Parigi, Parigi Moutong Regency, Central Sulawesi, Indonesia",Pantai Lure,ChIJr001CI5fiS0RbwNJ_4o89qU,0.0,"['tourist_attraction', 'point_of_interest', 'establishment']",0.0,,-0.794646,120.1704637
"63RW+H4G, Matolele, Parigi Tengah, Parigi Moutong Regency, Central Sulawesi, Indonesia",Bukit Eksis Matolele,ChIJyanaEADfiy0RqQTBi7_7KAI,5.0,"['tourist_attraction', 'point_of_interest', 'establishment']",3.0,"[{'height': 3120, 'html_attributions': ['<a href=""https://maps.google.com/maps/contrib/110164110643636134746"">110164110643636134746</a>'], 'photo_reference': 'AUGGfZl0RxoKUpfDLmVbq4cqDDHdbz_8npV-oN-yEAcIfxPQNPGfB0ge8iz7ScUhAHvH52PTXJ-1MBXrIxnUG0zNzACv14BfY_vHlzPC0SLV_RhP21iaLsDTeZV4iPEswY0zJyzhU3v32gBnvjcgaPIcMuexnrq8YLCz0l6bfr4kAj3KZC77', 'width': 4208}]",-0.7585611999999999,120.0953226
"6593+6HF, Bambalemo Ranomaisi, Kec. Parigi, Indonesia",Pantai Ranomaisi,ChIJ92giv13fiy0RnypADfoTLlM,5.0,"['tourist_attraction', 'point_of_interest', 'establishment']",1.0,"[{'height': 4160, 'html_attributions': ['<a href=""https://maps.google.com/maps/contrib/103089828171504256155"">A Google User</a>'], 'photo_reference': 'AUGGfZkR_sm7WV0LaLyoszDXhCclfSL5OZN_y2r41bfCxANNggZtXvra8GaH6YPSojy85d-RURZRS4ReQwkaplzv5qPpwd0IAEfA3DdvcH9GxtkME-EEb17_mxjPaaeeTkAm0hQPs4-1Q5UzC7uMDFtwdY0YMfRuFj-SPLh82eCj_Da90Ret', 'width': 3120}]",-0.7819429,120.1539124
"64WG+4HQ, Pelawa Baru, Parigi Tengah, Parigi Moutong Regency, Central Sulawesi, Indonesia",Tamabeach,ChIJOxeKGADfiy0RrS_s-W0H3Zk,0.0,"['tourist_attraction', 'point_of_interest', 'establishment']",0.0,,-0.7546552,120.1264999
"64HJ+QVR, Pelawa, Parigi Tengah, Parigi Moutong Regency, Central Sulawesi, Indonesia",Pantai Polindolara Pelawa,ChIJl7emyXbfiy0RbTuEZu1PtAU,4.0,"['tourist_attraction', 'point_of_interest', 'establishment']",25.0,"[{'height': 4624, 'html_attributions': ['<a href=""https://maps.google.com/maps/contrib/117231205084165617321"">Masyithah Kusumayanti</a>'], 'photo_reference': 'AUGGfZmIbtTalthemFPgxtbXtdJl4QPsvjkzQ2NfyhfF7lWecpm9Jd_Q6TbqPxO9mpWGcSiYkfqv5Cfk5FaGUOQ-f_ELcgrrHJg157LNioawBNwoTA5Z8EJ1G-gJ1GpeyTcgqQV5L4OTB_x_zD_yEmKWJPkndfXcfvHxZ7M1TCaOLaCdYThM', 'width': 2604}]",-0.7705107,120.1321292
"35PC+GW, Lemusa, Parigi Selatan, Parigi Moutong Regency, Central Sulawesi 94471, Indonesia",Wisata Air Terjun Desa Gangga,ChIJBSv-NflZiS0Rei5wRCWpG5Y,4.0,"['tourist_attraction', 'point_of_interest', 'establishment']",5.0,"[{'height': 3072, 'html_attributions': ['<a href=""https://maps.google.com/maps/contrib/116871938599703315695"">A Google User</a>'], 'photo_reference': 'AUGGfZnGTPdfZL_OZtQYmxNpYJ_ZsC-FeWXIL6g5hns3877lj5yjwVfKGs1WN0jtpk8bDnXgKjgwhcxgJXyc8AXEJj8oL7nXoQC5Jn9p2YB662zf8RJsBhCYO70I0myWhzSPw5mBWrS1ddMtXI-1VGexISv79AF-CAD0__GpvkwmId89cdRn', 'width': 1728}]",-0.9137235,120.1723181
"7439+FFM, Jl. Trans Sulawesi, Pelawa, Kec. Parigi Tengah, Kabupaten Parigi Moutong, Sulawesi Tengah, Indonesia","Pantai Bolinaso, Desa Pelawa Baru",ChIJV7PHQTjfiy0RokVmLDPdTUA,5.0,"['tourist_attraction', 'point_of_interest', 'establishment']",4.0,"[{'height': 3120, 'html_attributions': ['<a href=""https://maps.google.com/maps/contrib/110164110643636134746"">110164110643636134746</a>'], 'photo_reference': 'AUGGfZmgS33QWoIt3mKedUWm0YSLLgOJWpJJyR1mi6FDnt47Uvgmb-Mzuk4rdz3Ohw6EExFlLSJBr7DgmIPOa0rTwDJLwG8cB4zUAlD4-e10DKMGY_VNsQCAuw1Yo090gPe3u1NsdYv6s4nfVRUnKk4h-gIV76c_rTuZmxyjkvOXL965aQCZ', 'width': 4208}]",-0.7462891,120.1186766
"73R9+X2C Kilometer 4, Jl. Parigi - Palu, Toboli Bar., Kec. Parigi Utara, Kabupaten Parigi Moutong, Sulawesi Tengah 94471, Indonesia",Toribayu Ground,ChIJF6u8vQLZiy0RJO7Da3PYeAo,4.8,"['tourist_attraction', 'point_of_interest', 'establishment']",4.0,"[{'height': 3120, 'html_attributions': ['<a href=""https://maps.google.com/maps/contrib/113939991946514867120"">A Google User</a>'], 'photo_reference': 'AUGGfZm3pwhWPLjmSmPquIURW8bZZMNDmlYX1vqvPWVJfbEn-xIOVyfWTypI9R_mAK7kvKQtCYqUwjv67v5CowDkqhyGSrXrCofsDMXYFtDXNrY0rnJE8pnCQGNTq5zSHg-mW1gr0M585Nh9YxuVrJaQTCn_N7rVlF6GIu_b6TEZrwyrIzti', 'width': 4160}]",-0.7075716,120.0675051
"7465+RXM, Pelawa Baru, Parigi Tengah, Parigi Moutong Regency, Central Sulawesi, Indonesia",Pantai Kayu Bura,ChIJxc-BipXfiy0R_kOA4i9fAsg,3.8,"['tourist_attraction', 'point_of_interest', 'establishment']",4.0,"[{'height': 1836, 'html_attributions': ['<a href=""https://maps.google.com/maps/contrib/109613436876432549641"">Broncos Lazio</a>'], 'photo_reference': 'AUGGfZmFvo2AueSlICoWI86lB0BbDNaQDVHDdiqkNidqUMNS60qVeLorG8gC5B3EGEaTjK6yCb-BF7UdBvthJmFqLQ_8c0gMtCKu-IyX6BXkUegFhiNQro1WQJGAD9XbWwbTUMdTQDucGfqgeVh94dCa80hSAJYoLJvXKjQNRS8jtfxI2dtC', 'width': 3264}]",-0.7379243999999999,120.1099299
"72GH+MW, Toboli Barat, Parigi Utara, Parigi Moutong Regency, Central Sulawesi, Indonesia",SUNRISE PARIGI-KEBUN KOPI,ChIJEygOZSLdiy0R-xYFVGxMhwM,4.7,"['tourist_attraction', 'point_of_interest', 'establishment']",16.0,"[{'height': 2448, 'html_attributions': ['<a href=""https://maps.google.com/maps/contrib/108961804632112786045"">A Google User</a>'], 'photo_reference': 'AUGGfZn9-uhnNOiixj_uTqShrd1_fHaIB56cAP0TBBU8vCJyuerCZG5Tmm-Pt_kGl_0sAp0wB3kWY8778oNEyrzQulvOSnDqXbb-a3YwcwCCRJiKwnOhGl7GL0bT4II3kTdwo5l1gGrV30ILeqnh7CzjIClXFa2Uw3iyxC5MrhxgAEiEl5wS', 'width': 3264}]",-0.7233518,120.0297925
"46PJ+HRG, Dolago, Parigi Selatan, Parigi Moutong Regency, Central Sulawesi, Indonesia",Pantai Bundus Bahari,ChIJ4WU0zSZZiS0RPvbionrc-P0,5.0,"['tourist_attraction', 'point_of_interest', 'establishment']",2.0,"[{'height': 3264, 'html_attributions': ['<a href=""https://maps.google.com/maps/contrib/115804281910326382005"">A Google User</a>'], 'photo_reference': 'AUGGfZlcRcJvTXNezHBNK_zET2IWH87BmbyBrpUuOqNVwsoTQPeXZoXhnbEskgEe8tLm13Ys067cEJ2CtPj3rNz-CV6X6kayQTgXDTQ3vWovmw5utq5AbOjWi6SkX4Dikad3Wo_6UVd_LtGoeVUXf_z2UYBHpcmLmbQTWUPifSsSgYTO_PSB', 'width': 2448}]",-0.8635668999999999,120.232077
"74F4+JPC, Pangi, Parigi Utara, Parigi Moutong Regency, Central Sulawesi, Indonesia",Pantai kaili,ChIJLeglP3_fiy0RlY4JDsZ0x3Y,5.0,"['tourist_attraction', 'point_of_interest', 'establishment']",1.0,"[{'height': 1920, 'html_attributions': ['<a href=""https://maps.google.com/maps/contrib/117950693865648167641"">A Google User</a>'], 'photo_reference': 'AUGGfZnqqKJK2chBXgXMeJraZh7JIH2FYnea1vgtFsuf0ajKa_eJruhGZeV_HNFvCyigSwlxmNeABb6lHJgj6t9dxEnezYdDFR-zVXz0hBKMf5_ONW0atFjHjsTSaQg7HD9SGNdQdm1z5pDXR6ae4qk_9PO6KvFRX2Hr4DDf_2CGUVkhzev0', 'width': 1080}]",-0.7259422,120.1067565
"742C+X44, Pelawa Baru, Parigi Moutong Regency, Central Sulawesi, Indonesia",Rakata Beach,ChIJQzYqhQ3fiy0RT054uc4fa6A,4.7,"['tourist_attraction', 'point_of_interest', 'establishment']",9.0,"[{'height': 720, 'html_attributions': ['<a href=""https://maps.google.com/maps/contrib/101739343507996511110"">Manks Kr</a>'], 'photo_reference': 'AUGGfZltxewPMyLAJFTzfPS-cDR9Hsx7NdgveZ2HZOk-FI5mz56tLTZANPNZtDuW7Xfli4WSA2CXRTzaFhK_LL6Gya1hXptWNW-NXa1zdo-9AHK4BfCKZhjs_X9x4xhxflbR7I9nyRkIlcbYqenG6BpM52EG-FQIips6TzblmjRbRk7-nCmo', 'width': 960}]",-0.7476073999999999,120.1203201
"746C+W3, Pelawa Baru, Parigi Moutong Regency, Central Sulawesi, Indonesia",PASIGI (PASIR PUTIH),ChIJWW4wKQDfiy0RRWoo_lVOqQw,0.0,"['tourist_attraction', 'point_of_interest', 'establishment']",0.0,,-0.7377075000000001,120.1201736
"Jl. Parigi - Palu, Toboli Bar., Kec. Parigi Utara, Kabupaten Parigi Moutong, Sulawesi Tengah 94471, Indonesia",SEGMENT-06,ChIJlVw5yYPbiy0Ryphf21YSv80,5.0,"['tourist_attraction', 'point_of_interest', 'establishment']",2.0,"[{'height': 600, 'html_attributions': ['<a href=""https://maps.google.com/maps/contrib/117537345683840219091"">A Google User</a>'], 'photo_reference': 'AUGGfZmNiVrxpG2AlOgOUODwiwRGNQaSpFpvyEixEFAXVCD559fZ7Qe_eolexTfk1fh4R-nyalqeqIcx5OuEzsYE_jO9H5u1hwIck7x7oMZ6fm0mAXq_nzjiFEIg914zLlq3yYXDAL_yxQNpKQVl-Djzb9wZ0jxc6noEH9dRY4Pd5xqYf8Sn', 'width': 600}]",-0.7152632999999999,120.0568577
"73P3+32R, Jl. Parigi - Palu, Toboli Bar., Kec. Parigi Utara, Kabupaten Parigi Moutong, Sulawesi Tengah 94471, Indonesia",WISATA ORANG HUTAN,ChIJOyPRzKjbiy0RiH9i5gOHq5o,4.5,"['tourist_attraction', 'point_of_interest', 'establishment']",2.0,"[{'height': 1520, 'html_attributions': ['<a href=""https://maps.google.com/maps/contrib/103684914848928981101"">inael pontoh</a>'], 'photo_reference': 'AUGGfZlTuqJxseumZi-KyswffazkHyOPpWHB2HMs_wKqpIwVTljS80zTKIbGQThst5nLUxNjAM68hOrt89QNRBOYzgoEop0x_FtINR0BO-HYrklBeVXRzHvfuIcgzatCcZKwAPIoIGS3iezsBltIDSG8BbT-qZggCJfDyN_aThwN5sY7ig0f', 'width': 3264}]",-0.7147532999999999,120.0525149
"Jl. Parigi - Palu, Toboli Bar., Kec. Parigi Utara, Kabupaten Parigi Moutong, Sulawesi Tengah 94471, Indonesia",SEGMENT-05,ChIJ4fpX9mnbiy0Ry0CoEQdZWM4,5.0,"['tourist_attraction', 'point_of_interest', 'establishment']",2.0,"[{'height': 600, 'html_attributions': ['<a href=""https://maps.google.com/maps/contrib/116607075763375938531"">A Google User</a>'], 'photo_reference': 'AUGGfZnSRBccfoRqVvnik0FmGL-ZdIyNN5DLUUyj8vJd02LGvV9PbHCe4LjlLjGydUibzoJ1LNOuGamEmfiIcJ8cmuAxXXvD3SsPL5K8VkIiX6ZIHuz2-OlDXdlApZiI3OI7VfuB5fb4RGlO_AW4HtICga7bqFUNgj3fVfGq96e0TwOqzTIw', 'width': 600}]",-0.7148774999999999,120.0532628
"37QF+HR6, Unnamed Road, Nambaru, Kec. Parigi Sel., Kabupaten Parigi Moutong, Sulawesi Tengah 94471, Indonesia",Pantai Masi,ChIJY6UYhtFbiS0RVaqTnpI7qMw,4.8,"['tourist_attraction', 'point_of_interest', 'establishment']",5.0,"[{'height': 2592, 'html_attributions': ['<a href=""https://maps.google.com/maps/contrib/103580241049963539624"">A Google User</a>'], 'photo_reference': 'AUGGfZnKB_ZESHZqZKKH9mpv_lzvMShZ-tWvbDFu8VqyNKRRzx9hPQaP-h0mdXqo2Y5XpBjsFnrX3T3c_KQ7OJ1mP64hprnNoQQoeKdukTbD05apdItCVzoCc2yK3oOre3fZk2-3q-5Nd9EFZF9h5uWKYHWXRNaJyc1IAsyWGjSy4zQvEQvc', 'width': 4608}]",-0.9110857,120.2745093
"37V9+R28, Nambaru, Parigi Selatan, Parigi Moutong Regency, Central Sulawesi, Indonesia",Pantai Tueni,ChIJDUw8ek5biS0RhLdVC4BQqAg,4.7,"['tourist_attraction', 'point_of_interest', 'establishment']",3.0,"[{'height': 4640, 'html_attributions': ['<a href=""https://maps.google.com/maps/contrib/100226117692177348114"">ngurah alit</a>'], 'photo_reference': 'AUGGfZnbOwT85t5zwsFA2GNChIPpJD9jQUu-CWkyc1gRuicy4xCLRJp0obrgHctJIy5s3BKktwFhkardOf3fE-ksycjXM1_lhSg8YsiFkZtBGIAg4txbXR7t0OP7srPI3ysZ0iXeu933aKBjGIkNPblf7LwFZ25p05E7hmuF9A35Qo8Qb2SP', 'width': 2610}]",-0.9054714,120.2675707
"37X6+7PP, Nambaru, Parigi Selatan, Parigi Moutong Regency, Central Sulawesi, Indonesia",Pantai toweni,ChIJ-xS06ldbiS0RKyourUkR1_s,5.0,"['tourist_attraction', 'point_of_interest', 'establishment']",2.0,"[{'height': 3264, 'html_attributions': ['<a href=""https://maps.google.com/maps/contrib/108349835999324375383"">A Google User</a>'], 'photo_reference': 'AUGGfZmSxRHFvRs-fDlmhxpFpF_h9nMyZnwXqjMYSYmKMme2ap2BaJZfRt0quqV9uUCLPizT-xfVswfO-1abwuSi3mYoD3CTDyAT4ml8GOjfDYJUDzbqfqBA1lVgVR3VLQiyTHF_ebXcLfEXZ9iYejLf4uMmjZsLhCreaT9aQ_WJFR16Arpd', 'width': 1840}]",-0.9013956000000001,120.2624423
"74J4+V9, Pangi, Parigi Utara, Parigi Moutong Regency, Central Sulawesi, Indonesia",Pantai Wisata Desa Pangi,ChIJ02r6qiLfiy0R_Ui9tnR_uFk,0.0,"['tourist_attraction', 'point_of_interest', 'establishment']",0.0,"[{'height': 1080, 'html_attributions': ['<a href=""https://maps.google.com/maps/contrib/107232801615835217036"">Bambang Hari Eko Mei</a>'], 'photo_reference': 'AUGGfZkzlH2x1wMWN-6_uam9vaTTrAz2O6tPlZJNM6IGBJVAeuVRwpm6k9dN7URZikn1T79V1As985BjK9AA_ti6K-N1biohq1y6XTKFYuupisHvOnQliWV99fCfZELZz8iROQPlDKOVVUlPh7cGRAr5Kx3YF9W56ZqlBH4dK_kBi8HgHVcp', 'width': 1920}]",-0.7178475999999999,120.1058814
"836M+6R3, Jl. Trans Sulawesi, Toboli, Kec. Parigi Utara, Kabupaten Parigi Moutong, Sulawesi Tengah, Indonesia",Pantai Kapuk Toboli,ChIJHXyNLnPZiy0RLllIc5ukypM,4.3,"['tourist_attraction', 'point_of_interest', 'establishment']",18.0,"[{'height': 647, 'html_attributions': ['<a href=""https://maps.google.com/maps/contrib/109023493427330440171"">Jamri Langoy07</a>'], 'photo_reference': 'AUGGfZlo-8vXKdhIO_EdgnL8dMBKWZO2jlIeMl7ylSnx6q3N0pdMduUtte86UdWuulAQ0MJpWHaEdzjJC1M4HmVSLghuG543goX85IZTX23D4duaD57-34RQm_w6JR1Q-55UcrDH3g84qNMkkeEwyQaMz8HsqDfY0RFzzyFyFUoK8-ZI6lKX', 'width': 1080}]",-0.6894908,120.0845565
"55Q9+F32, Jl. Telkom, Masigi, Kec. Parigi, Kabupaten Parigi Moutong, Sulawesi Tengah 94471, Indonesia",Taman Masigi,ChIJazcVbYRfiS0R4xedH42NQvY,4.1,"['park', 'point_of_interest', 'establishment']",463.0,"[{'height': 3120, 'html_attributions': ['<a href=""https://maps.google.com/maps/contrib/112545662920526140730"">Kayan Andi</a>'], 'photo_reference': 'AUGGfZnEUr3HLdSueUE6jSPDMd34TvDZzzXy4J7apMI9ZRepvyolTUzFW68a6zyBhnLRmPVY8vgoe1sNvEU3vyNRFTWFxdqk2xImC48QUs0ohRTablugl5YSxqKhP0umkwVaXSKfqL78H2kyTLKqRFhlIX5g7TFQrNGxKFmlEcEpM8EL_5HS', 'width': 4160}]",-0.8113302000000001,120.1662437
"Desa, Tolai Bar., Kec. Torue, Kabupaten Parigi Moutong, Sulawesi Tengah 94372, Indonesia",Wisata Terpadu Pantai Arjuna,ChIJG3ugXwZRiS0RM9Ozx6CNBPY,0.0,"['tourist_attraction', 'point_of_interest', 'establishment']",0.0,"[{'height': 4160, 'html_attributions': ['<a href=""https://maps.google.com/maps/contrib/109013605681579450040"">A Google User</a>'], 'photo_reference': 'AUGGfZlMdIhWV-1XeUKXllExvjqIR56XaIKgq3bJPJJnJ1PEo7ZOYZExIYBXpW6p6tsczf73ZifIaQsUydciTB4rNCQNm-5-MDDB-trWBjNGeNDHBsFTyGIAShH5MvyJu1qB0WDI1RH0UuZOA1iope7wqVttwu_H6ASZ0DBkiDjMTeh2i3ea', 'width': 3120}]",-0.9548268999999999,120.335592
"Tolai Barat, Torue, Parigi Moutong Regency, Central Sulawesi, Indonesia",Kebun Tirtagangga hidrofarm,ChIJUQcxHUlTiS0R6Ixn_WMHskI,5.0,"['tourist_attraction', 'point_of_interest', 'establishment']",5.0,"[{'height': 4000, 'html_attributions': ['<a href=""https://maps.google.com/maps/contrib/104139567412738428913"">A Google User</a>'], 'photo_reference': 'AUGGfZlbQjHhIBGT2gKxCLry-XuVRIsmeq4KNinf9Rn0GHVx1-Y_01FVeUP0-vuKMCSVi09RPnGHFbJMar1c684iZZU4V0B5c6mhuPUe4W-nxdWQlrRQg_gdMJbd3drGO4xSnq_tmJjE7KGI-4gY2JIQUoU0nChiAjKzZv9orVwH_7mH69gp', 'width': 1840}]",-0.9918125000000001,120.3229375
"363F+VC, Nambaru, Parigi Selatan, Parigi Moutong Regency, Central Sulawesi, Indonesia",Bendungan Bonebula,ChIJG7lhUQBXiS0Re2rwtakKKqA,5.0,"['tourist_attraction', 'point_of_interest', 'establishment']",1.0,"[{'height': 3840, 'html_attributions': ['<a href=""https://maps.google.com/maps/contrib/111403154904332565476"">muhlisin usman</a>'], 'photo_reference': 'AUGGfZnIJsVcG1qftKJsuWA_uXRV1gkuUeSwaOnXlEviFLIwizbryZoqP5xjLHrtQJ1NbTMmWcS6C0OC9omr9RDrl4ZlHJ1cjMw07i9AdclkxPCbCKIAwhfaraHsI9jb7R8SmGX1_Q5h1IaOElO5hnyFnb9_Xc4hKSHpeVWVSWB5pBVCI6Pd', 'width': 2160}]",-0.9452940000000001,120.223576
"375P+MG, Tanah Lanto, Torue, Parigi Moutong Regency, Central Sulawesi, Indonesia",Pantai tanalanto 2,ChIJr1Z2TlFRiS0RhOSfQChhBkE,5.0,"['tourist_attraction', 'point_of_interest', 'establishment']",2.0,,-0.9408555,120.2863676
"373W+F52, Tanah Lanto, Tanalanto, Parigi Moutong Regency, Central Sulawesi, Indonesia",Pantai Tanalanto,ChIJ1dfDimVRiS0RxNlAtNBo7mU,5.0,"['tourist_attraction', 'point_of_interest', 'establishment']",9.0,"[{'height': 1920, 'html_attributions': ['<a href=""https://maps.google.com/maps/contrib/113052975425084504167"">A Google User</a>'], 'photo_reference': 'AUGGfZm6uQMavsTIi8UDaDh90BzbH-ZbXNd-oACx4HnRCKJlOyct7YZ4EuNoAXCWwYqmo6AUhgY_vctR-SALmlEGKoohpjlRv8xhmUBJbnhDlglkJOLtEkSBUjLQ1LKXgCjjH842YheeASKVQ4BsWSM7QCqB3fzl3FFQdXO4OYQI9393RpT6', 'width': 1080}]",-0.9463576999999999,120.2953889
"28R4+79W, Torue, Parigi Moutong Regency, Central Sulawesi, Indonesia",Pantai tasigarata,ChIJ8yMb0b9RiS0RH6dBgUy3RAI,5.0,"['tourist_attraction', 'point_of_interest', 'establishment']",2.0,"[{'height': 1848, 'html_attributions': ['<a href=""https://maps.google.com/maps/contrib/105766104666949514988"">A Google User</a>'], 'photo_reference': 'AUGGfZmryo6RWdajQ_HQd4_9zx2HlnWivbMEMzbc_VUDdnX-vWwGMWkVrquKXRzGMPxMBN947Nr6DoSFUTzEHgL_uoBDcEqNQFsL_K7BsJXsIkUfEXs8NUvmRwaGjsjEc0-KqYaLJ4cZZlOvDRMuDDecaK7kg_tGOLg6dBJrUzPhUw-H1Gth', 'width': 1079}]",-0.9592731,120.305941
"37X6+7P5, Jln toini, Nambaru, Kec. Parigi Sel, Kabupaten Parigi Moutong, Sulawesi Tengah, Indonesia",Tempat melasti umat hindu dparigi selatan,ChIJKbvgB7bviy0RreAjWrlsx6M,4.5,"['tourist_attraction', 'point_of_interest', 'establishment']",2.0,,-0.8982561,119.8851399
"Tolai Barat, Torue, Parigi Moutong Regency, Central Sulawesi 94473, Indonesia",Kebun Durian PT. Rumah Buah Indonesia,ChIJwd4Y2-dTiS0Rovnvy8_2Xao,0.0,"['tourist_attraction', 'point_of_interest', 'establishment']",0.0,,-1.0111232,120.3051271
"W7VP+X9J, Tolai Barat, Torue, Parigi Moutong Regency, Central Sulawesi 94473, Indonesia",Kebun Durian Dika,ChIJaz3VfQCtji0R-K_wTq5wkkU,5.0,"['tourist_attraction', 'point_of_interest', 'establishment']",1.0,"[{'height': 4160, 'html_attributions': ['<a href=""https://maps.google.com/maps/contrib/114477996884855301924"">A Google User</a>'], 'photo_reference': 'AUGGfZkC_0bZuc4u3Xhky8_TQLjyso_z0rtCiz-HBd7uTS3eyzlym-am6bznaRBlPOLgjJsE1KxbClDPpaapONe4nSP6RMUwsfBj_R4c6Z_--DvfqXeAOLW_LjP_pLWXM3f7as43ULa4tn99rDvAT01_QtmbIqbHzaukRKcC3SOtvWUF89_B', 'width': 3120}]",-1.0550425,120.2858846
"9357+J35, Jl. Trans Sulawesi, Marantale, Kec. Siniu, Kabupaten Parigi Moutong, Sulawesi Tengah 94474, Indonesia",Pantai Nalera,ChIJuSanu7PQiy0RedNN-loqyzA,4.5,"['tourist_attraction', 'point_of_interest', 'establishment']",48.0,"[{'height': 3096, 'html_attributions': ['<a href=""https://maps.google.com/maps/contrib/107706515263021504399"">wage yono</a>'], 'photo_reference': 'AUGGfZnVlVCJrKBvYvPSw1oVm1RPufmJNzWO1aC4qehnZBBYl6YbGvjTxqUfqRgZ2Cpe98Y2T2c-p0TemeVBTjiXT4u7kN-d02jLzqagxiPmxnFzxu6fjeouQLTBj1nmKoSfiowXjPuMOIurh1sUfZQ_SM2TeLyVj0pDCX9wE34yFpY7H8GQ', 'width': 4128}]",-0.6409863,120.062722
"J3J3+4J2, Tomoli Selatan, Parigi Moutong Regency, Central Sulawesi, Indonesia",P. Pasir Siulang,ChIJr7UecAAlii0RPf5V5_NG5Dw,5.0,"['tourist_attraction', 'point_of_interest', 'establishment']",1.0,,-0.3697342,120.0540229
"9374+979, Marantale, Siniu, Parigi Moutong Regency, Central Sulawesi 94474, Indonesia",Air Terjun Likunggavali,ChIJTc7LmhDRiy0RjXqy5hVFCnU,4.2,"['tourist_attraction', 'point_of_interest', 'establishment']",9.0,"[{'height': 1280, 'html_attributions': ['<a href=""https://maps.google.com/maps/contrib/111288470893362335775"">A Google User</a>'], 'photo_reference': 'AUGGfZnc66fEO1hZeTZegWP1EDNAW8sFWpZmQWklX7WCYO4MVgwxuT3_g075-LIKCTOz182MC7wLAFGt-VGajbVEhK_wXOYDZKIC37J7GhfvumXQnouX1bqktutVgX-Xf4qbawdUYYKoJEj1-FEvT5A5Ag939yTaWBVAAPgnZhVv3NVJ0Wlw', 'width': 960}]",-0.6365767,120.0557198
"63JV+XQ, Binangga, Parigi Tengah, Parigi Moutong Regency, Central Sulawesi, Indonesia",LEMBURU CITY(kota air),ChIJUS_NaoTfiy0RNkt0cN72Hqc,1.0,"['campground', 'lodging', 'park', 'point_of_interest', 'establishment']",1.0,"[{'height': 4160, 'html_attributions': ['<a href=""https://maps.google.com/maps/contrib/117774235323422077962"">A Google User</a>'], 'photo_reference': 'AUGGfZnw4tp0WYhLO4YAbU6VsknkMC6-6CemSW3KuMOqDUuwpQkO5BS0BF9acEtzK110QL09vTg6J6xLqZuf7_WCNJaBqK3dfW9_nnYL3A6q7X02BdKXZBNuySpfZLI3z79-eVHyagwAsNUABaDSSJC0HaMmTEH072NWJPsB_Tu-Ogk-GAk2', 'width': 3120}]",-0.768103,120.0948267
"9347+5VC, Jl. Trans Sulawesi, Marantale, Kec. Siniu, Kabupaten Parigi Moutong, Sulawesi Tengah 94474, Indonesia",Tanjung Avanza,ChIJ91sHCo7Riy0Rrft0vvaWLOc,4.5,"['tourist_attraction', 'point_of_interest', 'establishment']",11.0,"[{'height': 2340, 'html_attributions': ['<a href=""https://maps.google.com/maps/contrib/110164110643636134746"">110164110643636134746</a>'], 'photo_reference': 'AUGGfZkflPsFA_bhqksqzMrG8s1pIbzcSuuZBdK85OMmFkX4CYiOhaj7d-VzGJ695elKc3I1DtdGsyspJSDP_fFd1Py2YZkt9dIaD1TDe4jH9B4FjoAgrj6_HCiPVMr5AijBOjZTHpP9-f0VTTwBCI-JhIK2bNWvIzs0wFB5GZEjKsb5npgu', 'width': 4160}]",-0.6445605,120.0646378
"93J6+3X, Marantale, Siniu, Parigi Moutong Regency, Central Sulawesi, Indonesia",D'Marantale,ChIJsxf4FHbRiy0RKrjvpj-SCaQ,4.4,"['tourist_attraction', 'point_of_interest', 'establishment']",33.0,"[{'height': 4624, 'html_attributions': ['<a href=""https://maps.google.com/maps/contrib/105323730766467094338"">Febryanti S. Kundje</a>'], 'photo_reference': 'AUGGfZnIwsIqlSbJ9R0KRpF2fFd3oTA2UojSvN_yduBOM78W0VyXYu8LGn19AwDM2n17kwRqs9wyjATkcI7pnL12Z59EGj_yvCvZR9Dw6sexRQIUCtfLvne1Snqn660B7-XfmAqSt0oX-UWE_PjmUSULJZic-dcSoKdpqrCGKPjz3JoexzKg', 'width': 3468}]",-0.6198712,120.0623978
"7465+VXG, Jl. Trans Sulawesi, Kayu Bura, Kec. Parigi Utara, Kabupaten Parigi Moutong, Sulawesi Tengah 94471, Indonesia",Anjungan SAIL TOMINI,ChIJsTMiguHeiy0R9e6uAaM6kVQ,4.1,"['park', 'amusement_park', 'point_of_interest', 'establishment']",142.0,"[{'height': 3096, 'html_attributions': ['<a href=""https://maps.google.com/maps/contrib/106135363358471761048"">bambang sumantri,SP</a>'], 'photo_reference': 'AUGGfZkpm6W_z1940AQQh_5IToIuO0yUYT7tMSS6UEKxPIvz63uobKySA-0mbFn-bRVVkxSkswyWqI3eDNLB7Xd3TkRUdC_IxoBx2gBByhhnOJKQvDQ5_d7kyTxliV4-hnXqhy5B6iX50lTYyZ1HppQlM-iQdlTK9m4tpwy8XihoPIB2BNqk', 'width': 4128}]",-0.7378248,120.1099478
"Pl. Charles de Gaulle, 75008 Paris, France",Arc de Triomphe,ChIJjx37cOxv5kcRPWQuEW5ntdk,4.7,"['tourist_attraction', 'museum', 'point_of_interest', 'establishment']",244576.0,"[{'height': 12000, 'html_attributions': ['<a href=""https://maps.google.com/maps/contrib/101615753229019665453"">Mubinur Rahman</a>'], 'photo_reference': 'AUGGfZmendAE-edGsXdjYQcjAAFywYR-vy0TcBbn_FoIYiJmNywMSHMswxLGpIHbOv0oZdlJGl5BtC0TDoa6v69oqI3fEXHom_bly-nSsd3RXThjJIzpiR_0Gi2Nlkv4NR9f-IvQp3l8SAvQL-huDN7QJ4-F2hHTDtkE546CQaW3yEPtzASI', 'width': 9000}]",48.8737917,2.2950275
"35 Rue du Chevalier de la Barre, 75018 Paris, France",Basilique du Sacr-Cur de Montmartre,ChIJ442GNENu5kcRGYUrvgqHw88,4.7,"['tourist_attraction', 'church', 'place_of_worship', 'point_of_interest', 'establishment']",134335.0,"[{'height': 2268, 'html_attributions': ['<a href=""https://maps.google.com/maps/contrib/100977302787364478010"">Peter Wolters</a>'], 'photo_reference': 'AUGGfZkvlMGUQmtpFZibScHvkftVhLi93Q5NHbkOeU8G_wU-X83Vp8aZO4tD0epQvHGK5XvnpifvBVl5F5qoUxN6JG47wh_DaIUdDJs32-GNgQ2_jYsydXHMA0KvXXiykb9I__gr46LxTh5q8-rFsrd_Bramu5Af3hWmqnEE928gdm3tYxb-', 'width': 4032}]",48.88670459999999,2.3431043
"75001 Paris, France",Tuileries Garden,ChIJAQAAMCxu5kcRx--_4QnbGcI,4.6,"['tourist_attraction', 'park', 'point_of_interest', 'establishment']",105058.0,"[{'height': 9000, 'html_attributions': ['<a href=""https://maps.google.com/maps/contrib/114759011013262640462"">Medintu Marian</a>'], 'photo_reference': 'AUGGfZllZ1onlakTsFHw8ntfjlon97ktvp77wRpA4-_MkcHjdYylMqaRgxQhac808oFPnLZdwkc7QJvKCD3343SU9FwP1CIdvrcES5z7AyVELOmA_9EUHZ5_32FAg541mdlTI7bP5tYMQ_WeAOhc_6IZKmOS1RXGGp3EpBjH1bNfKUQBU9rC', 'width': 12000}]",48.8634916,2.3274943
"X3RX+4QP, Sinei, Tinombo Selatan, Parigi Moutong Regency, Central Sulawesi, Indonesia",Pantai mosing,ChIJZ-r1YkYBii0RzZAvBDea3Ts,4.3,"['tourist_attraction', 'point_of_interest', 'establishment']",80.0,"[{'height': 2448, 'html_attributions': ['<a href=""https://maps.google.com/maps/contrib/103691995587848224173"">A Google User</a>'], 'photo_reference': 'AUGGfZm3cznkQZscsZrnmF3IuHP9Do5S2Tj7O1-Wrg9iOyqOhdMmJghMTvmVDOVrvmYBon3aDFsn9yXIQvKczhTI1_5EufU0WEZxCb3Rs2yC809Es0QsRdFHQFEsrtBCqz0UiJYFCs66YKLGw8BQV4sOf7ILn45k90gLrkZY1Zq8dTjNkKo', 'width': 2448}]",-0.009663,120.0994421
"Av. Daumesnil, 75012 Paris, France",Paris Zoological Park,ChIJgxOy6vRy5kcRuuupiLDdw3A,4.2,"['zoo', 'tourist_attraction', 'point_of_interest', 'establishment']",16461.0,"[{'height': 3024, 'html_attributions': ['<a href=""https://maps.google.com/maps/contrib/101002777799010068282"">Souli Bilel</a>'], 'photo_reference': 'AUGGfZkFc8wVSlagV2RS9qimcLfivlae5Gs2dmPDIr9nnhIvHEyJf2nm33BDRTw7qT3SKVvckXh00tVsA4eiLpvKRyepoOlBV4MxZuhDjAgnXEWfEbgQk6ybKWEZYvsxW1jGJ4o_6ftxSxRcZUvBZHjt07YSM6kIQFIt8nRiIibMJ4BZXQ1D', 'width': 4032}]",48.8334091,2.414404
"Av. Gustave Eiffel, 75007 Paris, France",Eiffel Tower,ChIJLU7jZClu5kcR4PcOOO6p3I0,4.7,"['tourist_attraction', 'point_of_interest', 'establishment']",394803.0,"[{'height': 625, 'html_attributions': ['<a href=""https://maps.google.com/maps/contrib/111719219215411994893"">A Google User</a>'], 'photo_reference': 'AUGGfZlEODSTGBtYV4TMN1xfOxxXHqtXF0J5gdjmuW8qQgXcP_j-KeTGCRDiFabwVzS73tWhIC5xsGLf6xi9bIN583-NqmpkMLxd65TCyDTCfmDBfd4weinab4L_ujPYXXr-iNglFg4mtHAd6ZrstEtqarRFj6ph4b7SxlFEWu33HICvP1UP', 'width': 940}]",48.85837009999999,2.2944813
"232V+6VV, Jl. Trans Sulawesi, Khatulistiwa, Kec. Tinombo Sel., Kabupaten Parigi Moutong, Sulawesi Tengah 94475, Indonesia",Tugu Khatulistiwa Sulawesi Tengah,ChIJdYjT72H_dTIRimL1vwZ7Zak,4.5,"['tourist_attraction', 'point_of_interest', 'establishment']",306.0,"[{'height': 2448, 'html_attributions': ['<a href=""https://maps.google.com/maps/contrib/101204617437667385516"">Safirotul Huda</a>'], 'photo_reference': 'AUGGfZnnwIIO7mrOGx61WysrSTP-OSsxyJC0HVPAfccdA54BQxbDH4YdAdE4kR9q9z_AICLgkx8rx1buQCQtXfwcROqbCNsuj5xSndQ_M5dTnNs1-ikYeovjSojnP2kcCWSUvZwxqNfmu2ARHUQB-Fn3f9DQwtIY8ZbECNbHH0ws129eo5el', 'width': 2448}]",0.0006205,120.0946626
"75006 Paris, France",Jardin du Luxembourg,ChIJe2jeNttx5kcRi_mJsGHdkQc,4.7,"['tourist_attraction', 'park', 'point_of_interest', 'establishment']",107853.0,"[{'height': 3000, 'html_attributions': ['<a href=""https://maps.google.com/maps/contrib/110793756934592795777"">Thibaut Vidal</a>'], 'photo_reference': 'AUGGfZmGPJepO1SR-SA4vqXDAKrt6lNNvA1Iy4H5wJMBa8Ar2ZnKN7GVT15Rxiv24w8S_wM95MVqhrF5fe9nV2ZAn_zBXnP-eotWxffxPkiA_4oT1fOuZp0Gf4t96zz9WUz035Z9_QrmkC4S5ZlmiI_TfjIoc8cX0zSQS7Jmz-P1RtkT0PvH', 'width': 4000}]",48.8466144,2.3363309
"2F48+Q4F, Unnamed Road, Sausu Gandasari, Kec. Sausu, Kabupaten Parigi Moutong, Sulawesi Tengah 94473, Indonesia",PANTAI WISATA LOGPON,ChIJv_fD8KlLiS0R7_Y81aHa6Qs,4.3,"['tourist_attraction', 'point_of_interest', 'establishment']",21.0,"[{'height': 3008, 'html_attributions': ['<a href=""https://maps.google.com/maps/contrib/117400586316061492800"">A Google User</a>'], 'photo_reference': 'AUGGfZlKjzPnQxLXqqLPf7X3mS0cLAYkv4DszDzasuDnHpW45feQqgbh-7SMK8JVqAwfkLLVfiy0HQ8qQQ5ikBciDExSTrMx8hrkswUIuLkqQFgwOA3PZtCL91KOFn0wXYRd6EtIweuxIsAZG5JeEfUA28UfxCxEY51CKKPuT4Rfo6aCvF_z', 'width': 4016}]",-0.9930595999999999,120.4652897
"WF9V+44F, Unnamed Road, Sausu Torono, Kec. Sausu, Kabupaten Parigi Moutong, Sulawesi Tengah 94473, Indonesia","""Kelompok Musang king""",ChIJ4epPuja1ji0R7DCskhxJ0eM,5.0,"['tourist_attraction', 'point_of_interest', 'establishment']",1.0,"[{'height': 3120, 'html_attributions': ['<a href=""https://maps.google.com/maps/contrib/112309556243024471478"">agus bambang</a>'], 'photo_reference': 'AUGGfZmJtVDAn6kgQDUoFEsCC2jqsoQu9vHZCQCXGarwqbFmg3s3Awc5fficNRJ9X-7iHIIF49rIc9JL-b5WrmvuNx_ihW-ExQvVc-7OIWwAe2dKVgTnKGM3fI-U2QLjc-y2R-6xIfzAQ_auKtCBGRaBBc9USk7Fk0tYG46VrKoXr-b7hb6e', 'width': 4160}]",-1.0821919,120.4927938
"XG4M+55, Sausu Piore, Sausu, Parigi Moutong Regency, Central Sulawesi, Indonesia",tongos kuk,ChIJkZICLAA1iS0RAOpyjNsYAbA,0.0,"['tourist_attraction', 'point_of_interest', 'establishment']",0.0,,-1.0438363,120.5324012
"XG4H+MP6, Tlk. Tomini sausu tambu, Sausu Piore, Kabupaten Parigi Moutong, Sulawesi Tengah, Indonesia",DERMAGA TAMBU,ChIJZUIl8Yc1iS0RTiEPN0xh-zI,4.6,"['tourist_attraction', 'point_of_interest', 'establishment']",7.0,"[{'height': 4000, 'html_attributions': ['<a href=""https://maps.google.com/maps/contrib/109333149268201054900"">Agung Susilo</a>'], 'photo_reference': 'AUGGfZkE8sqX5oI1_5tRct0_o67R2LU6cxCFrktc8OwJaV1kGbh_jGVukXp7somquB0dv1_0WigzdigjtiIqp6kbCsubJKrzCrODe-2NsHCl-n16dlYUQn1z08HDhG3LsU26XzIPBHA5bmiOmWllMYpsxNNvUCB6q5rRuQ07HOu24MGYHkhI', 'width': 3000}]",-1.0433384,120.5292644
"XG4M+77W, Tambu, Kec. Sausu, Kabupaten Parigi Moutong, Provinsi Sulawesi Tengah, Indonesia",Pantai Karosondaya,ChIJgfyB44PLji0RiTtYLX-2myg,4.8,"['tourist_attraction', 'point_of_interest', 'establishment']",8.0,"[{'height': 1800, 'html_attributions': ['<a href=""https://maps.google.com/maps/contrib/117275858625771597633"">Irwan Tonggu</a>'], 'photo_reference': 'AUGGfZnH-eVIn5AjZmFZ0ucBXSxVBkDtD5Mz3ya9PjwG2zKcFshYxxwCtse4Fw2MA9IAvhnJE1Iel69Z7Dn_6eBH96Ux72fzIjlmig0W83isnqXqpisvjvsvKEbgMZGetGRhYmdSltCqJhS7jd5Ba-36ITfOrV8BaszI0IC86-hDfK6Zc40H', 'width': 4000}]",-1.0442674,120.5331907
"7644+8C, Sidoan, Parigi Moutong Regency, Central Sulawesi, Indonesia",Area kakap,ChIJF45aV00LdjIRspW_l__JAQs,5.0,"['tourist_attraction', 'point_of_interest', 'establishment']",1.0,,0.2558517,120.2060562
"843G+GP, Sidoan, Tinombo, Parigi Moutong Regency, Central Sulawesi, Indonesia",Air Terjun.Tundu,ChIJWzQ1dwDfdTIRpBddavHHo1g,0.0,"['tourist_attraction', 'point_of_interest', 'establishment']",0.0,,0.303865,120.126829
"8523+7C, West Sidoan, Tinombo, Parigi Moutong Regency, Central Sulawesi, Indonesia",Dusun sija,ChIJR5nYjJbfdTIR6WfvtDXm3P8,0.0,"['park', 'point_of_interest', 'establishment']",0.0,,0.3006662,120.1535547
"C72P+CQ5, Dusunan, Tinombo, Parigi Moutong Regency, Central Sulawesi 94476, Indonesia",KALULU PARADISE,ChIJLcU-e3h7djIRIOSNlXB6HTk,0.0,"['tourist_attraction', 'point_of_interest', 'establishment']",0.0,,0.4010235,120.2869828
"Jl. Trans Sulawesi No.16, Bobalo, Kec. Tinombo, Kabupaten Parigi Moutong, Sulawesi Tengah 94476, Indonesia",Pantai Bobalo,ChIJCVf1bux7djIR9kBtE2QV0kg,5.0,"['tourist_attraction', 'point_of_interest', 'establishment']",1.0,"[{'height': 1920, 'html_attributions': ['<a href=""https://maps.google.com/maps/contrib/116806915715541363732"">Enton Hartono</a>'], 'photo_reference': 'AUGGfZkLZiL3ISZ8mP2EOk1iA-Z-C4NkI3NgNHBzBgQihBA7OePjvvmjt5g6AfWgWd_n_o81LFkpv-t03sSFNu01wdFI1lNn146rAqKQpm93fs_agXfJedEs2ocGjyTC_VhUV6_6n1O1at2ss3VE1hT9x86XYR1XaEy-LXfc1wtTUez3l-Dr', 'width': 1080}]",0.4275629,120.3206194
"Tinombo, Parigi Moutong Regency, Central Sulawesi 94476, Indonesia",Pantai PELANGI,ChIJCaNB8qt7djIRT5pwHJ358N8,4.4,"['tourist_attraction', 'point_of_interest', 'establishment']",5.0,"[{'height': 3264, 'html_attributions': ['<a href=""https://maps.google.com/maps/contrib/110085766132456720358"">yeremia rahmat</a>'], 'photo_reference': 'AUGGfZl3Gm_Minc9cBDs-cD6iWRamEcXVLiS3l4Iegqq3tJtG41xJdNM4H63x7JDwcUG8hFbj6wQsQWbjPUTTkFNyR9OoKJh8xBrM78JbYmVqrg9Qhsau7LogIBwwr1I3tZMSesXp6taMK548RiZW06FAZgZlGO3VjAmtM_atHCvwCE8B2Dp', 'width': 2448}]",0.3918181,120.2905096
"Tinombo, Parigi Moutong Regency, Central Sulawesi 94475, Indonesia",LOLARO RESORT,ChIJx0oPNi9xdjIRMEm25bUAjmc,4.4,"['tourist_attraction', 'point_of_interest', 'establishment']",28.0,"[{'height': 3456, 'html_attributions': ['<a href=""https://maps.google.com/maps/contrib/107083651698949520149"">Fajar Adriyanto</a>'], 'photo_reference': 'AUGGfZkgAITTqWB9u4hz-rLti66qp5R0lJ-EsQRo0OpZ2tuUWR0zKZlCHycEJt3r7fB2pgZl-i4oecDD6IgzXnVZkt9rON4-XAxoq4G4rSSXP2dcZ1o9qNeZZgyNMXUxIOo0VzED32Q0B8CWm6lzxvR3vZSH13zku5hUOv6f_mdscvD6z6qM', 'width': 4608}]",0.3799603,120.2809552
"97X9+HC8, Lombok, Tinombo, Parigi Moutong Regency, Central Sulawesi 94475, Indonesia",Taman Tadulako,ChIJmSq0TIN7djIRFqNhXm_zwXc,4.8,"['tourist_attraction', 'point_of_interest', 'establishment']",4.0,"[{'height': 3120, 'html_attributions': ['<a href=""https://maps.google.com/maps/contrib/116266108638359459825"">anasofya astuty</a>'], 'photo_reference': 'AUGGfZnBLou5oX8EiNcEeHu-ABpCyKZGvPyMuUJE8A6WlZ1oc8trvkEFmH4oEAUAjgpbKEAns5RMW10hvaY9OMyhohbIjWnbbd2rKGHnC-XVFqHGkZL4xZttJHL7f8kMkC069fb7UTzhwvUpzgwg_Q18Ge2tZ04oDu3hp8NtRFqeE2YqkZ0F', 'width': 4160}]",0.39891,120.2685698
"97HJ+R6C, Tinombo, Parigi Moutong Regency, Central Sulawesi 94475, Indonesia",Pantai Lolaro Tinombo,ChIJiYAwCt1xdjIRMab0AfWNVMo,4.4,"['tourist_attraction', 'point_of_interest', 'establishment']",27.0,"[{'height': 3120, 'html_attributions': ['<a href=""https://maps.google.com/maps/contrib/116266108638359459825"">anasofya astuty</a>'], 'photo_reference': 'AUGGfZmjFuNHkpqkI-saZ4S-AAOPEf2WZppdfa8SoCEOx50J-3oyxudQukCwvKWV_lLMeB6-GHhM9VaWH13RnT3o3aGfRStwXkeL2JhfJs0bS3m31qwLciZdPSH-G85_wBv49EA5SYNvIbRCc9-D6MI_aAPuc8tV7pefNvVe-Z0MIR60UWgO', 'width': 4160}]",0.379558,120.2805258
"C3Q2+J3R, Jl. Trans Sulawesi, Siniu, Kec. Siniu, Kabupaten Parigi Moutong, Sulawesi Tengah 94474, Indonesia",Pantai rekreasi,ChIJF5jTdQDTiy0RmkysDBsK6Y4,0.0,"['tourist_attraction', 'point_of_interest', 'establishment']",0.0,,-0.5608858999999999,120.0512817
"2422+27, Khatulistiwa, Tinombo Selatan, Parigi Moutong Regency, Central Sulawesi, Indonesia",Ekuator tourism park siney,ChIJS4kQIIT_dTIRA44fL47hygI,0.0,"['tourist_attraction', 'point_of_interest', 'establishment']",0.0,,4.159999999999999e-05,120.1007158
"W3R8+W66, Tada, Tinombo Selatan, Parigi Moutong Regency, Central Sulawesi, Indonesia",SAIFUL IBRAHIM,ChIJtYDAagAHii0R3xGyGUalilE,0.0,"['tourist_attraction', 'point_of_interest', 'establishment']",0.0,,-0.05772099999999999,120.0655109
"339H+WM, Maninili, Tinombo Selatan, Parigi Moutong Regency, Central Sulawesi 94475, Indonesia",Wisata Batu Ujan,ChIJ88Y-R8L9dTIRLVVLH6vpKqg,3.0,"['tourist_attraction', 'point_of_interest', 'establishment']",1.0,"[{'height': 1280, 'html_attributions': ['<a href=""https://maps.google.com/maps/contrib/107528479549197929881"">A Google User</a>'], 'photo_reference': 'AUGGfZl4sdOJGG9vLdCTcw3p_alBburmD-hdV1v9d0JCyFPLtWiUSVMtFTq0dxzQ5h0-oEIMl0qh-Y-fojEx_n6MlSB4c2i_IWhr_T3FBqaQwmPrnmjzalVG31qIA3pqjuIhmOCJwdno7qVO0tyAp-beGWiM6_WcDtC350NWTZawv5w4b1n9', 'width': 1920}]",0.0697911,120.0792032
"2432+4FF, Khatulistiwa, Tinombo Selatan, Parigi Moutong Regency, Central Sulawesi, Indonesia",pantai khatulistiwa siney,ChIJzXd6m13_dTIRIirTr-FRAbI,3.2,"['tourist_attraction', 'point_of_interest', 'establishment']",5.0,"[{'height': 3120, 'html_attributions': ['<a href=""https://maps.google.com/maps/contrib/114748996064135486530"">jiman baru</a>'], 'photo_reference': 'AUGGfZl1lpah4WZQNKAFiu7iNWK3oJwlIuDC2b6ePhnuSMXnWJlYOEw8Fajl5L7rZmIMSvwvnCJvWW3zk9QppKPsLImuhGjf3_1BaLbP_bA929xR0CmZtM0usM6V75TTHfDUVkXCetDOYQgoi3z8FY1g18dKqczfZONlC8kZpZ0Al5em4S1k', 'width': 4160}]",0.0034963,120.1014843
"2432+4FF, Khatulistiwa, Tinombo Selatan, Parigi Moutong Regency, Central Sulawesi, Indonesia",Bambanipa Beach,ChIJ36e33jn_dTIRRwcp-AB1S38,4.5,"['tourist_attraction', 'point_of_interest', 'establishment']",24.0,"[{'height': 3120, 'html_attributions': ['<a href=""https://maps.google.com/maps/contrib/114748996064135486530"">jiman baru</a>'], 'photo_reference': 'AUGGfZlLmr7s8jVL2Mlq-snQYQIUOQEfTVbEoHr5BrGSGSsUZVWjl1i4O5ujJrDouZtm-gkc8PvjIeu3_YMpc_ezjsRMS5_vFzz5fZ1LciGsuceNjLsKJWGAk6jwGGR6DugSK4Q2K5G9TpZ1ZJJkC21_sbtHlZGCaI697P19PxCaed1PGkOb', 'width': 4160}]",0.0028244,120.1011812
"3425+WX6, Maninili, Tinombo Selatan, Parigi Moutong Regency, Central Sulawesi, Indonesia",MANINILI BEACH RESORT,ChIJNUkOjM__dTIRCCl6LoY0Y-E,5.0,"['tourist_attraction', 'point_of_interest', 'establishment']",2.0,"[{'height': 1080, 'html_attributions': ['<a href=""https://maps.google.com/maps/contrib/117971917120895038562"">Iswadi Daeng</a>'], 'photo_reference': 'AUGGfZmLGkM21CTJhXh2y6uES-T7iRc1d_bu96CV-fbbR_32LQu_lRABDRWjPyhYVLZpVVmxc7yYJoquQL0-UN4HtP5dAdMJBBXdnJTyO2eXvVz6qdo20oXM8WGMM62hCBDoZlK3bgAgaw05pfVqUYQD-AcEB9h4jAcUDNA1zFyq2M4KDNpW', 'width': 1920}]",0.05229909999999999,120.1098828
"543M+8F, Malanggo, Parigi Moutong Regency, Central Sulawesi, Indonesia",Malanggo beach,ChIJM07ZOL7jdTIR3QPFF7EGi38,5.0,"['tourist_attraction', 'point_of_interest', 'establishment']",6.0,"[{'height': 3024, 'html_attributions': ['<a href=""https://maps.google.com/maps/contrib/102107496890060194130"">A Google User</a>'], 'photo_reference': 'AUGGfZlLH_wpInkpJFo7lS0-ERf2mli_IGIVkO18o3d-1BStSK-1gVno3GPCrFnL3QqUibWwO-YBuVyEGxIdmnr-wzw-jTxeUTwzQTcxCA9kUa5cnL2cWIwDLYG1SvFK83E2t-5wxBivfZb9Vra3zSSKScbc8Ee_0RR0lEYkmuxg_92DqjI2', 'width': 4032}]",0.1532553,120.1337187
"34V4+V5M, Jl. Trans Sulawesi, Maninili, Kec. Tinombo Sel., Kabupaten Parigi Moutong, Sulawesi Tengah 94475, Indonesia","Wisata Mangrove ""VATU LOMPA"" Sigenti Selatan",ChIJT6DkLtz9dTIR1f0fBOwoS68,3.8,"['park', 'point_of_interest', 'establishment']",4.0,"[{'height': 3456, 'html_attributions': ['<a href=""https://maps.google.com/maps/contrib/116895811135995018852"">Subhan Syamsuddin</a>'], 'photo_reference': 'AUGGfZlKc4Y1biCWz2JjHR-pVczgDavBfKz_JaPZl5FffXGRMMNRcKJc4wNDCyeCLuCLhNqizpcZ9CD-JWVE6syG3_qZnvNl7xqI8EFYPTidQN8JXQLM1EnfzBmhX61sdhVH1ZKGfpLDEQ91j3EctZED_NKAB0wEfoJHRvka7wOfOtBl035F', 'width': 5184}]",0.09469999999999999,120.1054255
"44FC+856, Sigenti, Tinombo Selatan, Parigi Moutong Regency, Central Sulawesi 94475, Indonesia",Rumah ku,ChIJVyaoTAD9dTIRQtVyDuHy9M4,0.0,"['point_of_interest', 'establishment']",0.0,,0.1232937,120.1204039
"C74V+7XC, Dusunan, Tinombo, Parigi Moutong Regency, Central Sulawesi 94476, Indonesia",Bukit Sambaragi,ChIJmbBLB-F7djIRThcByR4M3e0,4.3,"['park', 'point_of_interest', 'establishment']",4.0,"[{'height': 2076, 'html_attributions': ['<a href=""https://maps.google.com/maps/contrib/111734529013938519442"">Nelson Anthon</a>'], 'photo_reference': 'AUGGfZlrDnYkNh1QGGo-wwRhLOlu0BxsCHaz0jw92JenA5yKXR2XlaBRY6QrISmzwMg5fqUAZH_x1FDpsAbHgFtAnvlpzd8D9Z2WPXGyyhbGsR0kmU11-abcbuP0k6COOpB-ZiA4seZy53RfD-CpxIfdynTQ72lg4gad2ZFaJkWKCfsunNzn', 'width': 4608}]",0.405693,120.294899
"97QP+8CP, Tinombo, Parigi Moutong Regency, Central Sulawesi 94476, Indonesia",Taman Raja tombolotutu Tinombo,ChIJH_6qTZ1wdjIRVdPSexNDASg,4.1,"['gym', 'park', 'point_of_interest', 'health', 'establishment']",59.0,"[{'height': 3000, 'html_attributions': ['<a href=""https://maps.google.com/maps/contrib/104922234716324239295"">Ipul Muis</a>'], 'photo_reference': 'AUGGfZlpdxGlaeYRv8Fo106vj4eT-Bd-rmllya3tTBL71829GM38084cxI3wD2p0fyPDQQlZm8o3UMMA1XnlSoBXnG6YMKaUX-Tbk6j2Dz-ZzN5mUcsZiktHU_p2-3wmYllsajzsFXAOEgmK_Xis4bo4BPme4_uMHPIWBAL3AdlRY-w-UMkv', 'width': 4000}]",0.3883311,120.2860661
"97VF+CJ8, Lombok, Tinombo, Parigi Moutong Regency, Central Sulawesi 94475, Indonesia",Rumah agung,ChIJFVe9Nkp7djIRRxSdJY4s9c4,0.0,"['park', 'point_of_interest', 'establishment']",0.0,,0.3935375,120.2740781
"F6H8+MV, Lombok, Tinombo, Parigi Moutong Regency, Central Sulawesi, Indonesia",DUSUN IV SIABANANG DESA.OGOALAS KEC.TINOMBO,ChIJPd2WchN_djIR3zu0rbu_Dec,0.0,"['park', 'point_of_interest', 'establishment']",0.0,,0.4792103,120.217239
"GHCH+QV8, Ogotumubu, Tomini, Parigi Moutong Regency, Central Sulawesi, Indonesia",Tompel merah,ChIJIdBuwcz1djIRsauvFq-UMS0,0.0,"['tourist_attraction', 'point_of_interest', 'establishment']",0.0,,0.5219020999999999,120.5797128
"GGVR+J5, Tomini Utara, Tomini, Parigi Moutong Regency, Central Sulawesi, Indonesia",Air Terjun Sarambu,ChIJZzHQzYj1djIRk0Hvjysasrw,5.0,"['tourist_attraction', 'point_of_interest', 'establishment']",1.0,"[{'height': 750, 'html_attributions': ['<a href=""https://maps.google.com/maps/contrib/115669257065819020455"">A Google User</a>'], 'photo_reference': 'AUGGfZkffMzEaST3UPb7uhH2sTcoZLqIE0_p1mgheSNNhoZWVW6QQ_ZINsvSPlIhBPlI3rj-yzRryHe7o82aRaKaheiEVhIhBc36qN0fVlC4kg0cYmtCF2omMF-j0xgM2BrM4Ofnl2Od0zORkRoqI7a_Nsi0kQnd3INnTyXq8_oZ4R4CvcvG', 'width': 750}]",0.5440337,120.540432
"GG8J+GQ2, Jl. Trans Sulawesi, Tingkulang, Kec. Tomini, Kabupaten Parigi Moutong, Sulawesi Tengah 94476, Indonesia",Abrasi Pantai Tingkulang,ChIJYWaIXHxfdjIREahuehPLN10,4.5,"['tourist_attraction', 'point_of_interest', 'establishment']",4.0,"[{'height': 1024, 'html_attributions': ['<a href=""https://maps.google.com/maps/contrib/116500331529753674986"">A Google User</a>'], 'photo_reference': 'AUGGfZl3q7weeyqOPUA-UXjV7UvH9tP-vjKlfbVOBm2iqD1zl6Ac3v6rcFJQfSJQn0BWbi9qtontZsjfjqzgPeR8b9J3MCcch9QCrixGrV9rijugzhEAE9RokKPcND962KNyGflW_xtvUbwTrIOG2QnGVuavj0Rh47sVm2hnGA74mNyb9l1J', 'width': 768}]",0.5158133,120.5328365
"286R+J77, Tolai, Torue, Parigi Moutong Regency, Central Sulawesi 94473, Indonesia",Kompleks Pasar Senggol,ChIJ_f5ihwhSiS0RkPjWRX8HasU,4.2,"['point_of_interest', 'establishment']",366.0,"[{'height': 4032, 'html_attributions': ['<a href=""https://maps.google.com/maps/contrib/103185394572457152970"">amang wib</a>'], 'photo_reference': 'AUGGfZlh5Vn3nlswDY1qHftMI0P_UNx4hZ4Rh-8CbgZyB_3jTYEH8FOvjnmnYGRqf8zxZrUkvEvMYQ-tUDnYYTXaWPDiQHDhdGDyEWM9nsIrgehDPcbGtdChSZu3WwyiQ0O7AXSByiNaPlIO9cXMqyhgZUhTc7Z9Yt3UnogsrV9qv6rZkd6k', 'width': 3024}]",-0.9884742,120.3406683
"P7J3+G25, Jl. Dongi Dongi-Watumaeta, Sedoa, Kec. Lore Utara, Kabupaten Poso, Sulawesi Tengah 94653, Indonesia",Wisata Danau Touji Plora Dan Fauna,ChIJ0VhYvPijji0R7XRCRLYRS4U,5.0,"['tourist_attraction', 'point_of_interest', 'establishment']",2.0,"[{'height': 3024, 'html_attributions': ['<a href=""https://maps.google.com/maps/contrib/110258177082691471996"">A Google User</a>'], 'photo_reference': 'AUGGfZn6e8vr59VkislUALpU4C25_Rvl0NQ4GjBWq3fAbHjKL8IchgaDADNRGhNlNxiP3g7AuMvwyYN3PTn44A_gVeQEAcTFZCP50t277wklLOLPGeX37HZDudRh5RU2mHq3Wp78KCEDe_kpvhpI4XjX021zn6pN7k8R49HRGBbhW--2bvZ8', 'width': 4032}]",-1.2687354,120.2526009
"283Q+73H, Jl. Tolai-Parigi, Tolai, Kec. Torue, Kabupaten Parigi Moutong, Sulawesi Tengah 94473, Indonesia",Rumah sederhana,ChIJP2by8k9TiS0Rc97UrsJKY_w,5.0,"['campground', 'lodging', 'park', 'point_of_interest', 'establishment']",2.0,"[{'height': 1080, 'html_attributions': ['<a href=""https://maps.google.com/maps/contrib/106752334166576571045"">hendrik bastian</a>'], 'photo_reference': 'AUGGfZlUvwrj7VMH7WaZfB2eN3nAVUQbYe1DO8vTd-bA1EIzWJ1BxJ3jMQyUYXgc9sZd5Kr_3-ZkdrNCe-kbB5JGLFu47r8961wqwNX_aJx8rk72hgHzlIftx2gVGp-K5ov6_BJjgxD-ACyXw1ME2gaa5oYcEskawEsmU_2iHxucpjGtCnN6', 'width': 1920}]",-0.9968179,120.3377426
"282M+VP4, Unnamed Road, Tolai, Torue, Parigi Moutong Regency, Central Sulawesi 94473, Indonesia",Pondok derita,ChIJA8q0SuFTiS0RhTD8jU0YPwg,5.0,"['campground', 'lodging', 'park', 'point_of_interest', 'establishment']",1.0,"[{'height': 1080, 'html_attributions': ['<a href=""https://maps.google.com/maps/contrib/106752334166576571045"">hendrik bastian</a>'], 'photo_reference': 'AUGGfZmTXn4iYzMkf6eoyubczCyhXwmG3GsUEyqwVOWSEtgVfpY09SkO1t2sQT79Y_Kd1XCwW9fOf0CjDYK8By3DMaeShqUIfKfA0vimt1r3N0njVHzN6lpJulCK1Bt4qTCVYFCSKqkgeqHlXCgtJzqvfxSwxwrJMLtB91bX-FVvdl58rO2I', 'width': 1920}]",-0.9978511,120.3343134
"28F8+PJ8, Purwosari, Torue, Parigi Moutong Regency, Central Sulawesi 94473, Indonesia",Kadek Heri,ChIJrz-pJZxRiS0RBxyf5YjfbX8,5.0,"['lodging', 'point_of_interest', 'establishment']",1.0,,-0.9757109,120.316568
"V37V+C34, Bahagia, Palolo, Sigi Regency, Central Sulawesi 94473, Indonesia",Reinaldy mansion,ChIJ999mMJ8DjC0R8ntKPyw4zoM,5.0,"['tourist_attraction', 'point_of_interest', 'establishment']",3.0,,-1.1364924,120.092698
"28RV+7C, Tolai, Torue, Parigi Moutong Regency, Central Sulawesi, Indonesia",Teras Empank,ChIJccDIGwBRiS0REDKcigO7yRo,5.0,"['parking', 'point_of_interest', 'establishment']",1.0,"[{'height': 2400, 'html_attributions': ['<a href=""https://maps.google.com/maps/contrib/106473207673950215559"">A Google User</a>'], 'photo_reference': 'AUGGfZnp0AdWOyXVbvFK_nBlSiuhubBILlQbPkRtoHilTHuPQ-1Z50yl5yuEhqcmokO4uvPj1fkZE2YDwzzWF3Rggx3F_0R9cAgMTA6J8duttJL7nq9VwPBD5g2J-aiRIh4AQJqLMyPI0Bcq-F0E1jMY2HUsdKshtYQTxmm5J_wfUh6XDVmi', 'width': 3200}]",-0.9593143,120.3435137
"Tolai, Torue, Parigi Moutong Regency, Central Sulawesi 94473, Indonesia",Penginapan Jawa Timur Tolai,ChIJv6ZFJAtSiS0Rj_82ogkw0fY,4.0,"['lodging', 'point_of_interest', 'establishment']",44.0,"[{'height': 720, 'html_attributions': ['<a href=""https://maps.google.com/maps/contrib/105121967241747010983"">Asep trey</a>'], 'photo_reference': 'AUGGfZmKiJi-OQX2SosI91Op8Bt2RbwAC9WiW6OJK15Wj2lz-IATFBTYTYx-NOCxtU6X5pDUNEjNuWlLV5y8oiIZM2_AjNboMbfyh-cSMttcoE4ihNpD39L-o_MFK6sTpM58Byo3K_KIiLjkGpjJVpehd8GIR0LAlqhJC38i75E97LhCcPqD', 'width': 1280}]",-0.9957260000000001,120.3401708
"2972+63Q, Lorong 4 Kasih Sari, Tolai, Kec. Torue, Kabupaten Parigi Moutong, Sulawesi Tengah 94473, Indonesia",PURI_ Homestay & Pabrik es,ChIJOXgfRahNiS0RYoA48qiY6_Q,4.9,"['lodging', 'point_of_interest', 'establishment']",12.0,"[{'height': 4032, 'html_attributions': ['<a href=""https://maps.google.com/maps/contrib/115037846344917543014"">Iksan Haris</a>'], 'photo_reference': 'AUGGfZkQzalLiFWT8q5qkONrOPhLFgtJsF2vfBEw7qBtGL5nVrYVipvaK1bjHB7wWKXfniMIVPByTIE1NWO860yPo1jfEx0UHCagKBfkYCQFOmNK220c2DC_wkrAhP6S7H18f5ie6v4QcPdq4WujsfLuhauEIbCzL_tGPtpPvCNzOCQ8oAdP', 'width': 3024}]",-0.9869115,120.3502283
"Jl. Trans Sulawesi No.16, Tolai, Kec. Torue, Kabupaten Parigi Moutong, Sulawesi Tengah 94473, Indonesia",Pertamina,ChIJWYFE0gVSiS0RRYO_aMEfgS0,4.1,"['gas_station', 'point_of_interest', 'establishment']",156.0,"[{'height': 3120, 'html_attributions': ['<a href=""https://maps.google.com/maps/contrib/107934352627854405780"">Arini Pertiwi</a>'], 'photo_reference': 'AUGGfZlfiOEJCwTRjEStiTI6WQkFrAqwieoCbcSZ0f5HJd_NEB8ATELBxtKzmEGiASuKzA3TF5-JbD4JGXideZtiAUAkNyPyewAjRuqHVpcZ_qP2T4MlitCQgraiGplpYSqhP3qnAa-ZhSf6ev3sEgHaELmHqravHd8IjU8UlYvFu3LnTCxy', 'width': 4160}]",-0.9863144,120.3371529
"2CF3+FGJ, Unnamed Rd, Malakosa, Kec. Balinggi, Kabupaten Parigi Moutong, Sulawesi Tengah 94473, Indonesia",Banjar Adat Lembaga Sari,ChIJ72Z19JxOiS0R7h_zazcWP9Y,4.9,"['lodging', 'point_of_interest', 'establishment']",14.0,"[{'height': 4160, 'html_attributions': ['<a href=""https://maps.google.com/maps/contrib/103511379947173490058"">A Google User</a>'], 'photo_reference': 'AUGGfZkYsiRf5XYDaxmbOvKK75OU4p0c8QjUfIYqpTbgJ2_VFYxHcbicsDWQXni2KxR_VOw_MPCCFsU2B_aBTwmEZ0tkImj70x-t7pOjtESQ-29hf7Ad9lV3Zz3L-A-vyBgC63fzITX5gE0fj4ZOJ50EkpYDC46L2a9E6JMZITvPULsSetZs', 'width': 3120}]",-0.9762832999999999,120.4037587
"289P+4JG, Unnamed Road, Tolai, Kec. Torue, Kabupaten Parigi Moutong, Sulawesi Tengah 94473, Indonesia",Rumah shanti,ChIJC5gHo1lTiS0RAZlj0zGop6E,0.0,"['point_of_interest', 'establishment']",0.0,,-0.9821846999999999,120.3365728
