formatted_address,name,photos,place_id,rating,types,user_ratings_total,lat,lng
"MHQ9+RP6, Gilalang, Bacan Barat Utara, South Halmahera Regency, North Maluku, Indonesia",Madodera Island,"[{'height': 3096, 'html_attributions': ['<a href=""https://maps.google.com/maps/contrib/110126431360926440942"">A Google User</a>'], 'photo_reference': 'AUGGfZnu4yLOoPeFwr-JwAlrZsN-AMTBSEQOfwmegrWcjXvoEYmBJW3vW-nMdNKmdqlxPlUqoRSJ6_ePyEnaofHzDamz52dKPJZZf81VD-rytWHM5t20HeV7_2cw-YkasdzrZe4l78XBa-ty8-E8kvZPX3xhQv0aGDtzHdKudtT8GL7Um_QX', 'width': 4128}]",ChIJDcTai2nDYi0R-F4OKK2msZw,3.0,"['tourist_attraction', 'point_of_interest', 'establishment']",1.0,-0.3104729,127.5692625
"JGPC+5H, Geti Baru, Bacan Barat Utara, South Halmahera Regency, North Maluku, Indonesia",geti baru,,ChIJZw9SVgDFYi0RIGOGysMi0Qs,0.0,"['tourist_attraction', 'point_of_interest', 'establishment']",0.0,-0.3416373,127.4937586
"9FFC+PC5, Amasing Kota Barat, Bacan, South Halmahera Regency, North Maluku, Indonesia",PAISU TUTUPA,"[{'height': 2340, 'html_attributions': ['<a href=""https://maps.google.com/maps/contrib/111282692072666665632"">A Google User</a>'], 'photo_reference': 'AUGGfZm_TOUolGCKSt65qwK4jjX4NGZs_oIVYjq8qSoRBwWtO87siP4A1_W_QvMm-i5uIVoIDckYLtrDM0b0IvoFm_1RBAhLzlyl_KHQWnqTf_gxQOm5V_SczkFA4bTwNI8El0Eaiod4SRL-1M2_YmyaAdgfn6naPduNBZ3twLJzRyuVWjIH', 'width': 4160}]",ChIJy9J_T7U7Yy0RS_IzdoV1s9Q,5.0,"['tourist_attraction', 'point_of_interest', 'establishment']",2.0,-0.6267982999999999,127.470928
"9FHM+Q8V, Amasing Kota Utara, Bacan, South Halmahera Regency, North Maluku, Indonesia",Tugu Batu Bacan,,ChIJJTnJ6iU7Yy0RN-a2e_QraJY,0.0,"['tourist_attraction', 'point_of_interest', 'establishment']",0.0,-0.619621,127.4825589
"8FVV+XC4, Papaloang, South Bacan, South Halmahera Regency, North Maluku, Indonesia",Sibalie turuntu,,ChIJLT-4Aes7Yy0RNRJ9MreTE8g,0.0,"['park', 'point_of_interest', 'establishment']",0.0,-0.655123,127.4935729
"FPVW+556, Akeguraci, Oba Tengah, Tidore Kepulauan City, North Maluku, Indonesia",Taman Nasional Aketajawe Lolobata,"[{'height': 652, 'html_attributions': ['<a href=""https://maps.google.com/maps/contrib/112591695577109411671"">To Mutung</a>'], 'photo_reference': 'AUGGfZkwgh1rjuLOZn-GpD3Ce8m3QNwKfpYVC8DzoUDCht4rSURo82VY4UKaeWDxTHSGD2NqCYWO4ficwacLTiNvcpiVEwU8req904iVl1sCRf7QQsO9ZjVMYZDMXN2QFwnFl6uR-x75xAsZlHDC6Q-1lA5ZjMJuwhKDMWTqBMtOtyWU50qF', 'width': 1062}]",ChIJ49KuhEDinDIRruFdskFTORo,4.1,"['park', 'point_of_interest', 'establishment']",11.0,0.4929154999999999,127.7453813
"XF3C+P8, Gamlenge, West Halmahera Regency, North Maluku, Indonesia",Pastofiri,"[{'height': 471, 'html_attributions': ['<a href=""https://maps.google.com/maps/contrib/107150783776886154309"">A Google User</a>'], 'photo_reference': 'AUGGfZnl8oweJWspuNEPqJgSchTpRVf--3gDnvY6N7R3KOk278BWeP5RYc4DXGwSjfYG35g0dKDEA-YQwqy1UBoL79nC3EKdKyeOaCXCsxYmBztMqdr6_JL3mBOzAdtmDKOUEmifR82HcIGoQ39adW7J7m8XvaY1ED2dw0zSFCS-zRUhzvJk', 'width': 665}]",ChIJtaS6FR-nnDIRFp7lryVkIGE,5.0,"['tourist_attraction', 'point_of_interest', 'establishment']",1.0,0.9543706999999998,127.4708613
"9F6J+M33, Labuha, Bacan, South Halmahera Regency, North Maluku, Indonesia",AS Zero Point,"[{'height': 1800, 'html_attributions': ['<a href=""https://maps.google.com/maps/contrib/101712173456122867785"">Asri Senen</a>'], 'photo_reference': 'AUGGfZnhQl1dTk3pxMF933vTl1RbElyEsVMkBgDa3C1jauspPpd5PvpnH1BdGtL2hpFeMrtqcnWd-Criv6lWcnQQiPLsD_0JWOvlP3eYo-8HWizDa2HAI_tPXP1CHbZb4B3WROR6Z8YKQfghzQ0svQbBhBxwwT5ushfd9OANjqj5zGbZYk_r', 'width': 4000}]",ChIJNeIaN2c7Yy0RDRSAwfOGmms,4.4,"['tourist_attraction', 'point_of_interest', 'establishment']",34.0,-0.638323,127.4800512
"7P9C+G8, Bibinoi, Bacan Timur Tengah, South Halmahera Regency, North Maluku, Indonesia",Air Terjun Bibinoi,"[{'height': 4032, 'html_attributions': ['<a href=""https://maps.google.com/maps/contrib/109815904877489448022"">A Google User</a>'], 'photo_reference': 'AUGGfZnDPapdyZogKVJQHejKLFOj2kw2U5tiswbQZ9uC8TQ8eRGMyc3wXfZhdDdRUKVXYwNyi8klH8muBtLcRDQ_U2k9X0ACgCs-dUp91JfP77pzaNBD_VD4i-TF7QEi5XfP8c_RL9lnUU9SW9GkycrRL4jG2G7Litgm9PMdupHAqhirniOn', 'width': 3024}]",ChIJmcXi4aZrYy0Rm5zORw1aMl4,5.0,"['park', 'point_of_interest', 'establishment']",1.0,-0.7311875,127.7208125
"CGM6+28V, Amasing Kali, Bacan, South Halmahera Regency, North Maluku, Indonesia",Dasar laut halmahera selatan,,ChIJ3-znfgAlYy0RKX3IrTVFThM,0.0,"['tourist_attraction', 'point_of_interest', 'establishment']",0.0,-0.5673945,127.5108091
"9JCR+5X5, Babang, Bacan Timur, South Halmahera Regency, North Maluku, Indonesia",Air Toska,"[{'height': 3456, 'html_attributions': ['<a href=""https://maps.google.com/maps/contrib/104510875386109058102"">Nagara Marssy</a>'], 'photo_reference': 'AUGGfZlMGVc7k4aWEUVkfXEXhMH93TfS9Pw0pg-cd9OwCSflS5iRBJcnIZsRBGY9a1FkB_xFUQZCxkdfCUrKNrKRezMe2JzuEZzrbNGxid0B8274Xos0INdT_G_HuRPJxPuiklMCb9FwPp-W3va_XiW-MYknRxjbnqnSKJiYtaJKruzI01qe', 'width': 4608}]",ChIJC9BZCiIXYy0RoXDBsY_XFNk,4.3,"['tourist_attraction', 'point_of_interest', 'establishment']",4.0,-0.6296064,127.6424791
"8MG2+W97, Jl. Lain, Tawa Bacan Tim., Kec. Bacan Tim. Tengah, Kabupaten Halmahera Selatan, Maluku Utara, Indonesia",Pantai Air Panas Tawa,"[{'height': 12000, 'html_attributions': ['<a href=""https://maps.google.com/maps/contrib/103853561119927725617"">A Google User</a>'], 'photo_reference': 'AUGGfZm4qqUs06anYymdsfFUWumgZl-o5blMkgmwYPHU2FZE1wXPyJgI0LjzPZy1YxUhcWKuSoyzaS6ZY75ctHv5oqEJpv55tN-_GzK1dk6U8S8DYoUEnul-BguRQHxsi4d5zzJdXM8dEWTzLij4JYc9Cp3tBdb1EqUzzMfRfye4vArUBMMd', 'width': 9000}]",ChIJTfrnwmcVYy0Rt7nrrcZauBw,4.7,"['tourist_attraction', 'point_of_interest', 'establishment']",19.0,-0.6727117,127.6509216
"5VJF+C63, Pigaraja, Bacan Timur Selatan, South Halmahera Regency, North Maluku, Indonesia",Spot Foto Pigaraja,"[{'height': 4032, 'html_attributions': ['<a href=""https://maps.google.com/maps/contrib/100504296556304730626"">Tika Dahlan</a>'], 'photo_reference': 'AUGGfZnn2o9dJh5zJzkv9U0oSVREhwyCqdHH8WEHB2VACuN90yy5rHjXITq4dQ-V_76Aa0plWkZx0fwEBY0e93IxQcFM1rQ3-_YFZ7QuZdJ-IQ5QfmZ9376xXbyuZXs8BOgw-MnE-aSwf5h9IsdzkIBC95FtCx4zzJuyeegUafjkCEB0kGbM', 'width': 3024}]",ChIJr2bCA1hxYy0Rw4yZ8cZQw90,5.0,"['tourist_attraction', 'point_of_interest', 'establishment']",1.0,-0.8189997,127.873037
"9G3M+64, Marabose, Bacan, South Halmahera Regency, North Maluku, Indonesia",Sungai Atas,"[{'height': 559, 'html_attributions': ['<a href=""https://maps.google.com/maps/contrib/111462656887320537243"">bayu firmn</a>'], 'photo_reference': 'AUGGfZldQyy3hnjjSWuUSOvCN55Fuat-lYRNw5rd9hocXw-8a73h5vDhlsR0Mj8vzIOjwiY6oS8fMgbJyUeN4Xgf0jkRAWWqmATvjDfCCR-Hrq9jMc4spABMEEj426WxUQlHi3-Uj1LceyhWXtZAKRkS-JNEv7FdKM1gJfUmFZNO_9c_miqr', 'width': 1032}]",ChIJyeuYOwA7Yy0RRXOtz0J3KeA,5.0,"['tourist_attraction', 'point_of_interest', 'establishment']",1.0,-0.6469981,127.5327784
"9H2P+457, bacan, Babang, Kec. Bacan Tim., Kabupaten Halmahera Selatan, Maluku Utara, Indonesia",bacan,"[{'height': 2352, 'html_attributions': ['<a href=""https://maps.google.com/maps/contrib/106861935611687708470"">A Google User</a>'], 'photo_reference': 'AUGGfZkoEjqTKfmXo2a6s_kFA8K3sQGmC8Tz8b9VZTd2Bl6ZHBWJY_3FF_YVQP8tEVYd_05IH8THKESI_PMi5vB6NzmJIcJ3gymQsuXvMMfdVZel9Nx36gkvc4jQ6tr7VEToHQc41-_xd2GjYlDSPsft-KC8FvOeBtSxTLlzaqW-NvF4fJGO', 'width': 4160}]",ChIJ8_4c92Y9Yy0RM8GB6xDXw74,4.0,"['campground', 'park', 'lodging', 'point_of_interest', 'establishment']",5.0,-0.6497242,127.5854184
"GJJ4+9MX, Kaireu, Bacan Timur, South Halmahera Regency, North Maluku, Indonesia",AHA majiko,"[{'height': 4160, 'html_attributions': ['<a href=""https://maps.google.com/maps/contrib/104264563701738459782"">A Google User</a>'], 'photo_reference': 'AUGGfZkbYcgfkXFIgYmF03h1Sj7Eq0EovqqvCshteTOEJpoONJ4yLPKSTZ56EPjbw88ZhB4Jyxxw9buvwanG1g5WNRMzUHpkneTlU2h_GpFGKjMs46fqVrLdl-60z6yGBw8lrm69VaETJ-OBy1WSkLV1XFT5oH1PuhKqkQkY99hnzN0nscva', 'width': 3120}]",ChIJA2mJ5ozfYi0RPd1K6YxWZ_s,0.0,"['park', 'point_of_interest', 'establishment']",0.0,-0.4690014,127.6067207
"Kusu Island, Sabatang, Kec. Bacan Tim., Kabupaten Halmahera Selatan, Maluku Utara 00000, Indonesia",Nabucco Spice Island Resort,"[{'height': 1836, 'html_attributions': ['<a href=""https://maps.google.com/maps/contrib/116312058145171811369"">Ismanto Piu</a>'], 'photo_reference': 'AUGGfZnbyb1Batnn7KornznkfDWDHaHTFl5aYBHv46H2RM0wY5d66EkLFPRB3EVHw6GxTuu2d9uh0jAM5AwlsDziihg4fr4DJJeegP-j5Ahfpx1NOepe3_QneJntvSsjRW3-y8UrQlfagYLaVVmk_0uPJLzg1svEn-j96q3sRXYah87XLm_P', 'width': 3264}]",ChIJ60Zh4srfYi0RI1yp7XjvoTo,5.0,"['lodging', 'point_of_interest', 'establishment']",11.0,-0.4528742,127.7027094
"89HW+RXP, JL. Peleri, Samsuma, Makian, Kabupaten Halmahera Selatan, Maluku Utara, Indonesia",gunung kie besi,"[{'height': 2604, 'html_attributions': ['<a href=""https://maps.google.com/maps/contrib/115301835811118566150"">Mufti Aprizan</a>'], 'photo_reference': 'AUGGfZnuhHEVaGY5A5owDOCrH4wPnlNcbIicNYPbav4-rP_ca7m-z8auhzNgsvkjHNUCBN21HRC9p1VBqTkuE8VcjK5pCiTRugkoNLZwd8GJjnbSmiuemG5eh5Obocww-A1cLof2dozCJCsAMc-MVQfcYPVnRhiMdNGvz_3chQzkQNnkGgiV', 'width': 4624}]",ChIJdbYRUFBAABARXnrstNsxsBI,5.0,"['tourist_attraction', 'point_of_interest', 'establishment']",12.0,0.329588,127.397461
"9FFH+J3G, Amasing Kota, Bacan, South Halmahera Regency, North Maluku, Indonesia",Bacan Sultanate Palace,"[{'height': 2322, 'html_attributions': ['<a href=""https://maps.google.com/maps/contrib/114039161114884877603"">r jawa konora jawa konora</a>'], 'photo_reference': 'AUGGfZk4YtyTCVMUNUYoviblxMCca7uuiiQhiMCayrq0ahWjgD0qRiYeZc2Q1sNYFs3-CBa3tC31DPrhZvMuHxHtWmbv8jy7R-0xlDajB_1bOjPyd2RIhdgfw8i8twVN1MOlMUuZXzQftjS7fJaDdJlhSvVKN9TFdcuUhjUaC__8TSKbMSNj', 'width': 4128}]",ChIJg39NNIY6Yy0RQPNbvPI28h0,4.6,"['point_of_interest', 'establishment']",9.0,-0.6259441,127.4777044
"V879+6X9, Jl. Syaikh Muhammad Al-Khidhir, Sulamadaha, Kec. Pulau Ternate, Kota Ternate, Maluku Utara, Indonesia","Pantai Jikomalamo - Kota Ternate, Maluku Utara","[{'height': 720, 'html_attributions': ['<a href=""https://maps.google.com/maps/contrib/113327771602255432259"">Totok Orisa M</a>'], 'photo_reference': 'AUGGfZnwAZjOquRbgqEaJc4GU4AAqArtobRWdxBoGll2Y7dQ82ksTag5exsnuN-XlQh7TFtCT4U5yxViyTNLHnAWEJTWIkAc5v1r6SBnBmroUqV2S_t9DAqEIdBImyR1zZOm1diH4EHxleXg-_wu53sREljaVDt5TE3u4qSMWjg2SPJomzf0', 'width': 1080}]",ChIJARuLaBetnDIRZfjkW10Wszo,4.6,"['tourist_attraction', 'park', 'point_of_interest', 'establishment']",2025.0,0.8630399,127.319987
"X6CP+VVG, Lelei, Kayoa, South Halmahera Regency, North Maluku, Indonesia",Pulau Guraici,"[{'height': 3120, 'html_attributions': ['<a href=""https://maps.google.com/maps/contrib/100535956486563947553"">A Google User</a>'], 'photo_reference': 'AUGGfZn0FAc0yviVV7_otkzEknzbh2GpmD4yNQnbR_zk67EpOG0678xMFWpa-8-bqyqG4FG2s3r0r7ruPhZ2X2kpCSdgvTdndcLlH3fSUQHEFtw6ZNyhrG5PMH5rzaA4VLC9Va8FVhJqx2XYZxwUsO7dIUkfTRhEmgaCKoewD6RoqoHmpjyt', 'width': 4160}]",ChIJFU2vi7RVfS0R4n17Fy72Sgg,4.6,"['tourist_attraction', 'point_of_interest', 'establishment']",28.0,-0.027815,127.2372097
"Jl. Pertamina Tobelo Selatan, Halmahera, Kabupaten Halmahera Utara, Maluku Utara, Indonesia",Kupa Kupa Beach,"[{'height': 4032, 'html_attributions': ['<a href=""https://maps.google.com/maps/contrib/106049507801684984735"">A Google User</a>'], 'photo_reference': 'AUGGfZmsTd0ezWEa_bnp7BJN-E_S-7SmVcpl2no4aqRyyTp3n3_7zdguVmDONTpC-Tq90Ytpvu2G1pEnmY0Ec35eYXJbGt80gU_jSiYHB75F-uby2qIM_Kq5NafWNZ4-hxhDNQWE4wceON1lFneXraSoH5qAJlWlsK9jNH6iiMcf7v3MFs37', 'width': 3024}]",ChIJIzJSAq5YmjIRFkdFDN_WiRI,4.4,"['lodging', 'point_of_interest', 'establishment']",107.0,1.624343,127.995136
"PT Salibay Resort, Dusun Kalero Desa Sali Kec. Bacan Timur Kab. Halmahera Selatan, Maluku Utara, Sali kecil, Maluku Utara, Indonesia",Sali Bay Resort,"[{'height': 3000, 'html_attributions': ['<a href=""https://maps.google.com/maps/contrib/116312058145171811369"">Ichink Piu</a>'], 'photo_reference': 'AUGGfZlzIVsY5sNmXBfckBAiCHPGmx-5bFzuX9T9hleyIOF3aYR6FQHA4jsoxzpN-7E4FMiBZl3aHOOs1GTdIVx4cmQxhniojWYFZuraMdy6aUx2_qqxJB8LeKuiSN_emkmlr1L2z_YXajZRSQF4Hi9tBOFu1yf8BQbnnbc8SfeHvpnru7C1', 'width': 4000}]",ChIJY0PGx-vjYi0RCMy6rcAcCEs,4.8,"['lodging', 'school', 'point_of_interest', 'establishment']",24.0,-0.428354,127.740925
"FVP5+MV, Pulau, Central Halmahera Regency, North Maluku, Indonesia",Pasir Timbul Bucili,"[{'height': 1040, 'html_attributions': ['<a href=""https://maps.google.com/maps/contrib/114797347065972912373"">A Google User</a>'], 'photo_reference': 'AUGGfZnTiQho6xj_Ns-v468Ea2IKDkth8KB5_NZOH25KYNwFPpcuRKXiRFCkFqMgcgTXBILl4G8RgFD4fkEWJi4APGdYd6KwuUjCYThBKZTV_eKhrm1p3ZhCZ3YfkHzXwhFNylN4_dbRn3qS4_-Mx849WRT2mS2dcKfz5hH1GB_QKOBdyYf1', 'width': 780}]",ChIJe_AYRgCJnjIRVEOgerpcptI,5.0,"['tourist_attraction', 'point_of_interest', 'establishment']",2.0,0.4866354,128.8596581
"F56P+7X, Waleh, Weda Utara, Central Halmahera Regency, North Maluku, Indonesia",Koka,"[{'height': 3024, 'html_attributions': ['<a href=""https://maps.google.com/maps/contrib/111898829799959229160"">mr. B13</a>'], 'photo_reference': 'AUGGfZlU-An0tI8jvBbbvmQxp_8ALXUwSIClTQJP3hWmuyKeymV5RXB47s87Yqxxxkb4p4bVUppiO93xBK-etl6Pf8fOcbNKBIKAVWO5er9nq2M8e2zClHkMJO3jdsHjf-PFVQiwTnidomo7iCHo_1_wOUvRbET7USZpfubqhD-XNZHuYC7B', 'width': 4032}]",ChIJb6z8B0aznTIROO_aYHSKpdU,4.2,"['tourist_attraction', 'point_of_interest', 'establishment']",5.0,0.4631662,128.1878633
"Lelilef Waibulan, Weda Tengah, Central Halmahera Regency, North Maluku, Indonesia",Gua Tabalik (mr. mambrasar),"[{'height': 3840, 'html_attributions': ['<a href=""https://maps.google.com/maps/contrib/108026770093983549510"">A Google User</a>'], 'photo_reference': 'AUGGfZnwTX9056wVu8laHuXhhS_hLiO3R02mWffjs1vSf6cCrQDIRjRCPL6B71beB2XR_HmYoCpXx6769ThC2VGhrUDPAIuJGTUj0yNmJD5rbpD-hIvAGiGo4zXGHI6brT1lVLAgZGMCR_-fK6jyjOB81e9YdgiwPgvF9Hm8T7bz2gLM9PQe', 'width': 2160}]",ChIJlV5OxEMDnTIRqN5KhRB05Ic,4.8,"['tourist_attraction', 'point_of_interest', 'establishment']",4.0,0.4669008000000001,127.8795576
"8VJ7+5VP, Jl. Trans Halmahera, Nurweda, Kec. Weda, Kabupaten Halmahera Tengah, Maluku Utara, Indonesia",D'GACO Campground,"[{'height': 4160, 'html_attributions': ['<a href=""https://maps.google.com/maps/contrib/102922752565974106679"">A Google User</a>'], 'photo_reference': 'AUGGfZktlMyFwYfbJknn8ogay7O8_UMhNSE89YGz8PiJHmGqvidYGofavIiAkQcA0Z86tVmK6L51s3vzHWBBKDMdUWGtYXg1B-sQ-B4w6-w8kO25-rCadJq4cj8icGBeK-PGTTAXwld47gAycZwmxoWQHd5hAWB4GPf1nHCKMuG4DjavFi4t', 'width': 3120}]",ChIJf5aLeRwPnTIRwNnYU0xGmNY,0.0,"['tourist_attraction', 'point_of_interest', 'establishment']",0.0,0.3304513,127.8646986
"5VWH+QQ, Lembah Asri, Weda Selatan, Central Halmahera Regency, North Maluku, Indonesia",persawahan LA,,ChIJ61EZIgBznTIRjcR9uV-a_NA,0.0,"['tourist_attraction', 'point_of_interest', 'establishment']",0.0,0.1969539,127.8794103
"HR2H+FM, Pulau, Sayafi, Central Halmahera Regency, North Maluku, Indonesia",Yon Sigawale,,ChIJ0UAdHgCPnjIRtIqBHnhjt1M,5.0,"['tourist_attraction', 'point_of_interest', 'establishment']",1.0,0.5511874999999999,128.8291875
"8PFV+78H, Tepeleo Batu Dua, Patani Utara, Central Halmahera Regency, North Maluku, Indonesia",Wisata Batu Dua Tepeleo,,ChIJf64xPABxnjIR8AVOLB6LmCE,3.0,"['tourist_attraction', 'point_of_interest', 'establishment']",1.0,0.3231793,128.7433609
"F3H8+4MR, Sagea, Weda, Central Halmahera Regency, North Maluku, Indonesia",Puncak Kawinet Halmahera Tengah,"[{'height': 4160, 'html_attributions': ['<a href=""https://maps.google.com/maps/contrib/110885415926441394829"">A Google User</a>'], 'photo_reference': 'AUGGfZkoNZfV6ZL9nQs8kJRXQNnPXL1HKwYuuq4J_Xsft7sBo1TUEWAQhfo13UNECvTsL-HLb06Q0I-3oJBm8WblRc1GmsOceQRDzGN-hi-9A_4gkZSDvUnJhIuZe1w6O8CuQCD5b_PQbYqhJGz3A8al9Hqz9l5Nba-lTxApaa8ib0gjjZ1K', 'width': 3120}]",ChIJRbpggsJTnDIRKnGZlG4v1NM,5.0,"['tourist_attraction', 'point_of_interest', 'establishment']",10.0,0.4778638,128.0666479
"5V5F+WWJ, Wairoro Indah, Weda Selatan, Central Halmahera Regency, North Maluku, Indonesia",Kebun cabai keriting mas kenyut (mas dwi),,ChIJZwiMCwBxnTIRTnsJqSnLe-8,0.0,"['tourist_attraction', 'point_of_interest', 'establishment']",0.0,0.1598497,127.8747647
"FVQ6+F38, Pulau, Central Halmahera Regency, North Maluku, Indonesia",Pasir Timbul Pulau Sayafi,"[{'height': 2592, 'html_attributions': ['<a href=""https://maps.google.com/maps/contrib/103188625822910296420"">Dede Fachmi</a>'], 'photo_reference': 'AUGGfZlyVlxxQCq4YXixgbt_witmKr9ynwTdrxm01ge9rpi5qaIBvCbgCLpkrY-_HCa11GSMXRuD4v_AVf_PC9jRR0x-SsCpEJs4IbZ56KCHDivYt9tgJJhxVotjyvqrz4mESfNhaae-WWxNcQrTO83tO9zFg4uo1UEkYIvmvZkj71ZU2oVr', 'width': 4608}]",ChIJSfMMSIaJnjIRjCs5-f-B6Is,4.3,"['tourist_attraction', 'point_of_interest', 'establishment']",6.0,0.488657,128.8601952
"F4R2+X9F, Sagea, Weda Utara, Central Halmahera Regency, North Maluku, Indonesia",Bokimoruru Cave,"[{'height': 1080, 'html_attributions': ['<a href=""https://maps.google.com/maps/contrib/100886538300350474650"">hendra poerwita</a>'], 'photo_reference': 'AUGGfZl-8DkSaGAnRFklCQDBYVGrArCo3sjjfIPNOdAXlBubfAttfQiuMD74zdTuWLmNTAT2HW2X9h6DgPdyRj6mzOChJ4ZWBCd1jfWmRcSa3rHlSLoP8HfRuVE3ugJca0rvcf0SndJnOuESU7O61qItEb0g3KvgtoEQXKbZYovY4qXD3IiE', 'width': 1920}]",ChIJw841yR5TnDIRn-tGvsjev9s,4.5,"['tourist_attraction', 'point_of_interest', 'establishment']",46.0,0.4924481000000001,128.1009322
"FV89+MM7, Pulau Luwo, Pulau, Kec. Patani Utara, Kabupaten Halmahera Tengah, Maluku Utara, Indonesia",Pasir timbul Pulau Luwo,,ChIJKwSqonhjnjIRr-fNBo9Y-S4,5.0,"['tourist_attraction', 'point_of_interest', 'establishment']",1.0,0.4666667,128.8691667
"292G+2G, Kapaleo, Pulau Gebe, Central Halmahera Regency, North Maluku 98481, Indonesia",Equator Gebe Island,,ChIJL8YS77zVnzIRclc2CP-2pEE,5.0,"['tourist_attraction', 'point_of_interest', 'establishment']",2.0,1.14e-05,129.3763743
"HR85+68, Pulau, Central Halmahera Regency, North Maluku, Indonesia",Tanjung Pajilawa,,ChIJ6_UYIgCFnjIRAjjmqVTbPd8,5.0,"['tourist_attraction', 'point_of_interest', 'establishment']",1.0,0.5655336,128.8083686
"FV9F+WJ7, Lelilef Waibulan, Weda Tengah, Central Halmahera Regency, North Maluku, Indonesia",Rahasia Air Terjun Tabalik,"[{'height': 3120, 'html_attributions': ['<a href=""https://maps.google.com/maps/contrib/113848006843527551630"">A Google User</a>'], 'photo_reference': 'AUGGfZmJDF4FFSE3eB8jftMSAECpIbs_KA_OmGzI-OTze3xmZN6HpZJr-erNXdlZfZCkfswYGRvIHKOLAjpfEV_3uX_F4Ie_T4HrbyTviXFmdtI0DZwuqEODGqwlrweegFWTPra9ceJ1nNpyhu2qaotCi55A6zQyvlEWB2pzXxt9kQI27J8Q', 'width': 4160}]",ChIJYZyWXpIDnTIRwWW8iOpp2S0,4.0,"['tourist_attraction', 'point_of_interest', 'establishment']",5.0,0.4697822999999999,127.8740489
"8H95+7J6, Bar., Bobane Jaya, Kec. Patani Bar., Kabupaten Halmahera Tengah, Maluku Utara, Indonesia",Tanjung Remdi,"[{'height': 1970, 'html_attributions': ['<a href=""https://maps.google.com/maps/contrib/100380431322155989970"">A Google User</a>'], 'photo_reference': 'AUGGfZmaXSqUOBqY_UsJIasemsq1HURlTK6McUW0dCHTjB3G8ZQCoiBHpFYb9VN7sstgGb2WgSmtjOHFwjpgXGEV7oA2OBImdvdYx3q5BetoKfYpN7m3pdiDJdR4LFOJxkoiZfYEr-eeEodY_9exDMRPXu3LF9nj5j9NH4LugmHs6DIl2b89', 'width': 4160}]",ChIJB2CJ5tHbnTIREsEdY3yTvfQ,4.7,"['tourist_attraction', 'point_of_interest', 'establishment']",7.0,0.3181586,128.5590184
"CJ9R+6XH, Peniti, Patani Utara, Central Halmahera Regency, North Maluku, Indonesia",Patani timur,"[{'height': 2448, 'html_attributions': ['<a href=""https://maps.google.com/maps/contrib/106014545948638618889"">A Google User</a>'], 'photo_reference': 'AUGGfZmP1yQvwNXfhL3XHMC1GZoppDtpV4-d1Bb07VeFTFqH_DHV5HaGj2gK7wENr3s33EMdQU3RuyEzCJh14BNZn-8wC_YIHeO-SHvlEwNKgCLfv9p5tQpL8ETe8bb_F3sQeguhRWEycAlMN_fJXDnAbnMm51mWnSSsCZso2WIKbWdmqFJe', 'width': 3264}]",ChIJeXHypZXVnTIROb87h_GKwb8,5.0,"['tourist_attraction', 'point_of_interest', 'establishment']",2.0,0.4180545,128.6424972
"F4R2+X89, Sagea, Weda Utara, Central Halmahera Regency, North Maluku, Indonesia",Geopark Boki Maruru,"[{'height': 1080, 'html_attributions': ['<a href=""https://maps.google.com/maps/contrib/100886538300350474650"">hendra poerwita</a>'], 'photo_reference': 'AUGGfZk2B7NcYZ0XzLtNRs9pCqTTpnFRbUlBO2aw5RmaG2t2fs94KSh52mL4ipf7OToWskgI04Qj61nYm2DAcEvKbK2YBn74_MOZkw5ZCVn_c2I-OjPP3bdKt6SbA34qhIO8moAQqeAVwUHIpU36kf_LF7tQXboSFp5fDm1OGF8DF4xJzlrU', 'width': 1920}]",ChIJdf_wTNNTnDIRVycuZaHDXAA,4.8,"['tourist_attraction', 'point_of_interest', 'establishment']",6.0,0.4924193000000001,128.1008572
"6WX7+5R, Loleo, Weda Selatan, Central Halmahera Regency, North Maluku, Indonesia",Tanjung Kalero,"[{'height': 3000, 'html_attributions': ['<a href=""https://maps.google.com/maps/contrib/115077434172676040753"">A Google User</a>'], 'photo_reference': 'AUGGfZmaWmuiAvvUkyn_k2-ClrJj8DlenQspMnIRD4IMbckpUeZ9j3XOBgX2haehRfAkkAFmQfP2GxkZ3FFli6_mhg0BsCOoTKUlZQ_ww7_z3mpIy3W5HfDUaMoSN9a3FfYci4P1wfJYOTk1ghoRNtx2GWS-tkgnYZ9EadzkNhuJ5Acmnoj5', 'width': 4000}]",ChIJgV_IJgALnTIR5WKNUljr4No,3.7,"['tourist_attraction', 'point_of_interest', 'establishment']",3.0,0.2478775999999999,127.9146126
"CWX2+8GH, Lelilef Waibulan, Weda Tengah, Central Halmahera Regency, North Maluku, Indonesia",Tanah Tan Giok Soe,,ChIJtRc2CgABnTIR0u1ARpyILF0,0.0,"['tourist_attraction', 'point_of_interest', 'establishment']",0.0,0.4483065,127.9013735
"7VVJ+H8F, Unnamed Road, Nusliko, Kec. Weda, Kabupaten Halmahera Tengah, Maluku Utara, Indonesia",Pantai Nusliko,"[{'height': 1536, 'html_attributions': ['<a href=""https://maps.google.com/maps/contrib/110250386436689320637"">Muhammad Yusuf</a>'], 'photo_reference': 'AUGGfZlr8zMTQPmNuJ47HTcs6xxL5qFCMiOOYImbht6t6IiSJk_qc86sXEU62Vfp1DFcMmtRxIZ90ghf_LiOLU1BamMJvzJqaMRIy96lgfviC1eXeEz5raLAtTGId8SUgHkyrTOQsE4tSKFDpEISWeRqOzyqYbEgbEwZ4mX5qmhq1d0tdAJW', 'width': 2048}]",ChIJc4KjGt4NnTIR7cCFbvQfzTA,4.6,"['tourist_attraction', 'point_of_interest', 'establishment']",18.0,0.2939286,127.8808104
"F3M8+8MM Danau Sagea, Sagea, Kec. Weda Utara, Kabupaten Halmahera Tengah, Maluku Utara, Indonesia",Sagea Lake,"[{'height': 3000, 'html_attributions': ['<a href=""https://maps.google.com/maps/contrib/112199022979218139275"">Margareta Zheng</a>'], 'photo_reference': 'AUGGfZm5gsc6NotVT1yRP5lvZTeP2vNbxgQsM-z7fkj8QpP9FrTBYqeR_-0wcwbiyxR6-7exychJHJH5smMojOJkBBdqk71m_qDVW7zu9mJu8XpEMI60y1_XAiRCJiNkELucetkdcj5gcddU7Y1lnCii_agLkvuXafhbN5v7d-G_rZj2b30I', 'width': 4000}]",ChIJQ2FM31hTnDIRguOAmeyZ7Uw,3.8,"['tourist_attraction', 'point_of_interest', 'establishment']",5.0,0.4833333,128.0666667
"HR25+H4, Pulau, Sayafi, Central Halmahera Regency, North Maluku, Indonesia",Biawsowo,,ChIJC9LpDQCFnjIRCf83tfIN4n4,5.0,"['tourist_attraction', 'point_of_interest', 'establishment']",2.0,0.5514375,128.8078125
"5WXF+GV, Wailegi, Central Halmahera Regency, North Maluku, Indonesia",Batu Dua Pulau Moor,"[{'height': 1280, 'html_attributions': ['<a href=""https://maps.google.com/maps/contrib/104466921148647818428"">Canny Patani</a>'], 'photo_reference': 'AUGGfZmcPc001zFi52Fzo4z7_Gz8RQKjRhuZQZ6ZYzOaD-C2gxoEexR97ROtQv5h4D98eAsjuGZ7sv84MOvAggirgGuJWtrP9Xv1iqQFleTv38Pyhwz85vYOh_OlPD3K7DiIi6t5uxvWF-Wn8eN7kTIH3f7OH5NyvK2F45A1p3qJ8udIxwF3', 'width': 960}]",ChIJGTqFHVEVnjIR6PhuuduvpfI,5.0,"['tourist_attraction', 'point_of_interest', 'establishment']",1.0,0.1987503,128.9247252
"GRFX+F6, Pulau, Patani Utara, Central Halmahera Regency, North Maluku, Indonesia",Silotilo,"[{'height': 1920, 'html_attributions': ['<a href=""https://maps.google.com/maps/contrib/110968264730338711586"">A Google User</a>'], 'photo_reference': 'AUGGfZntr7OU9ObZCoUjTRhfH0ez3_z9Q93b55pPglbPno2qjzI_-ZeFemraj28tBEjIi4P_g2fJz5EeI7K_KIAgjEvHQStR8cf0VK0HZJdx3xF2B8HuQaXdVPzcjqiH7lpOoUEgagAmdFpyGnVfc-Pf5R9NbRzg1XSERTGX-oEsOoquqkA', 'width': 1080}]",ChIJq9D0UQCJnjIRZxsFGUJUpR8,5.0,"['tourist_attraction', 'point_of_interest', 'establishment']",1.0,0.523679,128.848106
"8H9J+G37, Bobane Indah, Patani Barat, Central Halmahera Regency, North Maluku, Indonesia",Pantai Wobli,"[{'height': 1840, 'html_attributions': ['<a href=""https://maps.google.com/maps/contrib/105804344428879350604"">A Google User</a>'], 'photo_reference': 'AUGGfZnhu4tMsx_3JO5meW1A2vv31AVEdkb0sSqMyI0qRGip2d0NT_NU1XmJBt71U2fvUk1-r30UKkF3nsS2kS04UWBD1Sucp34k9mqZbPCll7uPg4BwmdCNtC9fp3WICTj2q278fA5kUdzmaubbtSAQ3fUu1uqrD7UL31QB3_lm5P2Xg8eA', 'width': 4080}]",ChIJkRRKbADZnTIR07YXTCqsKS4,5.0,"['tourist_attraction', 'point_of_interest', 'establishment']",1.0,0.3187786,128.5801679
"CPVM+4VF, Koli, Oba, Tidore Kepulauan City, North Maluku, Indonesia",Bendungan Tayawi,"[{'height': 6936, 'html_attributions': ['<a href=""https://maps.google.com/maps/contrib/117868387798117824338"">Gusmir Jammy</a>'], 'photo_reference': 'AUGGfZmFToEwPXG1B5ZQd3NRV8Hh6X1Qn8obBF37Zk8qTsY0qJ7cr2wqJm0W_snXFtdlW5sJy6RPCSi_gP5Irqn9bZb7QkUan7lSiBtgdl_gXQQX_dexzbNBCJJgA8A_XreNyjdMxsq24oXwh5e-Rv5Q2KAX67QNHxKENYiBdCe5Hm7EpwZM', 'width': 9248}]",ChIJb4udCzIcnTIRspRbnQmySUU,3.6,"['tourist_attraction', 'point_of_interest', 'establishment']",10.0,0.4428139,127.7346743
"8RP7+3F, Nurweda, Weda, Central Halmahera Regency, North Maluku, Indonesia",Kaliurang - Agro Pala,"[{'height': 500, 'html_attributions': ['<a href=""https://maps.google.com/maps/contrib/115778470390210904711"">A Google User</a>'], 'photo_reference': 'AUGGfZnk05RFcHMWVU31-uq7Tl6eyFBwSde77Eg2U7-WbzmA4YFtJPRwpDTPphfeHnFmFFTTe1aNwl-m2TgqdQpCKAaPVj2tkM-i0Cv6lxHXQs69qcQqlp_ykLi25sfTYH6msM-TG-VJeFRQFx5Y0zoSNAdfBGuY3ZenJmz8X_x229nwVPBc', 'width': 750}]",ChIJIURVfQAPnTIRYFfzPNrzJ4Q,4.0,"['tourist_attraction', 'point_of_interest', 'establishment']",1.0,0.3352028,127.8137495
"9CHQ+R7R, Dotte, Central Halmahera Regency, North Maluku, Indonesia",Sigelet samlowos,"[{'height': 1840, 'html_attributions': ['<a href=""https://maps.google.com/maps/contrib/105804344428879350604"">A Google User</a>'], 'photo_reference': 'AUGGfZloulVpTUqjSX9MXIhCpSwB--B-1tn_8SXI4PmConIEEYes_McKRxvPUxTxeNSn3Mfd_ujK9kLkofBO02pnkTBuUfq6ecfYua5cSHlruy2OPvnL6bQ6yGsqsbT2jHZgGeHjW5V1V6qPmJbgennVKh2rOOkjZP8ix3M8-aSeqDZKYm8L', 'width': 4080}]",ChIJBS5lg23PnTIRVS9HWgP_LbU,5.0,"['tourist_attraction', 'point_of_interest', 'establishment']",3.0,0.3796096,128.4381376
"F3QX+MR, Sagea, Weda Utara, Central Halmahera Regency, North Maluku, Indonesia",Wisata Goa Bokimoruru,"[{'height': 1350, 'html_attributions': ['<a href=""https://maps.google.com/maps/contrib/113925299489307401325"">nanang a.r fauzi</a>'], 'photo_reference': 'AUGGfZmYV6CawyJecYyy3ziLiJxUTwOUHQ6L5P2XHYwwcojDmV2RgdaBP3bBYxmzJ7VOGGZm7mlvv-WJEQe4jozJG9JGoAsQqcj96RnvlU0hdjsJrkgJX3eKxXDOD_F-i6SSLsfjNO-eUYXjRWSudRWg2Kk2KmV8mPhPEhVDXUN3Wpkqn-V7', 'width': 1080}]",ChIJB8QUVgBTnDIR0srqXbYyB0s,5.0,"['tourist_attraction', 'point_of_interest', 'establishment']",1.0,0.4892487999999999,128.0995506
"GV92+R3, Pulau, Patani Utara, Central Halmahera Regency, North Maluku, Indonesia",Sowlo Lol,,ChIJRzSZMwCJnjIRGIfgBBR1RBI,5.0,"['tourist_attraction', 'point_of_interest', 'establishment']",1.0,0.5196233,128.8501755
"CPRQ+PWR, Koli, Oba, Tidore Kepulauan City, North Maluku, Indonesia",Resort Tayawi,"[{'height': 3000, 'html_attributions': ['<a href=""https://maps.google.com/maps/contrib/100975895573868409280"">A Google User</a>'], 'photo_reference': 'AUGGfZlWTjXX_lbTVtzpDd2z6iFACmZ04ipR97l09utnLBqWFsI34JkIzyUCk_WedXq75Et-2PetJNkfbwjehhNzwP7X2VR7t7a9LpWfe11pLWK7iFmPJvGxcUP9-YV2OVKMBlM3Salq017fyMBwYD4dQblDR-ooPbd6x-AF6fh0QVbo0SsQ', 'width': 4000}]",ChIJY27YqjYcnTIRirmGL3Qw4zo,4.6,"['tourist_attraction', 'park', 'point_of_interest', 'establishment']",25.0,0.4418513000000001,127.7397618
"8VQV+6M, Sidanga, Kabupaten Halmahera Tengah, Maluku Utara, Indonesia",PULAU YEVI,"[{'height': 3264, 'html_attributions': ['<a href=""https://maps.google.com/maps/contrib/109573688771585535090"">A Google User</a>'], 'photo_reference': 'AUGGfZnUNTHsCLzQEGNNytsiHElPEg4BbqgEX6pivgo7fN72heEj_iWnx7Bu65nryCr57TyTUvZkU2KxCmmvsNDCOcsrMLuVideIQhnq9nB3ir_9ZF_5J1xdoP0Onei0NMdOcJZR5WIuzYpy6qnKORhw2gtfCPRDOjxBOcMpzX1mJUQHD2LD', 'width': 2448}]",ChIJafpE8a8JnTIRw_tNsR90XDM,4.0,"['tourist_attraction', 'point_of_interest', 'establishment']",1.0,0.3380389,127.8941812
"V7PC+283, Buli, Maba, East Halmahera Regency, North Maluku, Indonesia",Tongata Jungle,"[{'height': 576, 'html_attributions': ['<a href=""https://maps.google.com/maps/contrib/118222546756267216352"">A Google User</a>'], 'photo_reference': 'AUGGfZlwCuKnZSt8pIlkoLV7k43WxEWJhVsGA44zNb1AF9nGG5RL49xKoeniizKCRnQLunbQrMOXvP7MTumLY5zN8kbJ_dYlYfcR8vEGXLELG2uPeCHw46u0pm9byyouRodF5gKqnue2yj5Ck2xfs8aoAvb7f_qqYwYb0huiLwiwkEF84wsF', 'width': 1280}]",ChIJyzKbV8NznDIRttAkzjUMesc,4.6,"['tourist_attraction', 'point_of_interest', 'establishment']",5.0,0.8850102999999999,128.2708043
"Kusu Sinopa, Oba, Tidore Kepulauan City, North Maluku, Indonesia",Air terjun sigela,"[{'height': 1920, 'html_attributions': ['<a href=""https://maps.google.com/maps/contrib/103524478496565336492"">Chinox Cholter</a>'], 'photo_reference': 'AUGGfZn56YBi0sLet4HfxFX--HfIcQ8m7CGVL6Pzch2cHKwSlfVjkXVZmZWMZgOos_E3aZXYDNhLADnrW0lUpuaQhZoCUCOCZjUcsbUw-ogOdOJlFPWhKcX_2hr4tf_gmvk9WixzqVWXs2n3cuy9rDm4amUg476M1y5JIpg4C_jGRI-Mm_3F', 'width': 2283}]",ChIJbbrz_i9tnTIRNALYdfDIvkY,4.5,"['tourist_attraction', 'point_of_interest', 'establishment']",2.0,0.2220308,127.745028
"GRGR+X65, Lelilef Waibulan, Weda Tengah, Central Halmahera Regency, North Maluku, Indonesia",Bukit pelangi limber west,"[{'height': 3120, 'html_attributions': ['<a href=""https://maps.google.com/maps/contrib/116045953372471884712"">fenky martoni</a>'], 'photo_reference': 'AUGGfZmOhUVkOloX0wEw8Onsz4tjloWyFgIwVb--Yzct6fIsCHohgx4y1B1dfMQyO2BRf7N9m1N67HPGignyyW82pMwBTW0qRi8prqxzgADsfyrfl1z0TBhmmdDr2pxKS5W3ise2Ios1V6a8W_vIKDT1KOrI5H_9snPpxo_469ivK2OTY6p0', 'width': 4160}]",ChIJG8iZP1D9nDIRYzRsbKyJgQ8,0.0,"['tourist_attraction', 'point_of_interest', 'establishment']",0.0,0.5273981999999999,127.840618
"Binagara, South Wasile, East Halmahera Regency, North Maluku, Indonesia",Telaga Binagara,"[{'height': 447, 'html_attributions': ['<a href=""https://maps.google.com/maps/contrib/117977072303546929571"">Dwi Wahyudi</a>'], 'photo_reference': 'AUGGfZmQQ98Hn3JlPkc4gTRQ8ImlcKg_vwSODSQqVtG9ArLLclxJ08HYDuhD9w-Cw_F7Q0fJnLN7cWIzCQEHewCBht0OZ9ygMZLJFZQc-rX6mn1pwGpDPh-dbnFWxo1ciB2SqTKnxKRrh8ZlzFiw2Hsq2uMR6Vd33ESisEJlelHI-nxf5Yon', 'width': 640}]",ChIJ7XB3v_aNnDIRixraSQ0wXVs,4.3,"['tourist_attraction', 'point_of_interest', 'establishment']",3.0,0.7654624999999999,127.8129292
"C6G2+VH, Waleh, Weda Utara, Central Halmahera Regency, North Maluku, Indonesia",Tanjung Bayli kota peto,,ChIJ7_JdMwCznTIRIzL5Z0myztk,0.0,"['tourist_attraction', 'point_of_interest', 'establishment']",0.0,0.4271875,128.2014375
"3MVP+CM, Wama, Tidore Kepulauan City, North Maluku, Indonesia",Rep Timbul Desa Wama,,ChIJbXlIQCpnnTIRpAiFzFkN4wU,5.0,"['tourist_attraction', 'point_of_interest', 'establishment']",1.0,0.09361140000000001,127.6867308
"GRGR+X65, Lelilef Waibulan, Weda Tengah, Central Halmahera Regency, North Maluku, Indonesia",Taman Water Boom woya miding,,ChIJK2vbIAD9nDIR3_szOwqqte0,0.0,"['tourist_attraction', 'point_of_interest', 'establishment']",0.0,0.5273981999999999,127.840618
"GVGP+G6P, Kobe, Weda Tengah, Central Halmahera Regency, North Maluku, Indonesia",Waterpark lukulamo,,ChIJsYn-DgD9nDIRHx0L772KnbU,0.0,"['tourist_attraction', 'point_of_interest', 'establishment']",0.0,0.5258746,127.88575
"Km 20, Desa Wedana, Kec. Weda, Kabupaten Halmahera Tengah, Indonesia",Agrowisata Buah KM 20,,ChIJv-6yDAAPnTIRImY2JD7kEA8,0.0,"['tourist_attraction', 'point_of_interest', 'establishment']",0.0,0.3308151,127.8620524
"WJJR+V7G Ju Island, Umiyal, Pulau Gebe, Central Halmahera Regency, North Maluku 98481, Indonesia",Tanjung Ubitoz,,ChIJ6V_E1ZsjYC0RtiyFvrffd-c,0.0,"['tourist_attraction', 'point_of_interest', 'establishment']",0.0,-0.0678148,129.640713
"FR73+RC, Sawai Itepo, Weda Tengah, Central Halmahera Regency, North Maluku, Indonesia",Gowenli,,ChIJ_T34A6IdnTIRuzkMHuiYigk,0.0,"['tourist_attraction', 'point_of_interest', 'establishment']",0.0,0.4645113,127.8035752
"F3MW+W46, Sagea, Weda Utara, Central Halmahera Regency, North Maluku, Indonesia",Sageyen Riverside,"[{'height': 4160, 'html_attributions': ['<a href=""https://maps.google.com/maps/contrib/117597200492865560008"">A Google User</a>'], 'photo_reference': 'AUGGfZliwejpej8hJk2dVlVtv9ezdp0t8GRRiJyi4xwRf2QoVx6B6NHsAGWf0CTd-I-ubRlhyVoe0-x-Wn0Z1nx1Inoq-DatwTgEa2mcFYKdxvHADf6gFlDqLo2v8jFCyHU8FNlXjnD38qhniLi689sQ0tphEzQObYFR3qazZlqKHk2ps-33', 'width': 1872}]",ChIJ4bpbIQBTnDIRw2amN54n-Ck,0.0,"['tourist_attraction', 'point_of_interest', 'establishment']",0.0,0.4847851,128.0952534
"8VWQ+2JM, Weda, Central Halmahera Regency, North Maluku, Indonesia",Pulau Jasmine,,ChIJZ5cUHwAPnTIREcRY29_nTCw,0.0,"['tourist_attraction', 'point_of_interest', 'establishment']",0.0,0.3450866,127.8890334
"MQPX+F3, Pulau, Kabupaten Halmahera Tengah, Maluku Utara, Indonesia",Rep blkng P. Oto,,ChIJ2aprjDGZnjIRvdUXTQKrFEU,0.0,"['tourist_attraction', 'point_of_interest', 'establishment']",0.0,0.6861600999999999,128.7976699
"M895+24, Soa Gimalaha, Kota Maba, East Halmahera Regency, North Maluku, Indonesia",Wisata Mangrove dan Penangkaran Kepiting Bakau,"[{'height': 3456, 'html_attributions': ['<a href=""https://maps.google.com/maps/contrib/107919737115184468362"">A Google User</a>'], 'photo_reference': 'AUGGfZlN-PMT5lAizPdbNS8Al3tM13BR0AN_rMTMvulb3GhUw-4N-W_IqjPDuAGx3dZU59FRuRTV3ZJ0eKSOXoCT27sHgfPcRmezyWDnRsR8hKqngUDE-Qp6bkiU98ygqseBX9rmyujSpyIlzBTgEuoU84eAKmXc5ClB4L_WwiyEdd6wUsgJ', 'width': 4608}]",ChIJS5EDVy9BnDIR6LjJFoG1nfQ,1.0,"['tourist_attraction', 'point_of_interest', 'establishment']",1.0,0.667605,128.307811
"4W4C+H3, Waimili, South Halmahera Regency, North Maluku, Indonesia",Pantai Gegemyasi,,ChIJdWUX1hN5nTIRByo7W-nBecE,0.0,"['tourist_attraction', 'point_of_interest', 'establishment']",0.0,0.10639,127.9201917
"P7R3+H7, Wailukum, Kota Maba, East Halmahera Regency, North Maluku, Indonesia",Batu Susun Wailukum,"[{'height': 4160, 'html_attributions': ['<a href=""https://maps.google.com/maps/contrib/112668561472411816452"">A Google User</a>'], 'photo_reference': 'AUGGfZmVuLrXTem6ngqA3c6gJJ94vUnsA9kpdDrVBaW-2axSuleUDVj5ty0G3--wsjjvJtfd15HHh9v_bZOmV0vBujiJG_sxF5hmpyV5m1o1E1ekTxduI1XptJc9S7Dm8XVEoZpVA1XmQLxJYhZcVVVuu6p8gsssPIauBO3_s9Bupk3l4No', 'width': 3120}]",ChIJuSYFrktrnDIRObpjqryrL34,5.0,"['tourist_attraction', 'point_of_interest', 'establishment']",2.0,0.7414113999999999,128.2532432
"HFXG+P3G, Unnamed Road, Waci, Kec. Maba Sel., Kabupaten Halmahera Timur, Maluku Utara, Indonesia",Kali Waci Peteley,"[{'height': 720, 'html_attributions': ['<a href=""https://maps.google.com/maps/contrib/104874770143269859725"">A Google User</a>'], 'photo_reference': 'AUGGfZnMUiBMBLZLZa5Q0dokE63jdcNa2Q16fFSLfhOBuWj1ffrJmxCxBlnLwKrTqGOalZoc0yWdjymxF4HY0PHXFVgVCOlKDfjfrJLo7ExkGygjgwMqGA6cZXb7Ig7mdTT21NDjoWsyYpdfYdBxnSoUCzX1HLeQ--co38oVEbXbznF-X3-3', 'width': 720}]",ChIJ_dC8FVg7nDIR3pm3B7Py1sk,5.0,"['tourist_attraction', 'point_of_interest', 'establishment']",1.0,0.5993236,128.4752168
"RJ2C+3J7, Toniku, Jailolo Selatan, West Halmahera Regency, North Maluku, Indonesia",Sabla Aer,"[{'height': 2040, 'html_attributions': ['<a href=""https://maps.google.com/maps/contrib/112681351717240795185"">yusup muin</a>'], 'photo_reference': 'AUGGfZl81Pxmz3imLaX42xMRA32ozk8cCo4h233OOk_2BLEi88D6qyIvLc_T5l0iy-LLmD7m8qXeRXe63ORR0-UG5wt2ILi-lisUu5k7_wwPz6d4s_fTDhvd1oEDiYksRVqOw6HjRQRUKkdMJ50r20GcFFkmeIhRgDl_IYpg8H0LJazcbdqc', 'width': 1147}]",ChIJO50zKRW9nDIRi2NT79iNKUs,0.0,"['tourist_attraction', 'point_of_interest', 'establishment']",0.0,0.8001710999999999,127.6215612
"QR3G+6G4 Ino jaya, Binagara, Kec. Wasile Sel., Kabupaten Halmahera Timur, Maluku Utara, Indonesia",Bendungan desa ino jaya,,ChIJ7z9mWQCNnDIRGMI_Z2OyFsg,0.0,"['tourist_attraction', 'point_of_interest', 'establishment']",0.0,0.7530145,127.8263428
"VMJG+Q6, Pasir Putih, Kao Teluk, North Halmahera Regency, North Maluku, Indonesia",Tanjung AMBEUA,"[{'height': 4000, 'html_attributions': ['<a href=""https://maps.google.com/maps/contrib/100845649997941798769"">A Google User</a>'], 'photo_reference': 'AUGGfZl8pvwDYwiMKEKjAxl9tiA4VHa4HjdgNtxf4MVomaNErDL5fGSmeZkA-Tjeu0Koxo02WoVM2brBYC-6HkDzRrdnVGlghofEQX-6lgWnO6MUyiKOuhI1isTLZcCthZ-tMxjPuTAtLIX9TWBoWdl-JIzAb-RPx9OT7rvh-Oa1oQwpKz-W', 'width': 3000}]",ChIJJ2ICPR-ZnDIRILTzT2Koen4,5.0,"['tourist_attraction', 'point_of_interest', 'establishment']",1.0,0.8818952999999999,127.6755554
"RMJM+98, Bobaneigo, Kao Teluk, North Halmahera Regency, North Maluku, Indonesia",kebun cengkeh mama jo,,ChIJZVykFACXnDIRKP2ZZRggjOQ,0.0,"['tourist_attraction', 'point_of_interest', 'establishment']",0.0,0.8309259,127.683317
"QR56+P2, Binagara, South Wasile, East Halmahera Regency, North Maluku, Indonesia",Woka Vila,"[{'height': 1836, 'html_attributions': ['<a href=""https://maps.google.com/maps/contrib/100225722257405933326"">A Google User</a>'], 'photo_reference': 'AUGGfZnamjcxyK4A8uY2sQEyJYAk-GVN2WZ5__IwEqHmukU2XL5FF7ju3kjvuwcxbuHsGDfhHKhxRuPuJC34zKFZvU1FLYIZQyEvTq1N0ZTNg-M9OvyMshzHoVQ4Z5fXq2G0X7TJC0R6eXKEqnojJlV5qRIgah-QKfdyEZrYANopKj17Jfjh', 'width': 4080}]",ChIJdbEUJF6NnDIRkiBCaUYfO4k,5.0,"['tourist_attraction', 'point_of_interest', 'establishment']",2.0,0.7591656,127.8106834
"VM79+PR, Pasir Putih, Kao Teluk, North Halmahera Regency, North Maluku, Indonesia",Pancoran/pancuran,"[{'height': 5184, 'html_attributions': ['<a href=""https://maps.google.com/maps/contrib/118050029205370893755"">A Google User</a>'], 'photo_reference': 'AUGGfZmRL1Hg42JdPcVhM8aUuuU_h3vTbWQPWZ2nAkyIM_WZ6sKRve2ZcyrsxHb3eFvjqveF_DhE-U5p22XqDrMjwJJP25EZNMz8Fc71Sb1dflfUAH4hzIeXDZNiDZW3PacR-FMa5p76KEpW2kMSLC3Wb85guLA1DMODX7bhwUipIXwPOICt', 'width': 3456}]",ChIJO9J0tg6ZnDIRdnFIrBKde-4,5.0,"['tourist_attraction', 'point_of_interest', 'establishment']",1.0,0.8643113,127.6695701
"PHJ2+MP, Pulau, Maba Selatan, East Halmahera Regency, North Maluku, Indonesia",PULAU KACA MATA,,ChIJ6Zbcx8oZnDIRA6iK6x875yE,0.0,"['tourist_attraction', 'point_of_interest', 'establishment']",0.0,0.7316998,128.5518344
"VQGF+33, Samo, Gane Barat Utara, South Halmahera Regency, North Maluku, Indonesia",Bendung Galala,"[{'height': 720, 'html_attributions': ['<a href=""https://maps.google.com/maps/contrib/101183776718147528934"">A Google User</a>'], 'photo_reference': 'AUGGfZkCOxVHqVWmF14Hfi6oft6EJgZs6YhJDc_RgzCx35iRyPF0KiIpiHWW_oj_MkRzYxMUj90hVJoloG-WZjFc3aODDlUbZcpOhk7OYeaedDd2yk0duFnSZGtSdGSHnVfdzTVvZyz28Mra89JcYEm2TRhx1ExAhW6q55TI3oF36PaNUOMi', 'width': 720}]",ChIJLZq4XwCRYi0Rpxx39ACnahA,0.0,"['tourist_attraction', 'point_of_interest', 'establishment']",0.0,-0.1248215,127.7727405
"WQ9F+2C, Sumber Makmur, Gane Timur, South Halmahera Regency, North Maluku, Indonesia",Bendung Maribobudo,,ChIJTZewKwCbYi0RFuD-CufoK7c,0.0,"['tourist_attraction', 'point_of_interest', 'establishment']",0.0,-0.0824202,127.773618
