formatted_address,name,photos,place_id,rating,types,user_ratings_total,lat,lng
"HW43+QHF, Banjarwangi, Garut Regency, West Java, Indonesia",Sungai cikaengan Banjarwangi,"[{'height': 4096, 'html_attributions': ['<a href=""https://maps.google.com/maps/contrib/104224539756408172212"">A Google User</a>'], 'photo_reference': 'AUGGfZl8nk0qqL-AWgito81dU2FI2FJ6dbi52EBcsrFNohF7OY7tuN4otKI1EQHfkQrU-uH-MwXliaxXP7majZRkFFBkNqvUW2SxJ80QPUP35G14gCo0UITvl20dzWyFqkMP91e1Zpdwlj0kq5MksR306qmIXejZzbRtPCir4fw-OTKW-2lv', 'width': 3072}]",ChIJMSFQdIkDZi4RIz5WnPSYlY8,5.0,"['tourist_attraction', 'point_of_interest', 'establishment']",1.0,-7.4430744,107.9039282
"HW39+XR, Banjarwangi, Garut Regency, West Java, Indonesia",Kp. Talaga pangangonan,,ChIJnWlYDAADZi4RnSTF55ePVR8,0.0,"['tourist_attraction', 'point_of_interest', 'establishment']",0.0,-7.445081999999999,107.9196121
"HVQX+CH, Kadongdong, Banjarwangi, Garut Regency, West Java 44172, Indonesia",Saung GANNRUNK,"[{'height': 1836, 'html_attributions': ['<a href=""https://maps.google.com/maps/contrib/100972421376840768835"">Jajang Junaedi</a>'], 'photo_reference': 'AUGGfZnjwXTeElhCSBIAbgYeVUBOr8Cr1QVKHv9LKPEXPNohZHfSbDawCU9frQ90CsD9dvdAVacRjtNM8Q7BdHKIpCgv89ZUTXRvcquEj71f12nfwJMjE3hruHYG9XsXgdz_Y-7X-rhfJYmITUFa2NSA8IBsWSR9kgyTqLDKDUMv0soyOB7l', 'width': 3264}]",ChIJmbhIriipaC4RgqXpHe6QLq8,5.0,"['tourist_attraction', 'point_of_interest', 'establishment']",2.0,-7.4113773,107.89894
"HWHG+GM, Talagasari, Banjarwangi, Garut Regency, West Java, Indonesia",Halaman Belakang Kebon,"[{'height': 659, 'html_attributions': ['<a href=""https://maps.google.com/maps/contrib/113279517555908986177"">A Google User</a>'], 'photo_reference': 'AUGGfZkBXzB1v_FQn3qHN49dO7u5eoEN2uQ3DDIWMHYWGgEpqIr2lLUqUdqn88SzQixkYViBFhCJEDFA4vRdTpA798jr3lAmvh-PD3YEGDMTW_RAH0QPfL8C6PkyuIqRWGQio8A1VrmDOo0O2_c2NvxmkTikHL7zU3gGkE9R37TMJczeRiji', 'width': 1170}]",ChIJu3X3VIkDZi4Ro_T0ApmRHeA,4.0,"['tourist_attraction', 'point_of_interest', 'establishment']",2.0,-7.421228999999999,107.926665
"JVQM+9V Kebun Mas Haris / Pa Budi, Wangunjaya, Banjarwangi, Garut Regency, West Java, Indonesia",Lokasi Kebun Pa Budi,,ChIJR9ggQgCpaC4RTVQF4-u-mxg,0.0,"['tourist_attraction', 'point_of_interest', 'establishment']",0.0,-7.362034599999999,107.8853104
"HVRV+FC2, Wangunjaya, Banjarwangi, Garut Regency, West Java 44172, Indonesia",Batu Tumpang Segleng,"[{'height': 4032, 'html_attributions': ['<a href=""https://maps.google.com/maps/contrib/110334447145056258857"">Gojek Jakarta Driver</a>'], 'photo_reference': 'AUGGfZli-728QS2eJvRrS0R1ji8cT0IsmiccTeaAPddev3ChmYzOKEKr7UVSoJRZHGetXrhcU9RAgBgwOVz9DgVlnDIW4HCHzhXGCoUTSYQq1y34T8iM0QyBzRQyL-gInI28wLyWlKPQsIL38fTwy-Gnuk2FoaqMVDoQV1yzHcBNuRRUcUsJ', 'width': 3024}]",ChIJfz9QemepaC4RhfjSuSdWnew,5.0,"['tourist_attraction', 'point_of_interest', 'establishment']",3.0,-7.408851799999999,107.8935172
"HWG5+8F4, Jl. Raya Cijoho, Padahurip, Kec. Banjarwangi, Kabupaten Garut, Jawa Barat 44172, Indonesia",Kolam pemancingan,,ChIJHS3Zy_4DZi4RJMwicFtyhZA,0.0,"['tourist_attraction', 'point_of_interest', 'establishment']",0.0,-7.424246699999999,107.908695
"Kp cikembar, Tanjungjaya, Kec. Banjarwangi, Kabupaten Garut, Jawa Barat, Indonesia",Batu Tumpang,"[{'height': 683, 'html_attributions': ['<a href=""https://maps.google.com/maps/contrib/106227571290032869930"">jelajah garut</a>'], 'photo_reference': 'AUGGfZlH0B14sv8bfP4SbaNpH9zbcxN97TxxZQex848GH-XonkfTr4RarY-0QoNlZ0kOG8qMI17AA9frkN9ksj8AsmEECzHNHWc0o2-PZlk7wiKQ1RqHLWuGsqLIVlTjt5QZYv8KcB92Szd4SUTUKqH1xebclyFnTs_LAuAbIGfvI3uJaD36', 'width': 1024}]",ChIJY8apAoqnaC4RVvSRpSoiUoM,4.5,"['tourist_attraction', 'point_of_interest', 'establishment']",1362.0,-7.396874,107.839007
"HWH4+39Q, Kadongdong, Banjarwangi, Garut Regency, West Java, Indonesia",Taman Wisata Alam Nusa Indah (Tampel),"[{'height': 4608, 'html_attributions': ['<a href=""https://maps.google.com/maps/contrib/104133495280938208784"">A Google User</a>'], 'photo_reference': 'AUGGfZk81WpvxN2s1FDmddvLPQi8RsdxSRTTkXdxZlo0Vx9_Gcl1_7s2Z7VvkK26HW4WqZcI94DD7RplbdmWDS-eH9f9GUFu7WCt56RpVKmfUonaGqjohm0f7TVixltZDuZHD_B35UJ85oZu3nZiTw60T4pv6U61nLm8LH6Pas65TBjxW6x8', 'width': 2128}]",ChIJneVD9nMDZi4RcUYvND-39-M,5.0,"['tourist_attraction', 'point_of_interest', 'establishment']",1.0,-7.42228,107.9059711
"HRPH+XXV, Jl. Cikajang, Tanjungjaya, Kec. Banjarwangi, Kabupaten Garut, Jawa Barat 44172, Indonesia",Batu Patapaan,"[{'height': 3456, 'html_attributions': ['<a href=""https://maps.google.com/maps/contrib/109601960922557631431"">ganda sandhi</a>'], 'photo_reference': 'AUGGfZmOXP0YLrYVSroPcydFjFJXsQmjwkFKqUbTpaTrMXHeuACMEpbKebkl6hIURJAGeFP1KCyHHP8hChGHKIUPehF5E4P5mxfLsFf4jRboiOLESIR-A9_nciIhtAyKbyy7yEIFzjwOsP97lYOHfnKC58UGi9woTrfvosDZE2MSrPe_fn6r', 'width': 4608}]",ChIJKV3jBP-naC4RG4sU5qB9kvQ,4.4,"['tourist_attraction', 'point_of_interest', 'establishment']",21.0,-7.412516399999999,107.8299237
"Lembah bening asih, Mulyajaya, Kec. Banjarwangi, Kabupaten Garut, Jawa Barat 44172, Indonesia",Lembah bening asih,"[{'height': 3000, 'html_attributions': ['<a href=""https://maps.google.com/maps/contrib/118213311600704596907"">A Google User</a>'], 'photo_reference': 'AUGGfZmrrSAl0xawR-QELxtUq97pwcmzD9Mz5leqqXiASAYznmWv5dbPRDsYw71TowCk-XmkxfFk_KwjqOHAny7SJrXxWoqG8NxL1BUELAJRp5RjcZ9QQQPvXUTviSLDto3BuKmIUxLhioLLSca_h5OZfCgIC2NlzHyyK8IdinTgcmJjrEcQ', 'width': 4000}]",ChIJWzlrswSpaC4R2x6V82SrsPw,0.0,"['tourist_attraction', 'point_of_interest', 'establishment']",0.0,-7.3690954,107.8612982
"Tanjungjaya, Banjarwangi, Garut Regency, West Java 44172, Indonesia",kolam dan kebun Asep Satar,"[{'height': 720, 'html_attributions': ['<a href=""https://maps.google.com/maps/contrib/101895358842425139611"">Asep Sofyan</a>'], 'photo_reference': 'AUGGfZmhEDfDzzfQTIqL-nf6j8CqMuMDoPkXNbt6WFMYIBTx58Yx2IYya29nYTvb7BHhY82a2_GKRBfx5Qh_c2d03tmTDuhXa3S37-v74VPFsqovUUibDDIRNWViRhOA1mp_HpN8JhLlthAo50slffamk_3-zsWg7Npwm9CGYNNN81OPgQZ2', 'width': 960}]",ChIJ3e5xkFanaC4RimMzC8oB8oo,5.0,"['tourist_attraction', 'point_of_interest', 'establishment']",1.0,-7.3936671,107.8397522
"JV5F+4C3, Mulyajaya, Banjarwangi, Garut Regency, West Java 44172, Indonesia",cidahu,,ChIJ-1AOjuepaC4RVA2-b7vNEAE,5.0,"['tourist_attraction', 'point_of_interest', 'establishment']",3.0,-7.3931399,107.87338
"HV68+6C, Jayabakti, Banjarwangi, Garut Regency, West Java, Indonesia",Kp. Sindang lengo,,ChIJ468JegADZi4Reqg8mS-GEnM,0.0,"['tourist_attraction', 'point_of_interest', 'establishment']",0.0,-7.4393936,107.8660747
"HVMW+HQ, Wangunjaya, Banjarwangi, Garut Regency, West Java 44172, Indonesia",Taman Wisata Alam Curug Cigaplek,"[{'height': 3120, 'html_attributions': ['<a href=""https://maps.google.com/maps/contrib/115606700233445588146"">A Google User</a>'], 'photo_reference': 'AUGGfZnuFDvc18Srra4STuNzQliNgmghv6MsS9wT0td2DkyiEj_lvBJF3zwhBiday3mN1kJN8oIGVv3RgjIMhwntjLV2XtU6em4cXTbrPT1nZUJH41LX8bB82VJSDzk-fGe0eZHeVpehGY6fEv_yBrwmj98ObGqttuVCT4z1fu6MoWIR5-U', 'width': 4160}]",ChIJ31BT9A0DZi4R3MIB4rhJ_pE,5.0,"['tourist_attraction', 'point_of_interest', 'establishment']",3.0,-7.416066499999999,107.8969039
"Pe,er city jlan jajaway rt 02 wr 04 desa talagasari kcmatan, Kec. Banjarwangi, Kabupaten Garut, Indonesia","Pe,er city","[{'height': 2426, 'html_attributions': ['<a href=""https://maps.google.com/maps/contrib/102819073689328728984"">A Google User</a>'], 'photo_reference': 'AUGGfZmU-Kmw5O7sZVzDwV2Cni7eVJgy1W_bbSnC8pnknYF6B8M_SNIy2_KgHTMW08IRMnbwuVSAwNrEghXO1YbkbLy0gVqA4gakBWn6vInS0hyE0bylyW4hnFnUgWOXE6xxkIbTzVdzyq14WEXayUYuud7Pb4yT9OJVx4KbfxdZ15w5qK8', 'width': 3264}]",ChIJYZ0DPwADZi4Ry0NJS1mEYxk,5.0,"['tourist_attraction', 'point_of_interest', 'establishment']",1.0,-7.427948199999999,107.9140495
"HWVF+CCF, Kp bungbulang, Padahurip, Banjarwangi, Garut Regency, West Java 44172, Indonesia",Kp bungbulang,,ChIJa5wfewCpaC4R7iCZFLPxFWM,0.0,"['tourist_attraction', 'point_of_interest', 'establishment']",0.0,-7.406436900000001,107.9235563
"HVP4+C57, Tanjungjaya, Banjarwangi, Garut Regency, West Java 44172, Indonesia",Curug Ngebul Dua Kolam,"[{'height': 4160, 'html_attributions': ['<a href=""https://maps.google.com/maps/contrib/116241349958012668548"">A Google User</a>'], 'photo_reference': 'AUGGfZlgZXWCklL07Guv2XitqAIBV5mUZksd2Cy0u6TjdgKFm9grH_wz3TEJ54XKDGGHQMTOMBzAZBxKkshacoFLfx-JgW9U_1KFHCtA3EWP51j_CRGDhyju20qswKT8SNZe-CjFNqMS4IouG7V_he8NJlw7J79ZRfbDPXJ0y1n47efApXFi', 'width': 3120}]",ChIJWVWa5eynaC4RYCC1UhRK5us,4.7,"['tourist_attraction', 'point_of_interest', 'establishment']",3.0,-7.4139686,107.8554232
"JV6P+VG6, Gunung lencop, Kec. Banjarwangi, Kabupaten Garut, Jawa Barat 44172, Indonesia",Gunung lencop,"[{'height': 3016, 'html_attributions': ['<a href=""https://maps.google.com/maps/contrib/117013319225186825889"">A Google User</a>'], 'photo_reference': 'AUGGfZmuaQ5uxUbLLaSEl9ZdLbEIBUWQervHoOsNuHZwn3dH8djpqlj6C3PKaf5IFA2TT3FVNJ27MSgaF-T-lskJlotdUc2L252HRDK471iRzJlcqS_nK2EdVa9nLyv0pgAAJVhWgUwV_z9zm-ExXUk_HiOrweTWrzkEoghMeDjByQqL9ft6', 'width': 4032}]",ChIJ-ZPI5lmpaC4RWhXw-7kQ70A,5.0,"['tourist_attraction', 'point_of_interest', 'establishment']",1.0,-7.387840799999999,107.8862796
"HV4G+7G, Jayabakti, Banjarwangi, Garut Regency, West Java, Indonesia",Bukit Datar Jampang,,ChIJn5QThdIDZi4RFzkIjYS0ph0,0.0,"['tourist_attraction', 'point_of_interest', 'establishment']",0.0,-7.4443473,107.8763552
"HWC7+6V6, Banjarwangi, Garut Regency, West Java, Indonesia",Saksak Anclahan,"[{'height': 1000, 'html_attributions': ['<a href=""https://maps.google.com/maps/contrib/102819073689328728984"">A Google User</a>'], 'photo_reference': 'AUGGfZliGvvV7fUmJ5qBA3h5ca2WreqcndsZv2fUVUDhuFdb6-CveI32ecX_iOzZ9EZPSiEbslf7JacgraV1FNB77VBIvb5moyQSc9VEKkgMJqyOYIbLn-8ywhqJrTjZkCuBERTmq08D9NiOwqdqe7T29mARI-Cj-TnfKraIGn3aEoMA1KY', 'width': 750}]",ChIJo7QTEQADZi4R2Y5weQyxOEI,0.0,"['tourist_attraction', 'point_of_interest', 'establishment']",0.0,-7.4294699,107.9146359
"HV92+6FF Kampung petakan, Tanjungjaya, Kec. Banjarwangi, Kabupaten Garut, Jawa Barat, Indonesia",Kampung petakan,"[{'height': 4160, 'html_attributions': ['<a href=""https://maps.google.com/maps/contrib/117164267195457530209"">A Google User</a>'], 'photo_reference': 'AUGGfZnWXXKxyLZNmWSP2euTlbT3sBcmcrVOr5_eje73xrwyGdmlkSJKfxHuDa6ocxkJ3D3FUMXd4d96Picq50jkjR5z4jwy63f6_MqKg_X9MzjW-OKWEBJdZBam37I9SmVar0VSdNXLHtMbUoyxdLoLrYF8y8yN9E8PfkNf7BSLMR-rRiL5', 'width': 3120}]",ChIJ78uejRMdZi4RaCt1FqASV6U,5.0,"['tourist_attraction', 'point_of_interest', 'establishment']",4.0,-7.431946099999999,107.8511675
"HVC2+QW9, Kp.Cipeundeuy Kel, RT.003/RW.001, Tanjungjaya, Kec. Banjarwangi, Kabupaten Garut, Jawa Barat 44172, Indonesia",Kp.Cipeundeuy,"[{'height': 3120, 'html_attributions': ['<a href=""https://maps.google.com/maps/contrib/101445732893725014113"">A Google User</a>'], 'photo_reference': 'AUGGfZleCsasuOQC4q4lZc7WprALRfoMC7tSGDTBwAebM7QCIRsJZW4FLid3hS9x_EGTakiLOlrxcXKqEir6tIoC3QZ2HhzRzzaSUTiEI19kiGrlGIHLmUqVxODFGD46p_aLA_SAuSb6m3J_TctzujnlNtO4qqXKw2gV3iSPO757WRwmRdRs', 'width': 4160}]",ChIJizMwo5YdZi4RECwx7uB5YqQ,4.5,"['tourist_attraction', 'point_of_interest', 'establishment']",6.0,-7.4280978,107.8523581
"JR7P+XWW, Mekarjaya, Cikajang, Garut Regency, West Java 44171, Indonesia",Mata air,,ChIJP_8DWRCnaC4R556DimmuTco,0.0,"['tourist_attraction', 'point_of_interest', 'establishment']",0.0,-7.385010500000001,107.8373131
"JWX3+M4, Sukamurni, Cilawu, Garut Regency, West Java, Indonesia",curug aden raden / cikopi,"[{'height': 4128, 'html_attributions': ['<a href=""https://maps.google.com/maps/contrib/102570372521528206786"">A Google User</a>'], 'photo_reference': 'AUGGfZlD7OhRF7LFqUPqwNftHNGg7bNqTdhWj6C8yZSe7Z4Rm7nr1ciOdKMMJn5UgxelJ30BcJ2uHbcTs1I-akr2YUjSRS_SBFB-Ry9K6xnPZF1ohjBkysqwSf3xvZnq8X0FxAWxlRkB6G_w4AzQ-XaXjEzGL7jOJ7ZCLeVi1XmKYEVpueZK', 'width': 3096}]",ChIJP6TkAOWpaC4R-ccvrdu6gmo,5.0,"['tourist_attraction', 'point_of_interest', 'establishment']",5.0,-7.3507582,107.9028416
"Banjarwangi, Garut Regency, West Java 44172, Indonesia",Alun - Alun Banjarwangi,"[{'height': 3136, 'html_attributions': ['<a href=""https://maps.google.com/maps/contrib/101395911303964956219"">Mochamad Ricky Rifaat</a>'], 'photo_reference': 'AUGGfZku5NtLzxA28n9oUfhCw_AH4jAxRdXbSmCfbywVw9tAOXwEBfgEsdtUjOd-h43Z1-P82Kdk2M1Jw9L1An-kqXArmlbpEXehHQ-3IloWDs5wD5Uu8mhmRhjtocOJ_ayQc24cUIl0r5WVE2YPxe_rJAh38unNTZWkHK2fSHuUB2daclYe', 'width': 4224}]",ChIJe_Hnm_cCZi4R_WExveDysic,4.1,"['park', 'point_of_interest', 'establishment']",352.0,-7.4426156,107.9033513
"Kp curug asem No.Desa, Karyasari, Kec. Banyuresmi, Kabupaten Garut, Jawa Barat 44191, Indonesia",Kec banyuresmi,"[{'height': 4160, 'html_attributions': ['<a href=""https://maps.google.com/maps/contrib/105323674909111782619"">A Google User</a>'], 'photo_reference': 'AUGGfZmmjFslAdnM5ZgYzvou216PCRDlzJ-fiB0boGTcbUcaTVMiwZXV1wL8xdrRafPIG1BXH0APcpxIC_wJQpUpm7nWzO7tPdl77VpYlfZrN1R2lNT3M5W2rdQMAa0s_cB4zMXokV2LaxAaOkAe7xHXswEBA5kdmrT3k5BDK8QIftc-ix0I', 'width': 3120}]",ChIJ8StkcvC1aC4R4Ju6NoE0O5w,4.3,"['tourist_attraction', 'point_of_interest', 'establishment']",7.0,-7.1176204,107.9602318
"RWPV+8RC, Sukaratu, Banyuresmi, Garut Regency, West Java 44191, Indonesia",Situ Bagendit II,"[{'height': 1844, 'html_attributions': ['<a href=""https://maps.google.com/maps/contrib/107518943251664440108"">Asep Wawan Asep</a>'], 'photo_reference': 'AUGGfZn-OlgNHZ_Rto5nLlC6spWAEmfGg4eJNtABTsxQEGU-j5ryP8V6Ipfh8278Z5tMO9TRCHuqkEYGkKCT2AUnYvzMCredA3qWUq9MWdMjHPcFzBLvlgbAzf8lCF_FsMKnHs813wJp2cvGU7vN3GPa00u8ZbK_UbTlerycfKnwkSFdGImZ', 'width': 1844}]",ChIJe5t0wX6xaC4RdU7JW2seCdo,4.4,"['tourist_attraction', 'point_of_interest', 'establishment']",530.0,-7.164221299999999,107.9445652
"Jl. H. Hasan Arif, Sukamukti, Kec. Banyuresmi, Kabupaten Garut, Jawa Barat 44191, Indonesia",Wisata Situ Bagendit 1 (Satu),"[{'height': 1080, 'html_attributions': ['<a href=""https://maps.google.com/maps/contrib/111278005479701140966"">A Google User</a>'], 'photo_reference': 'AUGGfZmPtyl_n-NuzueZVo3rVJOjb7AXX-t8A5h_gx_WI0uX7Ps_tPm2pk_lyq-xEWoupqwg-Ru0AX6rXpvqOfNqPaX041JhT9ZMYdc1JjoK12iEEB6yrAPG9wBX9v9N2otQUGGINeCuNEQR_cZwAq8cRR9_64yYlv8ZgHYIrmUWG2pabihq', 'width': 1920}]",ChIJoe9M0nu3aC4RwTPf3MrAsvQ,4.3,"['tourist_attraction', 'point_of_interest', 'establishment']",805.0,-7.1598419,107.9510039
"RWRR+GG2, Sukamukti, Banyuresmi, Garut Regency, West Java 44191, Indonesia",Kampung Cai mukti,"[{'height': 4000, 'html_attributions': ['<a href=""https://maps.google.com/maps/contrib/101906370511996246606"">Azzam Mohamad Hafidz</a>'], 'photo_reference': 'AUGGfZlaqAY_-GIR57iGSV_ct5pFPnSUA4GnWCxOuzSWomaAQ7F4ucGI9L1nhruRE-w997h00yg2VBLCvZ350F9FWr7iLPpv6sLmEBrCpUvs-2-T36T_Nf7WKmaoqWkB5FEq1jetPg2eWwpwWEA9Kj5-JKI5OnypynmbovJ3rVYBTYbyjKzl', 'width': 3000}]",ChIJgy2hNNC3aC4R2vk_kLfRvgc,4.8,"['tourist_attraction', 'point_of_interest', 'establishment']",6.0,-7.1587324,107.9412565
"RWPW+G7W, kampung jolok batu, Sukaratu, Kec. Banyuresmi, Kabupaten Garut, Jawa Barat 44191, Indonesia",saung si kumpay,"[{'height': 3000, 'html_attributions': ['<a href=""https://maps.google.com/maps/contrib/110630151181219798425"">Nur Lita</a>'], 'photo_reference': 'AUGGfZnEMOH3WcTG3TOFfcsRctCIIKxHCKgrG7RhBemD3GEcFRBu8Dxr41z6YdrGQDkA9waDIIaNm_TJaMN4dUQ_LKGhd-Yg0Wl5IfNo-4ePXy4SeIyhczH8cOR_qU1t4ZgsOo91bb98_4w3BB97RCDPg139gtepYER3J8NG9yNQ5-u2YiqD', 'width': 4000}]",ChIJn9OgAxmxaC4Rl8od7dTiaqU,4.5,"['tourist_attraction', 'point_of_interest', 'establishment']",27.0,-7.1636275,107.9456898
"Situ Bagendit No.113, Sukamukti, Kec. Banyuresmi, Kabupaten Garut, Jawa Barat 44191, Indonesia",Wisata Cai Mukti Bagendit 3,"[{'height': 1980, 'html_attributions': ['<a href=""https://maps.google.com/maps/contrib/106935559878320195569"">Deddy Irawan</a>'], 'photo_reference': 'AUGGfZnsPWUrMhJV2kYBCSSLLongMVXDre6dxmP_-hHMwg2VzmGtR2lMWkpKbGfQnf_LywGWICwyEsuqC1-2MbBuNbM7os_wgnFiI7vEMUXXeoSLl1gCSkUqTeXdxytZzdpZaTh_-bfB8PXy3vczs6qnzlZ6OYLa7Wy6NNl-8QlEi3OMFDMm', 'width': 2640}]",ChIJJZ4mp623aC4RTREotZ2RUlc,4.5,"['tourist_attraction', 'point_of_interest', 'establishment']",6.0,-7.1558816,107.9454225
"Kp, Jl. Gapura Kiaralawang, Sukamukti, Kec. Banyuresmi, Kabupaten Garut, Jawa Barat 44191, Indonesia",Wisata Situ Bagendit 3,"[{'height': 1800, 'html_attributions': ['<a href=""https://maps.google.com/maps/contrib/109224431547275608097"">A Google User</a>'], 'photo_reference': 'AUGGfZm0Xx_hc5rfG-a4IwYfFKaAaP_tg1y0FjsIRfUgHseJDEZQvOhxU8pAUfyrLxvOqfPViSfNT--FS9-SoeTeowgvbxDaS8zd8Vg7vgQXQeidMdKiOE-ACYsAjhFRodAX7nhgsSQJ5owEqAK2U9RXxC0dE9sdML0ivAOuVvvrHqj_hFE', 'width': 4000}]",ChIJHXjAgGS3aC4Rd-T8rTXyp8c,5.0,"['tourist_attraction', 'point_of_interest', 'establishment']",3.0,-7.160777,107.9365258
"VXH4+VXH, Karyasari, Banyuresmi, Garut Regency, West Java 44191, Indonesia",Daramaga,"[{'height': 960, 'html_attributions': ['<a href=""https://maps.google.com/maps/contrib/107213891024183797118"">Iwan Renatis</a>'], 'photo_reference': 'AUGGfZmfOJ0HQ0jogd3UWfQpANtbyL36ALCNfBOQXHz1zudEry_JBEPzGWXyKPP6VJJRiSCFycQZH2WBT-C-sjqNvl-beZTPMUFtGAKSS-ZCnxMdRZ-vLdEiQhIFlKowDDFQ1go-y03yO-sIc9fvBbUz4c10MUt3EDvP1UimX6Y_a-7nHRvH', 'width': 1280}]",ChIJzWZurw-1aC4Rp57fbEhW-M4,5.0,"['tourist_attraction', 'point_of_interest', 'establishment']",2.0,-7.1203116,107.9574899
"RWPX+37H, Kp.jolok paozan, RT./RW/RW.02/10, Sukaratu, Kec. Banyuresmi, Kabupaten Garut, Jawa Barat 44191, Indonesia",WISATA UTAMA BAGENDIT,,ChIJ2ynKshCxaC4Rm7K1AHFX5To,0.0,"['tourist_attraction', 'point_of_interest', 'establishment']",0.0,-7.1648385,107.948207
"Sukamukti, Banyuresmi, Garut Regency, West Java, Indonesia",Situ Bagendit,"[{'height': 3024, 'html_attributions': ['<a href=""https://maps.google.com/maps/contrib/106663449154794956089"">Andre Mehong</a>'], 'photo_reference': 'AUGGfZnGC9Yn7QvtgdcxfQsf7hLAYmr_ipqj2QpwTum0Y3_luoWG9sBdDs5ItIUdLXBiKNxoXphfHAt5xpj4q1ir710447G86PIcv76Y59ioct8gmpv0abszovasBsaiJHpX_j59pls0hy6_ZQuNfTx_APzbDiubpylHci2HC0W0U7woLHoZ', 'width': 4032}]",ChIJv-T23aq2aC4R4E6cUakZHV8,4.2,"['tourist_attraction', 'point_of_interest', 'establishment']",4800.0,-7.1608295,107.9365808
"Kp.Curug Nyalindung, Karyasari, Kec. Banyuresmi, Kabupaten Garut, Jawa Barat 44191, Indonesia",Curug Nyalindung,"[{'height': 1200, 'html_attributions': ['<a href=""https://maps.google.com/maps/contrib/114650360743071051577"">A Google User</a>'], 'photo_reference': 'AUGGfZm9J8V8ybQNGu-4n2Og6wVyH-ARrQAAOmIQ7MC6zIwDd_-7TKMCYfLs5FH22ezIiKRqqEmU9EbLHDlgQlqi4GtkFXz5ovERZH6vFMjgdVXG17OgxO1cEfkIezf-8M-dD6oRoCJ41IpRPrVOJMrRPojMHXdoPdbmNXAa_HH5bwnVlygp', 'width': 1600}]",ChIJ5RW2XiS1aC4Rjace60ujgb0,4.4,"['tourist_attraction', 'point_of_interest', 'establishment']",7.0,-7.116386299999999,107.9619055
"VX52+VVQ, Situ Rancakukuk, Banyuresmi, Kec. Banyuresmi, Kabupaten Garut, Jawa Barat 44191, Indonesia",Rancakukuk Lake,,ChIJD1WXGey3aC4Rl2AWr7VB928,0.0,"['tourist_attraction', 'point_of_interest', 'establishment']",0.0,-7.1402778,107.9522222
"RXW6+XM8, Binakarya, Banyuresmi, Garut Regency, West Java 44191, Indonesia",Kebun anggur rancaucing,,ChIJkzmJbHi1aC4Ry6aVdqLYONs,5.0,"['tourist_attraction', 'point_of_interest', 'establishment']",1.0,-7.1525995,107.9616395
"RWRW+43, Sukamukti, Banyuresmi, Garut Regency, West Java, Indonesia",Sepoy sepoy,,ChIJZ_TnAwC3aC4RBchlF40BFzU,0.0,"['tourist_attraction', 'point_of_interest', 'establishment']",0.0,-7.159694999999999,107.94525
"Kp Jl. Gapura Kiaralawang, RT.003/RW.011, Sukamukti, Kec. Banyuresmi, Kabupaten Garut, Jawa Barat 44191, Indonesia",Home Stay MARLIN Pojok Bagendit 3,"[{'height': 1200, 'html_attributions': ['<a href=""https://maps.google.com/maps/contrib/112343132139704929319"">Kang Yories Thea KYT</a>'], 'photo_reference': 'AUGGfZk7IXihha8x9RsCtHTVTiKzzcy9Oy9uFHokasEPw6MRdbp4GcBpjNynTetZ1hMq5V0dRzHndnHe881-v1KVAXm40r3-CqLVhMR7T-1YUskMQWHT7k6gz1WWhSlh46ZAa-yYtaA6k8HiZ9_bsqbRlcELbE-ofsKULpWFguP53v6dSSPw', 'width': 1600}]",ChIJmcVBD1K3aC4RCWbN015gmKQ,5.0,"['tourist_attraction', 'point_of_interest', 'establishment']",1.0,-7.1581473,107.9375496
"VW9V+WHC cika dongdong, Jl. H. Hasan Arif, Karyamukti, Kec. Banyuresmi, Kabupaten Garut, Jawa Barat 44191, Indonesia",Villa ff,"[{'height': 3000, 'html_attributions': ['<a href=""https://maps.google.com/maps/contrib/118246123614051574398"">pepen effendi avin</a>'], 'photo_reference': 'AUGGfZltdbbFq24JQnKI-gUEUWN4jIlACmScdHya0qwjUtsCVAvwWi3JVsNEJYNM7FGQ2en1saaB2qxSbYyY7RFZveVrs-mBsThnaPovXnamymcqQHHZ28rQBo5guB1vFUm9A6duk0s22p67CuWZMg-meLuOjY_UgoZB3123L0WraXTXQE0l', 'width': 4000}]",ChIJjR7bE9O3aC4RWwctDR8bc-Y,5.0,"['tourist_attraction', 'point_of_interest', 'establishment']",1.0,-7.1301861,107.9438838
"RWQR+MH6, Situ Bagendit, Sukamukti, Kec. Banyuresmi, Kabupaten Garut, Jawa Barat 44191, Indonesia",Bagendit Lake,"[{'height': 2464, 'html_attributions': ['<a href=""https://maps.google.com/maps/contrib/117210774870871837386"">Alfi Lava</a>'], 'photo_reference': 'AUGGfZnG-yRwy-T0uqkRBK6zRPrsEVcmvL8pH4K93pj_9Kv4fHoA8FPmeqdVTc0CTzRdQYNpCIQdSLT3XcpYiZORlzOEl2jg_r3YJdkXa4aph9rX7svLIK4O-OR23p_vCULoi_3RUFfDxoVM03bXeRQmqrP1Yb8GPI_OKV3SMRAVfH_CYIeA', 'width': 3280}]",ChIJI3uChAy3aC4Rw9o7mmGPk8g,4.7,"['tourist_attraction', 'point_of_interest', 'establishment']",23.0,-7.160833299999999,107.9413889
"RXQ2+G4G, Bagendit, Banyuresmi, Garut Regency, West Java 44191, Indonesia",Danau BAGENDIT,"[{'height': 4968, 'html_attributions': ['<a href=""https://maps.google.com/maps/contrib/117033504406842892221"">A Google User</a>'], 'photo_reference': 'AUGGfZmVtG9Cw49JYYhWoIPykMwpshWivJU01ZW3I8hReMBRL-hByBYPevpMIqNtq4_1-B-kIHhjQwdcLTTzReekb0bUoneRjhGHzgpYNAin0MNH_aTzMOWBrJX7lgaqDIJ9yjXixwLtui0Fzu1DH3prN-5t6vVGg4OMoMqN5PCFCJRaKnb7', 'width': 3726}]",ChIJg9A7lhm3aC4RvChHOiqQ6DU,4.4,"['tourist_attraction', 'point_of_interest', 'establishment']",525.0,-7.1611768,107.9503298
"RW9H+JXM, Jl. H. Hasan Arif, Sukasenang, Kec. Banyuresmi, Kabupaten Garut, Jawa Barat, Indonesia",Sawah Abah Itang,"[{'height': 1600, 'html_attributions': ['<a href=""https://maps.google.com/maps/contrib/110366396760253750071"">Mochamad Ichsan</a>'], 'photo_reference': 'AUGGfZlDlMV5DwqMJJ3hj0nIT3rnkZI4dlBl7uAg16q9iyeA8JWcxASXt_8voTrLe_jHXfNb82InvJLuSeG7cM__7_6V5f03V9WN3KsDEAqFVEs2ar_NlY9ZaMsolI1XRwAAl2Rwb-Nms1pFuXsaGRhP2S_UJyKnjBVwjJ_zJMDQ6_pwBmzO', 'width': 720}]",ChIJm3ZoegCxaC4R31u-KMeftsE,5.0,"['tourist_attraction', 'point_of_interest', 'establishment']",1.0,-7.1809221,107.9299172
"VX8F+QHM, Dangdeur, Banyuresmi, Garut Regency, West Java 44191, Indonesia",Lengok Ringgit Riverpark,,ChIJ4bZaFQC1aC4RG7n7mMFNApM,0.0,"['tourist_attraction', 'point_of_interest', 'establishment']",0.0,-7.133034299999999,107.9739244
"VX8F+3V8, Dangdeur, Banyuresmi, Garut Regency, West Java 44191, Indonesia",Durian Runtuh,"[{'height': 4160, 'html_attributions': ['<a href=""https://maps.google.com/maps/contrib/103078270598151744189"">A Google User</a>'], 'photo_reference': 'AUGGfZknzCaa5Sw27rc5jZgtGp3rBVFMXnZBBq4HOf4ox66fr6JJwjyZ5f_9S0p5E5nz4BMjyJudG_tRoXQ9Hdsl3XtsIcfvOe1qNigfZuBfEBT2b0MKzJahxWLhUC3nSaJ8M1JVz7JveIF0m190VeBIbgnTFJdoRjS699slV1vARHyuKC99', 'width': 3120}]",ChIJs4S8xDW1aC4RkMPB8RbPaxg,0.0,"['tourist_attraction', 'point_of_interest', 'establishment']",0.0,-7.1348346,107.9747114
"VW99+QH7, Lamping, RT.001/RW.013, Margaluyu, Kec. Leles, Kabupaten Garut, Jawa Barat 44152, Indonesia",Sumber mata air sirahna,"[{'height': 2340, 'html_attributions': ['<a href=""https://maps.google.com/maps/contrib/116892835822948143492"">Kang IruL</a>'], 'photo_reference': 'AUGGfZkp8U8-vIlzfrVOLA7vA2_m3nMojVhrfgr5gB4CbOQKXL8dzpZkHV-Vwiy1qLiBCzqxb-8SqIbUm64BIS9y8zOzhs_Dp4NxWYYAMhazxY7d_BBCaQzWRyKuDFmKqTmDvfUwLVbzZoFcVxgtUfhq8Rur5zlLEf-zBz8aee4l3YwGPZQ', 'width': 4160}]",ChIJIxPdA-u3aC4RO_Kta-fOrho,4.6,"['tourist_attraction', 'point_of_interest', 'establishment']",69.0,-7.130578300000001,107.9189271
"RXH9+FMC, Cinunuk, Wanaraja, Garut Regency, West Java 44183, Indonesia",BRONCAP CIBOLERANG,,ChIJnzPpxlSzaC4RMTS_ZWrWDxI,5.0,"['tourist_attraction', 'point_of_interest', 'establishment']",2.0,-7.1713197,107.9691297
"RXWG+Q4W, Sukamulya, Pangatikan, Garut Regency, West Java, Indonesia",Leuwi Gosali,,ChIJpbomUgC1aC4R6Qt2wR9JZqE,0.0,"['tourist_attraction', 'point_of_interest', 'establishment']",0.0,-7.1530235,107.9753209
"QWXC+F22, Sucikaler, Karangpawitan, Garut Regency, West Java 44182, Indonesia",Pemancingan Tigin Tingtrim,"[{'height': 3120, 'html_attributions': ['<a href=""https://maps.google.com/maps/contrib/118183724926711931348"">A Google User</a>'], 'photo_reference': 'AUGGfZkhJcyKwSEwn0Y1Lq2tfQsqYwMQkFlyAe3OxpIqDPehp36E2JZeqx4Apr-tDwFuii_fL8wCK_6ymCG2cFionYmz3Y2DmKxvL8oo9HJUUfrO0AWnqmMKH5I0NeYaMAE9iKri40VoTZGbV_oGW27CJeJC3_77a1CePHMCaevxTpwymtBM', 'width': 4160}]",ChIJe4xMp4ixaC4RzAxoAnmJo74,5.0,"['tourist_attraction', 'point_of_interest', 'establishment']",3.0,-7.2013569,107.9200191
"RW4H+CXC, Kp.Tegal jati, Mekarsari, Karangpawitan, Garut Regency, West Java 44182, Indonesia",Paniisan kang uyed,,ChIJu43ztvCxaC4R-7ElYwEwDRU,0.0,"['tourist_attraction', 'point_of_interest', 'establishment']",0.0,-7.1940134,107.9298937
"VWRQ+PVH, Tambaksari, Leuwigoong, Garut Regency, West Java, Indonesia",SITU SARKANJUT,"[{'height': 4000, 'html_attributions': ['<a href=""https://maps.google.com/maps/contrib/102769231240838164340"">A Google User</a>'], 'photo_reference': 'AUGGfZnv9XztyEsytESuQ-HJ1Jj3OVHpWAwqqZSa_CongM_yKAhqxfHi60HHv3WpZmqokb1xWEICSGmdXxCJ66qM06YnkKcJE5sy9Phdzm232QQIFDmI7I1ry4RmeeoZO1Aoj9izWrL-rkQd4QO8rMwt8t0BUKqlUY4eTPsHAmemeYgMJ3jO', 'width': 3000}]",ChIJRx47sI-3aC4RkEv6pnWavcM,4.4,"['tourist_attraction', 'point_of_interest', 'establishment']",81.0,-7.108189899999999,107.9397315
"QWRG+5R4, Karangmulya, Karangpawitan, Garut Regency, West Java 44182, Indonesia",Saung Balong Nyingkur Haji Amar,"[{'height': 3472, 'html_attributions': ['<a href=""https://maps.google.com/maps/contrib/113006078584223686110"">Nasrul Maulana</a>'], 'photo_reference': 'AUGGfZmABnxWxBlG3Q6TfrueEZ4GiWjjnSezmsqzme3LoIOcPnD3xkQhzz1z7vO5iHiFn0yf0rGmpNzqifl8KYzo7-XIeV1U3E37tQ_jNGbb6ZrAmPikxwKbDvtKNNgemk3A8uaOOJim8B0hnmFxFT-2J3Qt3EHeV118LveoLsjwODhV5F17', 'width': 4624}]",ChIJK8mxyGuxaC4RUqEq33Nrp5w,4.6,"['tourist_attraction', 'point_of_interest', 'establishment']",17.0,-7.2096055,107.9270638
"RVPM+QGJ, Pasawahan, Tarogong Kaler, Garut Regency, West Java 44151, Indonesia",Pamidangan Domba Gunung Guntur,,ChIJ_xRmpza3aC4RbpwnTg7Av70,4.5,"['tourist_attraction', 'point_of_interest', 'establishment']",2.0,-7.1630279,107.8837527
"VWWQ+M2F, Kp, Jl. Pasir Luhur, Tambaksari, Kec. Leuwigoong, Kabupaten Garut, Jawa Barat 44192, Indonesia",Tebing Tugaran,,ChIJhRLSJDu3aC4RUGYUq0OK-E8,5.0,"['tourist_attraction', 'point_of_interest', 'establishment']",2.0,-7.1033124,107.9375326
"VX6H+JJ3, Jln.citameng Rahayu, RT.01/RW.01, Sukamulya, Kec. Pangatikan, Kabupaten Garut, Jawa Barat 44184, Indonesia",Leuwi Teureup,"[{'height': 1932, 'html_attributions': ['<a href=""https://maps.google.com/maps/contrib/105889059551838329457"">Sandra Yudistira</a>'], 'photo_reference': 'AUGGfZmpseuOw5gzGE-wSeRMUqKp2VTXkR1Up0M3MfpbwtfAPNDdVTlvLo6pKM8Z-rJI0C80sUsH_ByhB94dduj4apXpMevCgX3lQzQVVjLOFQ2_oCeveiDoKv4gPCrPTxfQRRz8pnR7lbsZ3iLlHuPmQgAYzEA_Dvgg2rZOYZVsT0itHLdM', 'width': 2576}]",ChIJ-Q2hi1i1aC4RtrO2UF9MmI4,0.0,"['tourist_attraction', 'point_of_interest', 'establishment']",0.0,-7.138489099999999,107.9790549
"VXW8+5Q4, KP PASIRJUNTI, RT.04/RW.09, Cibatu, Kec. Cibatu, Kabupaten Garut, Jawa Barat, Indonesia",KOLAM PAMCING ISUR,"[{'height': 2600, 'html_attributions': ['<a href=""https://maps.google.com/maps/contrib/108288870138812242369"">A Google User</a>'], 'photo_reference': 'AUGGfZnLhiiweG4ukvuLdczqujIbQL8PPqs4QM4fjGQxs8JGJrauXzSqdwdr0-xJXyHgUxp5O0oqmdVFvmn4bJJGZ1ETBNAgAB6salgAf2DSKKE6VqwWRopDZZqJaIjP0YolLFYPS_0p9HVVIwzm-VFR7A-4DAgixm6yBcWc25WpnJvw6bJA', 'width': 4624}]",ChIJKZrdOAC1aC4RNF_sFRVXnoM,0.0,"['tourist_attraction', 'point_of_interest', 'establishment']",0.0,-7.104609,107.9669467
"RVMM+2W9, Pananjung, Tarogong Kaler, Garut Regency, West Java 44151, Indonesia",Lotek lilis,,ChIJFyEWn5OxaC4RRadMMdQ92Qk,5.0,"['tourist_attraction', 'point_of_interest', 'establishment']",1.0,-7.1674544,107.8848648
"QWRP+M53, Karangmulya, Karangpawitan, Garut Regency, West Java 44182, Indonesia",Situ Cikalimeneng garut,,ChIJ-_5E25-xaC4R7_3ptiKi7o0,0.0,"['tourist_attraction', 'point_of_interest', 'establishment']",0.0,-7.2083676,107.935409
"Jalan Raya Wanaraja No.415, Wanamekar, Kec. Wanaraja, Kabupaten Garut, Jawa Barat 44183, Indonesia",Cinunuk Garut,"[{'height': 4096, 'html_attributions': ['<a href=""https://maps.google.com/maps/contrib/110735803799044995044"">aji muhamad soleh</a>'], 'photo_reference': 'AUGGfZmW2qghUJ7NFMgWF79LkzOMs70mdSzjcqX0fA-4Do83ERV0uKS0i5-nHyo-GlsZlVspKwAMEhIzKwLjiyxWDQERSfNXXXa6lyG6viZfK2uPR98iHBQ0gZZYKuwqQhVtX1DJ-6x9Jh7NDnXQJabxZwHDQyp0f7YuOOf8MjcpCrwMYIGr', 'width': 2304}]",ChIJxamVIaGzaC4RmzD9R-nrsqk,4.8,"['tourist_attraction', 'point_of_interest', 'establishment']",5.0,-7.16667,107.967
"VWWC+57M, Cangkuang, Leles, Garut Regency, West Java 44119, Indonesia",Spot Selfie As-Syifa Situ Cangkuang,"[{'height': 4032, 'html_attributions': ['<a href=""https://maps.google.com/maps/contrib/113231795185440904318"">A Google User</a>'], 'photo_reference': 'AUGGfZnxw9slKxmqf4Iq7iF8o2P70pLXaVnaPZeyeXc4etfKVi7hJpNEe-7nbMbp0PFuKzpGCvyiWrlsXSsoyZiUFvapMgdMbDhNhWSBkDEr8sA_VpNQeWpI62acB2BPsf_jl556SqHLVB7WsK5nX2WMcIaNWXbFQd38gxEUj7q3CROm7Ip2', 'width': 1960}]",ChIJ3a8y2Je3aC4RZn3E6r7wFLM,4.7,"['tourist_attraction', 'point_of_interest', 'establishment']",3.0,-7.104531799999999,107.920682
"VVQW+6X3, Leles, Garut Regency, West Java, Indonesia",perusak alam indah garut,"[{'height': 452, 'html_attributions': ['<a href=""https://maps.google.com/maps/contrib/110426404141424321613"">A Google User</a>'], 'photo_reference': 'AUGGfZmAd3k4G79o0sWA2Lo2z1ouACjFHAqUZlH_7RYzbVPhBGZ24sMJxt_3Pw13YgMywYnO7URGCeADgx9wkFBXAWlNcu_gz8J2NrZX7JSdPyhv8KaZe5gll4tDxbWOCThDu0Q0q2x9ZVKwomUxSU3-EG4jj0D_wYICVttIOS8eoHqGgXbp', 'width': 678}]",ChIJWdr3NwC3aC4Rx69zNkW43iw,0.0,"['tourist_attraction', 'point_of_interest', 'establishment']",0.0,-7.111976899999999,107.8974319
"Dano, Leles, Garut Regency, West Java 44152, Indonesia",Curug Ciharus Dano Leles,"[{'height': 2448, 'html_attributions': ['<a href=""https://maps.google.com/maps/contrib/118217648173002849259"">Renaldy Scootrasta</a>'], 'photo_reference': 'AUGGfZkVufn42n8zHP9fPiWfRfteJV8CV0GvbjdDx17uFVNJdIZSNxjWfdZrQNrr6wSNBY9CZOLwnCvprxHmokvZ8bQo2yOT_SD8kOeDtB7-hcWwNDMGpu2DpC8tfqHNqXbOQ5otzZHjLqqE9ilPP1wBocKy5B0hC3JydLnp-PwN4x2bWkSB', 'width': 3264}]",ChIJQ9f0xC24aC4RCKIFrDwFZmA,4.3,"['tourist_attraction', 'point_of_interest', 'establishment']",197.0,-7.1207669,107.8484857
"VWG9+G55 Homestay desa wisata, Margaluyu, Kec. Leles, Kabupaten Garut, Jawa Barat 44152, Indonesia",Desa wisata pusat icconet margaluyu,"[{'height': 3840, 'html_attributions': ['<a href=""https://maps.google.com/maps/contrib/100577362858807042732"">A Google User</a>'], 'photo_reference': 'AUGGfZmPFfpL5paWsd54G5min9IDTAkvWc2txMwHXvuqmDfpmKyoi_N7HcgFxy8ZTHz_yXngo9ROZ3xwjlCgPiO8340ZYl6YDIKfFJ4DzNnCLQMjjpjmaYw9URrt4i0SpIoTrjBbN1KSOIP_L9mX5ptHtJeU2Prk8YJ5_7vCe7OvfrmiLa2E', 'width': 1728}]",ChIJsZhtTvu3aC4RnhNimQFbHNo,5.0,"['tourist_attraction', 'point_of_interest', 'establishment']",2.0,-7.1237413,107.9179937
"RXPH+PH8, Wanasari, Wanaraja, Garut Regency, West Java 44183, Indonesia",Eco Green Park Wanasari,"[{'height': 808, 'html_attributions': ['<a href=""https://maps.google.com/maps/contrib/105629720948962208217"">A Google User</a>'], 'photo_reference': 'AUGGfZlbamiL5Sd5W_qS9ocOPT5_dhn3PLNQdbWmBmslijP2stmSFkW6-bW5iCrDFSyCJU0vY5o3p_Ri5jwiu9D1HB_zBqD59draUEvElwCuGsRYvZCN5K9BSLjm88MAAhEItKcHm0wGgTPYosMjw3y_W2NkoyH0H-Fv37N-0eP-0GlQo3iC', 'width': 1080}]",ChIJm9p2TeCzaC4RG3AtARcbeME,5.0,"['tourist_attraction', 'point_of_interest', 'establishment']",3.0,-7.163208399999999,107.9789553
"QWRP+HX5, Situ Bundar, Jatisari, Kec. Karangpawitan, Kabupaten Garut, Jawa Barat 44182, Indonesia",Bundar Lake,"[{'height': 4160, 'html_attributions': ['<a href=""https://maps.google.com/maps/contrib/105811230901787871611"">A Google User</a>'], 'photo_reference': 'AUGGfZliLKTmcL2k8576nmMHiS8tuguMrtXOeztAacce499qGzNaeScggIt1AxHv-Grjb2GnzuYlPiPg5ZYVmO1rcagYziHHbgfcIfuI6dd6ZwIiLRyfZM47mWUETL-qACrAQxNJcAVhXtmjg_jyoEOaWtOLGqbkcg-GEbDmhqoriTQukX4B', 'width': 3120}]",ChIJy1yjqcGxaC4RupqdKuHBLXk,4.0,"['tourist_attraction', 'point_of_interest', 'establishment']",1.0,-7.2086111,107.9375
"Jl. Sukahaji-Wanakerta No.61, Sukaluyu, Kec. Sukawening, Kabupaten Garut, Jawa Barat 44184, Indonesia",Balong Pa Aki,"[{'height': 960, 'html_attributions': ['<a href=""https://maps.google.com/maps/contrib/116367802598302889754"">Susi Susilawati</a>'], 'photo_reference': 'AUGGfZkgeBYowApWyNSWn1lAfcObvgZMVFQJHWBZLbwApGthtf1nhqzTtjnPNNZFqTNQgCmdvD73Jdqw2ZcJYZw_7XpM7iQxERKqc-onkNbtl1qRtSDx3_8lLX1Xk_cRZAApnKDBMn8zozdxXCO1Wac3eflUzI3mEZKhevGjwY1T4W2B85mj', 'width': 720}]",ChIJT8EefZa1aC4RrkKaB1DZKqk,5.0,"['tourist_attraction', 'point_of_interest', 'establishment']",1.0,-7.114127499999999,107.993969
"RXH9+JGH, Cinunuk, Wanaraja, Garut Regency, West Java, Indonesia",Curug Cinunuk,"[{'height': 1932, 'html_attributions': ['<a href=""https://maps.google.com/maps/contrib/105889059551838329457"">Sandra Yudistira</a>'], 'photo_reference': 'AUGGfZn09ZMlTElqadKX4qrypt9t7yRZWPSCJyLOSc96INWEanxkCu4kXy33x5XeHnGYgVIn5GH0SOt0f4w8GSFei7-X48LMU0rE0fiwjOBW9h3yfJZVPSG2d8lKm-of9pzV_f9ApBNERhHK4T7SVft_-LUsL9PyfWNVs74Aa96u8ofBtJuB', 'width': 2576}]",ChIJQ2rtLgCzaC4RwoPc0MnROJ8,0.0,"['tourist_attraction', 'point_of_interest', 'establishment']",0.0,-7.1709263,107.9688508
"QWMC+HCR, Sucikaler, Karangpawitan, Garut Regency, West Java 44182, Indonesia",Tugu Suci (Bukti Kang Rudi - kang Helmi bersih dari korupsi),"[{'height': 4160, 'html_attributions': ['<a href=""https://maps.google.com/maps/contrib/100864137608937316624"">A Google User</a>'], 'photo_reference': 'AUGGfZmxH_VwGf5ulkze9fZ6H3XjKGz8ed5OSAxRqOXToqm4bL4XTzheXaedcihWEJEPKKMbJtIOulnxrLy1wgbO7XpfSjc-6NWvVl1CESEYlEVBBhdvIdjSPabti6r-yy6iYcO-b3DQcc3Z1GCcz9070otP3FiP9uNPeDWkUdKnymIAD7eX', 'width': 3120}]",ChIJAVRLacmxaC4R3Ys-wlCQd5A,5.0,"['tourist_attraction', 'point_of_interest', 'establishment']",1.0,-7.2160362,107.9210518
"VX4W+3M4, Sukawening, Garut Regency, West Java, Indonesia",Sawah Syahla & Syahdan,,ChIJM8b3XAC1aC4RxSpvOzptuAM,0.0,"['tourist_attraction', 'point_of_interest', 'establishment']",0.0,-7.1448711,107.9967082
"Kp. Lolohan, RT.002/RW.013, Cangkuang, Leles, Garut Regency, West Java 44152, Indonesia",Desa Wisata Situ Cangkuang,"[{'height': 3000, 'html_attributions': ['<a href=""https://maps.google.com/maps/contrib/117470284031026236329"">aiss greyz</a>'], 'photo_reference': 'AUGGfZkvZaDnFh0iFqFU4BNokcP56HfrbiHQdynbZD3M5A9RQhkYzyGzxbwQRva6JL0tjjIMAhgTubPd_k6WYeh9Q5viElRmnW8grnut3ZQ6CR34NbULxu0X5l0Dd0iVyk3NYnHWEXnYuAN5ixp2cxRa0zToZ5E3E64nyskZrynkAZwjlw1Q', 'width': 4000}]",ChIJVwo9Yby3aC4RmIZTIr9qRxc,4.6,"['tourist_attraction', 'point_of_interest', 'establishment']",44.0,-7.104440899999999,107.9204194
"V246+G6P, Jl. Raya Cijambe, Sudalarang, Kec. Sukawening, Kabupaten Garut, Jawa Barat 44184, Indonesia",Kelompok tani pgc jaya talas,"[{'height': 1080, 'html_attributions': ['<a href=""https://maps.google.com/maps/contrib/112552525759056723228"">Indra Gunawan</a>'], 'photo_reference': 'AUGGfZkKU7dj1Ej1o_MInmHKQgM4TYman0215QUMod1D8E0_tG8PvNlJVnXloPY48TM6lefX2Vb4_ZtPO1yLay6udkZxSwWxhsQzCsELgUKPlmnpmIoEiQhJMfzzJnHLokRnDeDly4BHsadZTJM_L4u13ahOwPhL4V1CWEX-JGLbGiS1SLjC', 'width': 1920}]",ChIJrYkcUsq1aC4R66s_dnNkUTo,5.0,"['tourist_attraction', 'point_of_interest', 'establishment']",1.0,-7.143661799999999,108.0105772
"RXXQ+6HX, Kp, babakan sari, Kec. Pangatikan, Indonesia",Peternakan bebek meri,"[{'height': 1080, 'html_attributions': ['<a href=""https://maps.google.com/maps/contrib/106876072077209043531"">A Google User</a>'], 'photo_reference': 'AUGGfZlKSEl8Nd957i1VKoMLRtrdymU3z-hNM1JNX7mQS0ebIgOCmC5L-EWpxvoYIQ4lZbak5w4VlxmeTiBm50inv_hHe_-eRbKfExcVheT0kGiKHYmF8lgvcNyTzt3lY2FJIANwmgxrqSVnDNvS2i1zIh8jgehuE3_l-izxqtzftBG17suk', 'width': 1920}]",ChIJb9CoOTa1aC4RtQMrxiL_AxY,5.0,"['tourist_attraction', 'point_of_interest', 'establishment']",1.0,-7.151884099999999,107.9889888
"WW58+G55, Neglasari, Kadungora, Garut Regency, West Java 44153, Indonesia",Pamidangan jayareged,,ChIJT0Pk0uy3aC4Re4X6LRrJCmw,4.0,"['tourist_attraction', 'point_of_interest', 'establishment']",2.0,-7.0914627,107.9155734
"RVQR+PFX, Unnamed Road, Pasawahan, Tarogong Kaler, Garut Regency, West Java 44151, Indonesia",Teras Gunung Guntur Bird Club,"[{'height': 899, 'html_attributions': ['<a href=""https://maps.google.com/maps/contrib/115808086478154618499"">A Google User</a>'], 'photo_reference': 'AUGGfZlnlVAGGW7Ma-5BPDzpxMwCjLSn3jhXaY6SS4Xvu1iUsxKSyq3698m91uvueEtisY3jlsMCsOfhkovC2TY-r0Iv4bcMW6QHhb5xoOkHlk4V-cuywwZ4dIKkcZ0Wn5BOHV8YfdAg7tB-fiJqZXyn0dRlIEX_X7vOEPbfoRn3xl2L0PYt', 'width': 1599}]",ChIJ3e_l9cW3aC4R9xsJdI-hbHU,4.6,"['tourist_attraction', 'point_of_interest', 'establishment']",14.0,-7.160628099999999,107.8912277
"VXPJ+2MG, Kertajaya, Cibatu, Garut Regency, West Java 44185, Indonesia",Wisata Mancing Pak Iwan Cipanas,,ChIJX3X-WwC1aC4RTLhVEN5py1U,0.0,"['tourist_attraction', 'point_of_interest', 'establishment']",0.0,-7.1149472,107.9817076
"Jl. Cikole No.53, Wanasari, Kec. Wanaraja, Kabupaten Garut, Jawa Barat 44183, Indonesia",WISATA KULINER WANASARI,,ChIJG4q1ZTyzaC4RGaYCli5m5eQ,0.0,"['tourist_attraction', 'point_of_interest', 'establishment']",0.0,-7.1697865,107.9801387
"Jl. Raya Wanaraja Jl. Samanggen No.Kampung, RT.01/RW.01, Wanajaya, Kec. Wanaraja, Kabupaten Garut, Jawa Barat 44180, Indonesia",Galeri seni Rumah Kubisme,"[{'height': 3120, 'html_attributions': ['<a href=""https://maps.google.com/maps/contrib/112909879433284759001"">Rizal Ansori</a>'], 'photo_reference': 'AUGGfZkoDjRK09Ffj6a2Z5NY1IftHfsx2OioZnoqzyylA6jS32uiFjBdDjaZK_yRaWIUXPi2HggGexZ5GZ7vvREdP2y1VkopOMzCwcO1nCN1ddTeviCON-B7cJqwhPLB1nHLdJ7UlAGnETmkKdO2XP55pQn3zIHHxpTvHxCAVwJWpJI_NaeZ', 'width': 4160}]",ChIJATN66E2zaC4Rycm5QIGQdR4,4.9,"['tourist_attraction', 'point_of_interest', 'establishment']",18.0,-7.167682800000001,107.986439
"VX5H+F6Q, Jln.citameng Rahayu, RT.01/RW.01, Sukamulya, Kec. Pangatikan, Kabupaten Garut, Jawa Barat 44183, Indonesia",Wista Sawah Blok Tanghi,,ChIJ-5q-a2G1aC4R5Kf5A2VXkaU,0.0,"['tourist_attraction', 'point_of_interest', 'establishment']",0.0,-7.141277199999999,107.9781175
"VVWF+HMV, Nagrog, Lembang, Kec. Leles, Kabupaten Garut, Jawa Barat 44152, Indonesia",Padepokan Jati Rahayu,"[{'height': 322, 'html_attributions': ['<a href=""https://maps.google.com/maps/contrib/114286109989546711627"">A Google User</a>'], 'photo_reference': 'AUGGfZn7KyVwLGAbp7PmFCX52ZYJ8oYrjeIKgk5hiLhTUX7qrOIJ182PibIEzW8MjLFcpAAfOsR8LjHeBIxeZHLHdZ83dk2CngJxnQgOoT3h06zzFILcc87ik8NrFFmeG9ADrZDe6sW4ut_S9NMC7JisgZezb-JkzSC-YZOLHYVc8DuX6pne', 'width': 715}]",ChIJL8suS9m3aC4RdoxSwwCw9Bs,5.0,"['tourist_attraction', 'point_of_interest', 'establishment']",1.0,-7.1035254,107.8741189
"RX58+VWX, Lemahsari, Situjaya, Kec. Karangpawitan, Kabupaten Garut, Jawa Barat 44182, Indonesia",Saung sahabat tani,"[{'height': 4000, 'html_attributions': ['<a href=""https://maps.google.com/maps/contrib/114127721897700659636"">A Google User</a>'], 'photo_reference': 'AUGGfZl3pn_L9NZsoqtW4TJ-8O4oVeoU2WqA4AFekPD7yBwgRxsA_FNQ9UX50MGP2RGP2GFaBMWV72v2HB0sQFR2-YaXgK2x2m23n4gCn5XKq_gY9o4cgtTj_QYt7BnayxXmCkIsixn0ijcL2HRjjuduTrBuki4Xrrqz9LO-HkY6uRTCxbj3', 'width': 1800}]",ChIJi89s9uezaC4R07sXIV_Jzys,5.0,"['tourist_attraction', 'point_of_interest', 'establishment']",2.0,-7.190256000000001,107.9673502
"Jl. Subyadinata No.509, Jayaraga, Kec. Tarogong Kidul, Kabupaten Garut, Jawa Barat 44151, Indonesia",mama,,ChIJHbcSyi-xaC4R2ZvaQpj8UWc,3.0,"['tourist_attraction', 'point_of_interest', 'establishment']",2.0,-7.2065154,107.9010401
"Jl. Desa Karanganyar, Karangsari, Kec. Leuwigoong, Kabupaten Garut, Jawa Barat 44192, Indonesia",Pemancingan Garut,"[{'height': 1200, 'html_attributions': ['<a href=""https://maps.google.com/maps/contrib/114626820765842123517"">Erlandna Azfarly Rachmadrian</a>'], 'photo_reference': 'AUGGfZmv7o0jZU2Qj0HdqVoaiNxwPTFA11vFfENCBWAl5BEWEYIpNJvPlyHjlkJ0fLPivSjV-6wdUY3uMwmS9FenQB65DD2PmusU64vdmj3bfBDQ5ypc74-XJvH3Ul6bN3V-vncF-ug7kfrwrwaS-fe1t9fpQAaqi4Q8Vlu2Bid7DWWowPWl', 'width': 1600}]",ChIJK8UpPUe3aC4RyhZ426y36pA,5.0,"['tourist_attraction', 'point_of_interest', 'establishment']",1.0,-7.096093199999999,107.933897
"Kp, Lemahsari, RT.003/RW.003, Situjaya, Kec. Karangpawitan, Kabupaten Garut, Jawa Barat 44182, Indonesia",Saung Sapta Rengga ( Bpk Alo/ Ibu Nina),"[{'height': 2250, 'html_attributions': ['<a href=""https://maps.google.com/maps/contrib/102348782795162591729"">Shofyan Ambiya</a>'], 'photo_reference': 'AUGGfZltp-ZPnUff2NHaI-5qK4Vnst3psadYKXAehEIRqjn5nCAmwqEvghfGycqB2coWfcR5fa-WGHhor_0S8fyAhoXGlHeEUWKrC9HsFkAcCZscWJVjy11AeV0YXtgVs_Niholu90VvaA-plAdun7gag3m1zSsgp8sXKqZySqLQVd2MDJxJ', 'width': 4000}]",ChIJL1s5_nOzaC4Rn4rKnIX-CG0,5.0,"['tourist_attraction', 'point_of_interest', 'establishment']",3.0,-7.189868499999999,107.9673594
"QWC5+RFP, Kota Kulon, Garut Kota, Garut Regency, West Java, Indonesia",Saung situ bagendit,,ChIJRdNQVXyxaC4R90CADBh8q8k,0.0,"['tourist_attraction', 'point_of_interest', 'establishment']",0.0,-7.227905499999999,107.9087043
"Jl. Raya Bayongbong No.165, Mulyasari, Kec. Bayongbong, Kabupaten Garut, Jawa Barat 44162, Indonesia",KaliCimanukSampingVillaUngu,"[{'height': 1600, 'html_attributions': ['<a href=""https://maps.google.com/maps/contrib/114617211827711677763"">A Google User</a>'], 'photo_reference': 'AUGGfZniJ0P4_KXDHYch_F0qW0txeoUhqPGln1N6YNyN3T3oMv9s4Ju0Ljfc8yHZVqytYVqDEO_2SwvEDngL0Q19tWkHgcVLk8GSB7advYho-omjj0ObB8qx264AvYwcFOHKGZflROE5PHqcwIWhE35vKmp2I19eoEblOdTEfWfd3tInK0Sr', 'width': 1200}]",ChIJM1ACHAClaC4RNxcPl4wRyPQ,0.0,"['tourist_attraction', 'point_of_interest', 'establishment']",0.0,-7.2682616,107.8228826
"Bayongbong, Garut Regency, West Java 44162, Indonesia",Wisata Kebun Naga Poernama Garut,"[{'height': 4000, 'html_attributions': ['<a href=""https://maps.google.com/maps/contrib/112994453662297509150"">tins aisya</a>'], 'photo_reference': 'AUGGfZmrJ0GFSZLf_nmpAn2MJfOjy3eUHCRFB4o7sMVAow42j8cMJtAB7i-Ll15P7H5fK5c-yyqLt3uOPKAhLcNIBx9Twd28or3rD7x93q_4Obr42w9O8E6CPsYlut8MUFZPUBGS4toh0HfPILu58ILY7D7JsO7cq7gArJVnTLJ0s3FF_Psu', 'width': 2256}]",ChIJLcfda1-laC4RCnp3TiHWtgE,4.7,"['tourist_attraction', 'cafe', 'park', 'store', 'restaurant', 'food', 'point_of_interest', 'establishment']",182.0,-7.274121699999999,107.8212185
"PRRP+H2H, Karyajaya, Bayongbong, Garut Regency, West Java 44162, Indonesia",Garut 2 Rumah Mba keke dan nde eca BAYONGBONG,,ChIJb3W9DgClaC4RkSi-5lW0rzI,0.0,"['tourist_attraction', 'point_of_interest', 'establishment']",0.0,-7.2585643,107.8351228
"Baru gantung, Sukamanah, Kec. Bayongbong, Kabupaten Garut, Jawa Barat 44162, Indonesia",Terasering barugantung,"[{'height': 3250, 'html_attributions': ['<a href=""https://maps.google.com/maps/contrib/104654127506205467050"">A Google User</a>'], 'photo_reference': 'AUGGfZnHt45OQ2mHVrnZ3tjHnqrcRSH8aqxmbp8aZJXZItk-1-hFOcwX9IRK2pHCXbSpR5jXXdueSEJR2ajSkqLvzWMUhpaF4V6dU1D2fR8v3j5LMsLSelzR2tiO2X21eGTuaTg5LW3N5JNrwRlXcuqZlXSVPMEUuWIWdbURkw06gnSDG-Th', 'width': 2599}]",ChIJT8OqVaalaC4RPyWhrEBttxc,4.8,"['tourist_attraction', 'point_of_interest', 'establishment']",22.0,-7.280104,107.8528754
"Kp. Macan, RT.01/RW.04, Hegarmanah, Kec. Bayongbong, Kabupaten Garut, Jawa Barat 44162, Indonesia",Danau Cilameta,"[{'height': 1488, 'html_attributions': ['<a href=""https://maps.google.com/maps/contrib/104910187637453366249"">A Google User</a>'], 'photo_reference': 'AUGGfZmUu3u8-rw2PGKlPR2uG5mBqXoH7xBx-u64NaTVPCs-hq1w3YJgm7KQaLVWPgP1XXEGJillAPgaz37BxCUSIwCyerwdN7GuqVVxOR-uZH62BqCogK2pe3gzvAtU2K_m1kFd1qAZMSRq1Nokfyv3Y_KBfxHICQhT3Dus3kigJI9OkThH', 'width': 3120}]",ChIJpZsuPpylaC4R7vDkblFGNX0,5.0,"['tourist_attraction', 'point_of_interest', 'establishment']",2.0,-7.2707142,107.8569058
"PV93+H4R, Sukasenang, Kec. Bayongbong, Kabupaten Garut, Jawa Barat, Indonesia",Terasering Garut,"[{'height': 4032, 'html_attributions': ['<a href=""https://maps.google.com/maps/contrib/114923165163824978376"">Hilman Nur Hakim</a>'], 'photo_reference': 'AUGGfZke6m7t7lyA48yi6YF6THMHGjfGK19I7axg8F1vXaNDiObv5ysH1awup87BAN0fUw4r5f0CU4_sgguElifydDG687iWSX86HRLGWG-CNsa9Uo7J8QMDOgW2VjMuonkNVijH4v7Tc2PCn3WQtgLbbZhZSDqV6qXeP1l-kbi7zCrrmrN3', 'width': 2268}]",ChIJd1Qn4TilaC4Ru92uHnsU51A,5.0,"['tourist_attraction', 'point_of_interest', 'establishment']",8.0,-7.2810063,107.8527544
"Kp.Cikareo RT/RW 04/04 Des, Salakuray, Kec. Bayongbong, Kabupaten Garut, Jawa Barat 44162, Indonesia",Bukit Alam Bobojong,"[{'height': 1040, 'html_attributions': ['<a href=""https://maps.google.com/maps/contrib/101982533001754229498"">A Google User</a>'], 'photo_reference': 'AUGGfZkKfBN91QYTX79-Qz_FKrY6MdXW7jB7E0XqWfHKfKd4ISuWrA_ZYsVDm9NhE8GM4aaLSD8XvlHH4slkPvXCHHMkVZIbtseRn11-2jG160oxzEigDjVlxWg8xrx7IDxwMpfB5D-1W48kvtHPF_R_xeMuQnGL_LNJFXXm_OR6oCgrfrVL', 'width': 780}]",ChIJi6wp_HKxaC4R1MwVF5XJzgs,4.9,"['tourist_attraction', 'point_of_interest', 'establishment']",9.0,-7.245415599999999,107.8658767
"PVR7+X4P, Salakuray, Bayongbong, Garut Regency, West Java, Indonesia",Monkey D. Luffy,,ChIJYVIQN42vaC4RuD6cYdzwUv4,5.0,"['tourist_attraction', 'point_of_interest', 'establishment']",2.0,-7.2575342,107.8628748
"PRWR+F8J, Kp gunung bodas, Cikedokan, Kec. Bayongbong, Kabupaten Garut, Jawa Barat 44162, Indonesia",Gunung bodas (kulon),"[{'height': 1920, 'html_attributions': ['<a href=""https://maps.google.com/maps/contrib/106209679059074704718"">A Google User</a>'], 'photo_reference': 'AUGGfZnMq213DrugRBhJv2r35RnzwgMcuVRHa18WkUL742_vR2XxzeuCTlC-FvQ3v7er1gxRG9jgz_u4WIGy6dpI7vhef35Nmk6LHgtziemOFvP9xUcA4shTD8uR7fquXZRgdC-45zvJ7WBwI3CxkI7EINDMePWTQoMvPuFIPiR6GTTKpAFY', 'width': 1080}]",ChIJ6Tlv002laC4RWt_J-Ya47_U,3.7,"['tourist_attraction', 'point_of_interest', 'establishment']",3.0,-7.253788399999999,107.8407508
"PV65+C98, Unnamed Road, Hegarmanah, Kec. Bayongbong, Kabupaten Garut, Jawa Barat 44162, Indonesia",Curug Cigandi,"[{'height': 2048, 'html_attributions': ['<a href=""https://maps.google.com/maps/contrib/107671192173760694310"">A Google User</a>'], 'photo_reference': 'AUGGfZnXgXK6MdtOm8naNjEscbVK39U4h60fpgzzwG_dnveTl8FJ3In2V0k66D5TsQTexmfxR7r8RSe1bUTKWyTQANSeyntLb4dxaeg5xmLpVxgi_V3_mFs1fDO1vqNgr4MVQ-QSdbPLbDAN3YfQfg7doEKHIbwvGABdABsxE7WFLZIVtiVn', 'width': 1536}]",ChIJxdEmQjCvaC4RewvrDYKw-5E,3.3,"['tourist_attraction', 'point_of_interest', 'establishment']",8.0,-7.288961,107.858445
"PVC3+6FQ, Sukarame, Bayongbong, Garut Regency, West Java 44162, Indonesia",Viral Barugantung,"[{'height': 2736, 'html_attributions': ['<a href=""https://maps.google.com/maps/contrib/118356080011128490443"">sri amirul alam bastari</a>'], 'photo_reference': 'AUGGfZmRJD4QQaguxEOeZtCgh8aPHw-B-Z3VSzsf1lUTdyU2-RADYj1gf1foncvyDrIu2h5JnFKCn2P9Bgo-bM2UQIJV_7N5ANOJESli70IiTwtnlf9qBAbI96Im320LR58SeiZhudg_3D8-ZD_0MXUQ-45f5qwbMfkZxXzKXvKAJh2z7YFv', 'width': 2736}]",ChIJ2cGuZOalaC4RGNWQgmlXUBU,4.8,"['tourist_attraction', 'point_of_interest', 'establishment']",4.0,-7.279573900000001,107.8528992
"PRMF+PWV, Bayongbong, Garut Regency, West Java, Indonesia",Pasar wisata samarang,,ChIJafPwMgClaC4RuUUe79Ehjwk,0.0,"['tourist_attraction', 'point_of_interest', 'establishment']",0.0,-7.2656281,107.8247895
"PV93+H7, Sukarame, Bayongbong, Garut Regency, West Java, Indonesia",Bukit pandang,"[{'height': 3120, 'html_attributions': ['<a href=""https://maps.google.com/maps/contrib/115265638901371824813"">Bayor Wungkul</a>'], 'photo_reference': 'AUGGfZkrWrJ6PuX1gJpothjtXf1Ukj7hg79rvq_5S8TZ6vP_RdQKJ3oEM4v7006ZLkyEQMkQOVCMiUrDbjMTsnGwrAtGf7OERlaprd7OQuKVIOHYgIjf63CIMsvCoiCINB0LlGDL9KLW_P3OVJgwntrwrSfsYqnLmnyN2mX-vvm94VgAp59S', 'width': 4160}]",ChIJV1XvaHelaC4RxmYWlvzDfpE,3.0,"['tourist_attraction', 'point_of_interest', 'establishment']",2.0,-7.281104799999999,107.8532146
"Pamalayan Kulon, Bayongbong, Pamalayan, Garut, Kabupaten Garut, Jawa Barat 44162, Indonesia",Situs Ciburuy kabuyutan ciburuy,"[{'height': 3456, 'html_attributions': ['<a href=""https://maps.google.com/maps/contrib/110056621656145699714"">Danu David</a>'], 'photo_reference': 'AUGGfZkFf3uqcmDM9NHvar5xZ1XmPwkEf2lUHRNYtZJMCSrQqw0PXciKf8SU5dtI3Pchgf46mGX_6JrHig2h0i7FwkMScZpOQc6yYyGVZpIuozu98W2EW7HNwV_F7CvX87GGCU0yOx85C05_5ZctVBGhgbvqSZB1L8nzu3j7TEADim1Ysjo', 'width': 4608}]",ChIJ3_22OqalaC4R0uEgNeRHGbw,4.5,"['museum', 'tourist_attraction', 'point_of_interest', 'establishment']",112.0,-7.294748800000001,107.8236927
"QR5V+MH3, Jl. Cioyod, Mekarjaya, Kec. Bayongbong, Kabupaten Garut, Jawa Barat, Indonesia",Villa Rayyan,"[{'height': 3024, 'html_attributions': ['<a href=""https://maps.google.com/maps/contrib/101461457161165791681"">A Google User</a>'], 'photo_reference': 'AUGGfZmCDBanotel1Kd4kJjsX3rKvBIVx03jobTd3rc3r-Dzafu3aMbsSauvG_Gcij-oHFVyoAw-zIXD-M0ll8BPNGBdNk5PepeZqas7mk-A5Vl8PASVNwQ2GwVDvEqO0gCSaBWK_kn_vNTn2vx3b0al-2DbD27eYi49d5Vvu4assf6tL-Eg', 'width': 4032}]",ChIJg525HQC7aC4RlmAt_yCtSFc,5.0,"['tourist_attraction', 'point_of_interest', 'establishment']",17.0,-7.240511000000001,107.8442836
"XXPJ+J88, Ciarus, Ciwangi, Kec. Balubur Limbangan, Kabupaten Garut, Jawa Barat 44186, Indonesia",KAMPUNG WISATA River tubing anak -anak/papalidan,"[{'height': 1080, 'html_attributions': ['<a href=""https://maps.google.com/maps/contrib/113397980785926073858"">A Google User</a>'], 'photo_reference': 'AUGGfZnFXPBlv_Re0flAWoBL13ek8H7tozO_T1MG_U3TCrPl0aYiAQlmf4ly5OhcBdx15QU6UfG4yf13IFQrQkWUqeBJ1WUqsWD_-ffrbwFaTeHkSzMsTW66z2Kpi-ABZ33kgXuZjjWtxN-s-JWf8_YXGoMMYl6DM4usTuXIXAZb4AdOy2Or', 'width': 1080}]",ChIJrYP_P6LLaC4RMx68CyWHpcY,4.4,"['tourist_attraction', 'point_of_interest', 'establishment']",7.0,-7.013454599999999,107.9808201
"XX9Q+Q54, Jl. Raden Siti Baghdad, Limbangan Timur, Kec. Balubur Limbangan, Kabupaten Garut, Jawa Barat 44186, Indonesia",Leuwi bolang,,ChIJ-_0jXBjLaC4Rv3YtoWkoB5k,5.0,"['tourist_attraction', 'point_of_interest', 'establishment']",1.0,-7.0296951,107.9872266
"Ciarus, Ciwangi, Kec. Balubur Limbangan, Kabupaten Garut, Jawa Barat 44186, Indonesia",""" Rumah aki amar """,,ChIJR55yJTfNaC4Rvj7URa6IMH4,0.0,"['tourist_attraction', 'point_of_interest', 'establishment']",0.0,-6.995758700000001,107.969709
"XW8C+HPQ, Simpen Kidul, Balubur Limbangan, Garut Regency, West Java 44186, Indonesia",Penclut simpen,"[{'height': 3120, 'html_attributions': ['<a href=""https://maps.google.com/maps/contrib/114456382389713495738"">Riki Sunandar</a>'], 'photo_reference': 'AUGGfZnUOd6RicVyVbEvCq_3KfElItbkST5G26tbUV8RuQZMYHk7EbSQddb9Ur0FBWWR02Xl9eyFpQDcOAJaEZiekSTFplac8SHii32qSTIovAZLdAdXn16X8kxw05iaqoGvHiSbavfZoBItKuucTQhJHrWWGi4iYAYg0W_0AEI0rFtaqjXW', 'width': 4160}]",ChIJgwTId-bJaC4RQSvhH-CNhug,5.0,"['tourist_attraction', 'point_of_interest', 'establishment']",2.0,-7.033548400000001,107.9218518
"XWFF+9Q, Simpen Kidul, Balubur Limbangan, Garut Regency, West Java 44186, Indonesia",Empang kang eko,,ChIJmThOn9XJaC4RLrouL0Kk2ws,0.0,"['tourist_attraction', 'point_of_interest', 'establishment']",0.0,-7.026611000000001,107.924482
"https://www.google.com/local/place/rap/edit/category?sa=X&ved=0CAAQ, XXWJ+4FW, Ciwangi, KecTujuan Wisatanavigate_next, M8EahcKEwj4h4TitoSFAxUAAAAAHQAAAAAQVQ, Kec. Balubur Limbangan, Kabupaten Garut, Jawa Barat 44186, Indonesia",Mirnaa,,ChIJDSjEeADLaC4RvxiwRVcNkfM,0.0,"['tourist_attraction', 'point_of_interest', 'establishment']",0.0,-7.004668499999999,107.9812649
"XWXC+V2R, Bukit Gunung Cibentang Desa, Simpen Kaler, Kec. Balubur Limbangan, Kabupaten Garut, Jawa Barat 44186, Indonesia",Situs Destinasi Makam Kharomah Eyang Sepuh,,ChIJaTUI5P_JaC4R42XakrK8Pf4,0.0,"['tourist_attraction', 'point_of_interest', 'establishment']",0.0,-7.000253900000001,107.9200241
"XXXF+849, Ciwangi, Balubur Limbangan, Garut Regency, West Java 44186, Indonesia",saung kuring,"[{'height': 3120, 'html_attributions': ['<a href=""https://maps.google.com/maps/contrib/110699742686263436440"">indra galura</a>'], 'photo_reference': 'AUGGfZlU2cdxPUb-k8F0zI6Eyfsq8exaoNSx1fS7n1SpkAA5cREO4VHAB4eFm6GwJuqody88PzGXNCrBBJCKIcRjw2B_bMzPRrLNk72L-bJKkO_ubx4ZFFDagwXOGnD18DurP8g-9L--sptPI29yWK_YntTvVVMbGdq49zjTeB8_5eBwGKuy', 'width': 4160}]",ChIJO3pPFmTLaC4RQueaZ9sAnN4,3.8,"['tourist_attraction', 'point_of_interest', 'establishment']",4.0,-7.001712599999999,107.9728515
"X272+HM5, Jl. Galuh Pakuan, Galihpakuwon, Kec. Balubur Limbangan, Kabupaten Garut, Jawa Barat 44186, Indonesia",Villa Siliwangi,,ChIJI2G6CwDLaC4R7cP6cN9mxQc,0.0,"['tourist_attraction', 'point_of_interest', 'establishment']",0.0,-7.0358832,108.0016069
"XX9W+7WM, Dunguswiru, Balubur Limbangan, Garut Regency, West Java 44186, Indonesia",Sungai Cipancar,,ChIJTYOSywzLaC4Rsp0rBkyspTI,0.0,"['tourist_attraction', 'point_of_interest', 'establishment']",0.0,-7.031788100000001,107.9970676
"Jalan Ciraden No.01, Pasirwaru, Kec. Balubur Limbangan, Kabupaten Garut, Jawa Barat, Indonesia",WISKUL (Wisata & Kuliner) Limbangan,"[{'height': 3000, 'html_attributions': ['<a href=""https://maps.google.com/maps/contrib/112552284291964284094"">A Google User</a>'], 'photo_reference': 'AUGGfZlTQDLlKYbBfw_zXQ_K37nO-DzFmUmHc_t31ebuvuKin8RHoTqjw_gCav6HKW8zp4dd3fLb6nB081T9AdcEPo2emsR9xd4ToFMR_eOpbxLb8-5j6jfwUJMOE8bNCYVNC3haWT_xCtNym4xe1jM2xuL3RcSNmiQWaEpQpdU6oVbIwoBo', 'width': 4000}]",ChIJPRtMkWbLaC4RjONwSORZaao,5.0,"['tourist_attraction', 'point_of_interest', 'establishment']",19.0,-7.026471099999999,107.9845869
"XXRJ+65, Ciwangi, Balubur Limbangan, Garut Regency, West Java, Indonesia",Villa Galatra,"[{'height': 4624, 'html_attributions': ['<a href=""https://maps.google.com/maps/contrib/102852181529978431754"">A Google User</a>'], 'photo_reference': 'AUGGfZn40R52eEll2WWxlXcCLxdy2a2PJfKfIPVZhSAxglPMZWYOF7vwic_hrmdFTzvpWUqq91upRWy46JlLmt7cJMncZxylonkRnoRU2RX4ggynXPydsD42RPiIIar-9YuksHTotpYY1sphc_CginLA0tDBCIciWrHKUelFOM6vRU2E82EY', 'width': 2608}]",ChIJYSTd28PLaC4RsIXV8Pm6CRI,5.0,"['tourist_attraction', 'point_of_interest', 'establishment']",4.0,-7.009409499999999,107.9803953
"Jl. Manja Beureum No.Desa, Ciwangi, Kec. Balubur Limbangan, Kabupaten Garut, Jawa Barat 44186, Indonesia",Sunset Pesona Jati Ciwangi,"[{'height': 3120, 'html_attributions': ['<a href=""https://maps.google.com/maps/contrib/108221655185567294753"">Ahmad Sarip</a>'], 'photo_reference': 'AUGGfZlcUJ_MiyE2oqiCqL4wf_L6rr467Abhn533Q0ff_jNSXRCiXu5iBIVMWGlg3yY_kEfGqLYjxZ1RRGwgcA3_udOoDBmDhOk0XfIWx8Oo18679ivjh--auqgZZTJzA6xUdBC7M0aKY4OP-cbJvxFv6fuOW0BFKD3M53kzPQz0t0M010is', 'width': 4208}]",ChIJhQzNYRjLaC4R3YkGzcijebY,4.2,"['tourist_attraction', 'point_of_interest', 'establishment']",197.0,-7.0082105,107.963889
"XW5V+6JP, Cijolang, Balubur Limbangan, Garut Regency, West Java 44186, Indonesia",Ponclot Night,"[{'height': 1920, 'html_attributions': ['<a href=""https://maps.google.com/maps/contrib/110118209185813417307"">Bsp Cell</a>'], 'photo_reference': 'AUGGfZleaXa64AGDiVoZLRrnGDImvpzuq1gpV7VR70C3vsjq_T3l7R5Bjuip9p2v317F0Ld3t9lpEvSoOFG3Ac_Est12iOLoIMQxelXzNH-b5WGZWQQ1ijGCKKB_IInfyEF_HZ0QeRLW-5UBpJtdCEfarUfcdu1OcQBINPbISdjw9FQxEEbO', 'width': 1080}]",ChIJcRDHI1LJaC4RjyrGMaqV9Cg,5.0,"['tourist_attraction', 'point_of_interest', 'establishment']",2.0,-7.0421473,107.9444953
"XXHJ+PH8, Limbangan, Kec. Balubur Limbangan, Kabupaten Garut, Jawa Barat 44186, Indonesia",PMC CICUPU,,ChIJibHQ3t7LaC4Ra_sEdW8dVM4,0.0,"['tourist_attraction', 'point_of_interest', 'establishment']",0.0,-7.0219195,107.9813633
"Cirapuhan, Selaawi, Garut Regency, West Java 44187, Indonesia",Pesona Leuweung Oko (Oko D'great),"[{'height': 4608, 'html_attributions': ['<a href=""https://maps.google.com/maps/contrib/114860792606932529604"">Samin Garsel</a>'], 'photo_reference': 'AUGGfZkXBnuWMy0sauNSDrgBHODBx7s22Y9Mi8ilVMqcmtYXo0WPuyU2PKVTt9vVF8vBy9PluWLeQSJGPHpDP8o1xSaUIQYyfUkHD8fdJxGus6cUzefMJgJIFCMZSRUI2vR23Fsky1X_HTEW77ajwmXG4JbqAl6zptNnCUfQdwgE0nIC06J8', 'width': 3456}]",ChIJOxR2X640by4RC1R9feX-ZSs,4.1,"['tourist_attraction', 'point_of_interest', 'establishment']",433.0,-6.9986203,108.0530119
"X226+VF2, Sukamerang, Kersamanah, Garut Regency, West Java 44185, Indonesia",Saung Cijambe,"[{'height': 3000, 'html_attributions': ['<a href=""https://maps.google.com/maps/contrib/107926812537607839352"">A Google User</a>'], 'photo_reference': 'AUGGfZmR1Px6Fu8ZJIwOTVeZLkzONNLWt71Sk4CKwLdShj2uk148U4FgPTL5NZ58KT-Yo9xxbZZOd8V3ogwe2BuR9BbCsPwlhqyK4u7ch_zYja8_Psz50IAn_fvudh42z69ddNqtK2HBULLuZ8yt390LkF-Hh9zSH3ggtIgrGYitCvczpks', 'width': 4000}]",ChIJw_JA-rHLaC4RFSaOR0opkW0,4.8,"['tourist_attraction', 'point_of_interest', 'establishment']",4.0,-7.0478725,108.0111338
"2X7X+G7H, Kp.cisanyoh desa, RT.002/RW.004, pelita asih, Kec. Selaawi, Kabupaten Garut, Jawa Barat, Indonesia",Rumah HanaHani,,ChIJf78qByHLaC4RqPQzfQfsxpU,0.0,"['tourist_attraction', 'point_of_interest', 'establishment']",0.0,-6.9861909,107.9982344
"W2V8+M7X, Nanjungjaya, Kersamanah, Garut Regency, West Java 44185, Indonesia",Saung barudak ramah,"[{'height': 3264, 'html_attributions': ['<a href=""https://maps.google.com/maps/contrib/101126900977131795787"">A Google User</a>'], 'photo_reference': 'AUGGfZnWzbBQ8WoMzNQtUzMoTUb_bSFjjli8paowccoiVu6lh909Nkwuh_crLEU92pvPwBA130byjcF9buU_J3nLUgNR1I33kJ6yuvuhJHNq4952NwjOHwK_msyOnOx3H531nt5A72nlWXprVGaPA2DwEGG1VcQluExs6VKnUfufZsD5qEf0', 'width': 2448}]",ChIJRwGosxrLaC4RiLiX4y5t24E,1.0,"['tourist_attraction', 'point_of_interest', 'establishment']",1.0,-7.0559102,108.0162275
"WXV2+5Q2, Kp Koang, Majasari, Kec. Cibiuk, Kabupaten Garut, Jawa Barat 44193, Indonesia",Gagak Mas Harum Gumilang,,ChIJu24R2qDJaC4RcPSFuyAXJaE,5.0,"['tourist_attraction', 'point_of_interest', 'establishment']",1.0,-7.057112399999999,107.9518832
"Jl. Keresek - Cibatu No.10, Sindangsuka, Kec. Cibatu, Kabupaten Garut, Jawa Barat 44185, Indonesia",Permata Farm Garut,"[{'height': 3024, 'html_attributions': ['<a href=""https://maps.google.com/maps/contrib/106352352514573262441"">A Google User</a>'], 'photo_reference': 'AUGGfZmD8AfdKLc0B9wWJ_UCa4asfjqc9p39Ms1R0HaP59w86gC8eZaYo2V_OsD5A80TacerIKEBBIXLkL7SF113X0ThWvx3k5HdrjnYs1_MFxnqfw8_I1JqWJZxrOPPgnHaE81XlpycyZ6toedFiRvNfdm2fmLUbgGTgmo64ztlH9ztSmvE', 'width': 4032}]",ChIJYbUXbmnLaC4RuNpuIQ3oyG0,4.5,"['tourist_attraction', 'point_of_interest', 'establishment']",2.0,-7.051378,107.982536
"2X5M+JX9, Putrajawa, Selaawi, Garut Regency, West Java 44187, Indonesia",wisata alam BatuNanceb Camping Ground,,ChIJ-6k6cnTNaC4RN9WmyBOCH78,0.0,"['tourist_attraction', 'point_of_interest', 'establishment']",0.0,-6.9909697,107.9849866
"X2MM+JFH, Cijambu, Kec. Selaawi, Kabupaten Garut, Jawa Barat, Indonesia",BUSKOM,"[{'height': 1080, 'html_attributions': ['<a href=""https://maps.google.com/maps/contrib/117079116537069671544"">saepul rohmat</a>'], 'photo_reference': 'AUGGfZl0oYIZievqSt3jO6tVhx3nJnRaveSqK0OfuvRxTs45yd1SxAf40jJQ5qdbKjHIsjVYY4oylVXQS7COyA121FOfr6A1w5eWVC0bpKeZKxDwXsVoKhwUOIGO-1mTP4EaB9LmoiLVd9f69dkyvgPqt34cSkUIU_v7Y37sEjwtCTSpv6gt', 'width': 1920}]",ChIJAaJNzr7LaC4R745-U9snHE4,0.0,"['tourist_attraction', 'point_of_interest', 'establishment']",0.0,-7.0159251,108.0337498
"Cigentur, RT.003/RW.009, Sukamerang, Kec. Kersamanah, Kabupaten Garut, Jawa Barat 44185, Indonesia",Kebon Jati Hendin,"[{'height': 2304, 'html_attributions': ['<a href=""https://maps.google.com/maps/contrib/118103533893361924731"">mira maheswari</a>'], 'photo_reference': 'AUGGfZmuGP2ofABT3mKnLNJPwMq5FrSrr1CFD1of6dZCy75HKqT9DYrW0O5NJVwfkHHafSZrTzvioe33JRv71XPcq0Rzawq6ghPb69vYRPhStHuvSb3VNhomHCw_qQrDMWtga-lq7hhl9F0MHKjrxGO0br1cuyRpASBKJ4WxwvG7tzrkcBZq', 'width': 4096}]",ChIJRf1JVo7KaC4RNut8ToW6jiU,4.3,"['tourist_attraction', 'point_of_interest', 'establishment']",24.0,-7.064166999999999,108.0095828
"National Rte 3, Mekarsari, Cibatu, Garut Regency, West Java 44185, Indonesia",Destinasi Wisata Pasir Tuma,"[{'height': 2250, 'html_attributions': ['<a href=""https://maps.google.com/maps/contrib/105173252195326029567"">roni zihad</a>'], 'photo_reference': 'AUGGfZnnT80Df2bBqKCGz2x0B5fMvnWgqQWiNvw2XqQHw9EbbdkkbMS6NATU_UiRLljVKm-KigDP7a_g1t1tmQ02fgTaJpVig9dXNi0SoWl1SDjF8K898ZIcPLmDII2F15635p6kw5mokrG-bzMpXNKDPxZOCcV7uQVj-dl43OvUCeJOv1Rn', 'width': 4000}]",ChIJTTuGpLbLaC4RpFNVYTtLHwM,3.7,"['tourist_attraction', 'point_of_interest', 'establishment']",3.0,-7.045286399999999,107.9974438
"Kp. Cisalak Rt/Rw. 03/02, Jl. St. K.A Bumi Waluya, Sukalilah, Kec. Cibatu, Kabupaten Garut, Jawa Barat 44185, Indonesia",Azira tirta barun,"[{'height': 2928, 'html_attributions': ['<a href=""https://maps.google.com/maps/contrib/116545397217225179434"">resta aditya</a>'], 'photo_reference': 'AUGGfZmeMxu0aZ324QUA4ab_X-lcUcEANipKypOd0x9ctYYBvyrLw_zYf32mGmFoN0e4tg9GJaepIws2Hmieys1m3jbbUPfBZvImwqLm1jWy6qfPwzJhSfJq4-InAYJhD0qkixvEjUZlqIUUx-PobBjyhEtDQc7k-gQIb2zrpkoGWQeARK4_', 'width': 5536}]",ChIJ3XPSMwPLaC4RoQQpFV04kyg,5.0,"['tourist_attraction', 'point_of_interest', 'establishment']",2.0,-7.0575558,108.0045829
"WWHH+3HJ, Harumansari, Kadungora, Garut Regency, West Java 44153, Indonesia",Jalan Cagak Kp.Ciharuman,,ChIJLzH3b3fJaC4R0CSM-9CxkOo,4.0,"['tourist_attraction', 'point_of_interest', 'establishment']",1.0,-7.0722757,107.9288964
"X2Q6+2HW, Putrajawa, Selaawi, Garut Regency, West Java 44187, Indonesia",Bamboo Lake Selaawi,"[{'height': 3000, 'html_attributions': ['<a href=""https://maps.google.com/maps/contrib/112575467945307635359"">A Google User</a>'], 'photo_reference': 'AUGGfZmYtNCmA7mwjKNYFyheCd1Y215K6oi7zisuSYcSSIsUevKlutTYKttXo_O6Pb8fx9pDq8g4cdY18MFhywlMe42B0cL2KA9Crwx3F20YaJ7pZxjzgsy4Y6AN7J9s_cA3O2oggh7-6Pt68qs5Muy98QgdfUiOp6qgQYTJUqdLf6taENML', 'width': 4000}]",ChIJ5YhPJxfLaC4RffdZB7tlTqc,5.0,"['tourist_attraction', 'point_of_interest', 'establishment']",1.0,-7.0123994,108.0114546
"WXM7+P9Q, Cibiuk Kaler, Cibiuk, Garut Regency, West Java, Indonesia",Antapura De Djati,"[{'height': 2250, 'html_attributions': ['<a href=""https://maps.google.com/maps/contrib/103182925554866655832"">Ernest Tan</a>'], 'photo_reference': 'AUGGfZn934jdWqbVyBQs8i753Q-Q2vV7ERc4cHk8uz6xyPC7JZ-3yYGHUMuitMa13UFWHKTw7euKEWO-T7jUDED7DFKcEBAuenxMorQU40cRMs5Tgka0uolG9qSpkk-TgPDaKHVow7d59rHahtWI-KUwKboc2CQ-GxzDeNyyBYi945zMIUaY', 'width': 4000}]",ChIJH_PJZL3LaC4RO35lcD4lh2Q,4.5,"['tourist_attraction', 'point_of_interest', 'establishment']",2462.0,-7.0612292,107.9650288
"2XHG+8W5, Pelitaasih, Selaawi, Garut Regency, West Java 44187, Indonesia",Balong ci akar,"[{'height': 864, 'html_attributions': ['<a href=""https://maps.google.com/maps/contrib/103688819489620839734"">Hilman Hadin</a>'], 'photo_reference': 'AUGGfZkin5m731BzXJj_JBFfqLOv3ELoBwmHw-AqHpehIGmsrSqJUcexCcWr9nNPDoum3LQW9mzopqsDGdIovVmc4nRB8D4nHq4KeQI3BM5J3V0-PcIuazN1zKIzQhSxG-Y4CJZYQHfj-5pIETGY6Q87N9SwtlQDrtOvzK5GVbwd_gRw3SEU', 'width': 1152}]",ChIJPbCVy_LNaC4RtaDQubaEEec,5.0,"['tourist_attraction', 'point_of_interest', 'establishment']",3.0,-6.971736399999999,107.9773534
"Kp ciloa rt/rw 01/04, Mekarsari, Kec. Selaawi, Kabupaten Garut, Jawa Barat 44187, Indonesia",Gapura CILOA,"[{'height': 4160, 'html_attributions': ['<a href=""https://maps.google.com/maps/contrib/111825430605176780365"">mj bagjalaksana</a>'], 'photo_reference': 'AUGGfZm5Mm_0cYPizTejUzBaqF2cyTp40oTaVzGgo6xQeBLg7gCWhjhyCX3R_TTM-DiXnnPENinsprutJETQNkbDNkcV2vGcFgQAMNxN5Xg0ueJHbcctvobxuLR-qwRGUhIpfz9py9VhvNH64BArlt2w4UXajNDQzd3ueqBCcmqN8kOmBxTS', 'width': 3120}]",ChIJEcF2g4XLaC4RnpMm47nV7vA,5.0,"['tourist_attraction', 'point_of_interest', 'establishment']",10.0,-7.019370200000001,108.0240322
"XXPP+C8W, Unnamed Road, Cigawir, Kec. Selaawi, Kabupaten Garut, Jawa Barat 44187, Indonesia",Cikohot chity,,ChIJsbq2WjjLaC4RzRM0juVv9lI,5.0,"['tourist_attraction', 'point_of_interest', 'establishment']",1.0,-7.013879999999999,107.9858417
"W2MX+RF, Lewobaru, Malangbong, Garut Regency, West Java, Indonesia",Sirah cai cikabuyutan,"[{'height': 3120, 'html_attributions': ['<a href=""https://maps.google.com/maps/contrib/117684180223351307093"">Ridwan Hardiansyah</a>'], 'photo_reference': 'AUGGfZk57D_M2GYTMzF0A7iMgmcnXd3PsI0xS6DO62A4HUQByjT3_ghHA9rCST6yxiIU6xrQatHJLs3TlWqPpJrfyHcusBXZfNj2kPVLaMfawRPxNuyJnaznqXg_Shfrxe2pWWMjtdN8b5ugN4suDkqAz5zJ_yuXPNhd4Xe7Wi7IYb9qghc7', 'width': 4208}]",ChIJw7wgibw1by4RzDWnYN_J5zk,5.0,"['tourist_attraction', 'point_of_interest', 'establishment']",1.0,-7.0654659,108.0486643
"Jl. Singkup, RT.03/RW.05, Girijaya, Kec. Kersamanah, Kabupaten Garut, Jawa Barat 44185, Indonesia",Kamasri view,"[{'height': 3000, 'html_attributions': ['<a href=""https://maps.google.com/maps/contrib/108618855961726398204"">A Google User</a>'], 'photo_reference': 'AUGGfZmRPH7T1Obj0y5F5Gf3QF8fPRLgcxiCP9OipsKfs09zz0cMp4g30OCeHOofUyme6VwRnW3Xlw0IWegUcNyBVZSWtB9SLoph_H1QAYEgUUFAKXI39t8c2U-z9IOgBzpRojJHifrjbMWBsIHab8Bx4rJyB52n9dPBuA9-4oC-yrottjT6', 'width': 4000}]",ChIJvfRq6y_LaC4RCPOw81ef1VE,4.9,"['tourist_attraction', 'park', 'point_of_interest', 'establishment']",16.0,-7.0660453,108.0172666
"WWXG+GC6, Lingkungpasir, Cibiuk, Garut Regency, West Java 40215, Indonesia",JEMBATAN TALANGSEN CIGADOG DESA LINGKUNGPASIR,"[{'height': 1920, 'html_attributions': ['<a href=""https://maps.google.com/maps/contrib/108854821048884134017"">wawan ridwan</a>'], 'photo_reference': 'AUGGfZna-lSbHx0F08IXtSmMZSloQ03vmzxVvXYWIQq8L1oQFJf1-hMhYP-WiEQCkQl8cCoqFcHxDMSHqO5D_oZ2hmXHDL4vtxpZ3qU2KnW0Z278V2yqQxJ0vGVwGWiQuCfgntxzCXo7slcT0V31HmquAbvKR1F1zrdpIZoqI9o9YH2h_n9s', 'width': 1080}]",ChIJ0b1yUgDJaC4RV1NZvzgzWmY,0.0,"['tourist_attraction', 'point_of_interest', 'establishment']",0.0,-7.0510467,107.92645
"X375+VH3, Cibunar, Malangbong, Garut Regency, West Java 44188, Indonesia",BISORO GREENPARK,"[{'height': 553, 'html_attributions': ['<a href=""https://maps.google.com/maps/contrib/101620339805545670345"">A Google User</a>'], 'photo_reference': 'AUGGfZnPvFZQkIsQxw1IU4HmeJ-u3uzPh9RktQkDtgMEqpL4Fv3Tx1ZSX1R0RIx0w9xYMiEAlhDQ66cnrQZlZ2DTN740D0jKXUwbBfY1gQ7RwOaJto0KCnmXYARddGOMOGrey0Fx1WB4sBHZUXw3IBiOWi8ZqGCcSuYlqWvB3lJSgSEp-r4v', 'width': 828}]",ChIJC7icQAA1by4RQ9AUD_Fd3cU,5.0,"['tourist_attraction', 'point_of_interest', 'establishment']",3.0,-7.0352567,108.0592355
"W2RH+MWP, Jl. Nanggeleng - Cirahayu, Nanjungjaya, Kec. Kersamanah, Kabupaten Garut, Jawa Barat 44185, Indonesia",PEMANCINGAN BUAYA DARAT,"[{'height': 4128, 'html_attributions': ['<a href=""https://maps.google.com/maps/contrib/102990371640400363285"">Obie Maung</a>'], 'photo_reference': 'AUGGfZnAu172kNW2IP_7-Zsz_lhz-56LgwSevm55cAFLuDxitACZn04vY_UVZQoBgBCV0WGvVXGbXhL9qUQvQ88jkVDnNqI9MWWfYhKJybZGxCcVop0Cn2T9ZSRWSjgmBs81TDi8qONNBDSuw_JnYIDt0-uT6iHiTsP1anjPRjhetF1Da_o0', 'width': 3096}]",ChIJK6kctuzLaC4RS9470YkpjZQ,4.5,"['tourist_attraction', 'point_of_interest', 'establishment']",4.0,-7.0582872,108.0298419
"Kp ciawitali No.11, Sukalilah, Kec. Cibatu, Kabupaten Garut, Jawa Barat 44185, Indonesia",Si hebat,,ChIJWaZOPmjLaC4RbeGtI9YzWI8,5.0,"['tourist_attraction', 'point_of_interest', 'establishment']",2.0,-7.072546,107.99932
"2X6P+F57, Pelitaasih, Selaawi, Garut Regency, West Java 44187, Indonesia",Pojok citi,,ChIJf6KK4PrNaC4R4i4FK7ddYnw,0.0,"['tourist_attraction', 'point_of_interest', 'establishment']",0.0,-6.988849399999999,107.9854351
"WWCQ+G22, Karanganyar, Leuwigoong, Garut Regency, West Java 44192, Indonesia",Wisata Alam,"[{'height': 2250, 'html_attributions': ['<a href=""https://maps.google.com/maps/contrib/104591995041587728172"">Kur dinar</a>'], 'photo_reference': 'AUGGfZlMqcK8zT3C6d3zCFO-aZ4WoWF81dK0ect7IzHSD2NUo0jAbJA_FNIDyytC3DaFreKvUNZJkMYySUMdZwTv_fAI9Her0x_vykyZl6oTUtRqubL1MJCNy4A9y_8lDnFH6V72KFFtdii_KRgSmdr7hMXA5rq9rVTcMUE1gc4fHerU7a_S', 'width': 4000}]",ChIJdRBQVtzJaC4RmOKFlUFHmgc,4.5,"['tourist_attraction', 'point_of_interest', 'establishment']",15.0,-7.0787334,107.9375103
"WXF8+H5, Cibiuk Kidul, Cibiuk, Garut Regency, West Java, Indonesia",Kebon umbul,,ChIJUz_JYwDLaC4ROmbTYgnpJXw,0.0,"['tourist_attraction', 'point_of_interest', 'establishment']",0.0,-7.076042999999999,107.965495
"X22W+X9V, Jl. Desa Sukajaya, Sukarasa, Kec. Malangbong, Kabupaten Garut, Jawa Barat 44188, Indonesia",KOLAM RENANG MINI (NAURA),"[{'height': 4160, 'html_attributions': ['<a href=""https://maps.google.com/maps/contrib/113527302128278980651"">A Google User</a>'], 'photo_reference': 'AUGGfZlTAf7m8coFDDcueq8csWfHSgRNsOyU2wX0Rd9TOK6M6pGBC1IPQ-zNoXpcw-fJi9h2tvLvohgHW9OCasKp5vsF5zEorbIUAhgn2TGo0Btn1rTUr0FdaMOmjQaIEMmI7CF2AsXVefcWEDTV9qYzFVsTJZEXfVHbdR11oAxlv1T7VdhR', 'width': 3120}]",ChIJ4YiJanfLaC4RoDarHhBmvss,5.0,"['tourist_attraction', 'point_of_interest', 'establishment']",3.0,-7.0475105,108.0459214
"XXFR+F66, Cigawir, Selaawi, Garut Regency, West Java 44187, Indonesia",Kebun Jeruk Santang Madu,,ChIJD5QFh6bLaC4R1gJ2c71iv9E,5.0,"['tourist_attraction', 'point_of_interest', 'establishment']",1.0,-7.026246,107.9905382
"WWW6+679, kp.Cipari Ganda Mekar,, Mekarbakti, Kec. Kadungora, Kabupaten Garut, Jawa Barat 44153, Indonesia",Gunung Kaledong,"[{'height': 5397, 'html_attributions': ['<a href=""https://maps.google.com/maps/contrib/108142069222392194946"">Joe</a>'], 'photo_reference': 'AUGGfZmojBN3KxPoCPyrQJi0gHbxaEB0FYHkFl_qJbgyLfHMTPhRAW5P6ziyRZiUuSalxhyC7B6uSo4okPWXrtFB-LC_mMj2Trqvr7wRnrWOqzMYDPa31bFIGK_I6c8retxaRGK5vpVp9_oVFbonXk3-CkozVEJ6iOU3uXqiV19mBUXlwSag', 'width': 4236}]",ChIJd4yw6bPJaC4Rqmypjm8PKfk,4.9,"['tourist_attraction', 'point_of_interest', 'establishment']",14.0,-7.0544651,107.910739
"W3W3+8RC, Sukaratu, Malangbong, Garut Regency, West Java 44188, Indonesia",Gang Nasional III,"[{'height': 1280, 'html_attributions': ['<a href=""https://maps.google.com/maps/contrib/107936984459899264455"">A Google User</a>'], 'photo_reference': 'AUGGfZlFguOziLNYMv8k-oQ3-wjSPH1omGWMfIgkFvTmSbq8mKDof29FtRBrY5UE3goklSkRlf1n_445TUZA_mejPm4XPW-XIIoqV6owN5_Y2R6tQVdATNJyDxjjygeOIHDyTjy32RsXnoRUz5O6vow0NWCE5XuYuH09MYCZl035EZOY0ZJ0', 'width': 960}]",ChIJx8S10gY1by4R5xOyxAvbo1A,4.5,"['tourist_attraction', 'point_of_interest', 'establishment']",2.0,-7.0541926,108.0544985
"XVRX+PXX, Nagreg, Bandung Regency, West Java 40215, Indonesia",Bukit Kendan,"[{'height': 2592, 'html_attributions': ['<a href=""https://maps.google.com/maps/contrib/116301204449130695807"">Dani Awal</a>'], 'photo_reference': 'AUGGfZnHoLSVbwZv6ayGVuDpdg6K2d5iJ98RA9AbdNVjOrGwCpRAZ86YKcEAFu1LTXlJpPoW2FTXvoBfM2B-xDwu-lGncvVl0er76o5VEPdgaTq4XzZewwH7ftvZLtYs2dxs9LlYJW-olzwJ-kd4zNjpwxxLOMJQyozx7zAx4IfoxcuKUdra', 'width': 3872}]",ChIJiVuFNNfIaC4Rlp5_s8d7iVY,4.3,"['tourist_attraction', 'point_of_interest', 'establishment']",105.0,-7.0081393,107.8999998
"WWWG+562, Tanggulun, Kadungora, Garut Regency, West Java 44153, Indonesia",Infinity2,,ChIJt79pLADJaC4RqmDSkM16b5s,0.0,"['tourist_attraction', 'point_of_interest', 'establishment']",0.0,-7.054760900000001,107.9251029
"W3X4+25P, Sukaratu, Malangbong, Garut Regency, West Java 44188, Indonesia",Saung A Fajar,,ChIJ7zQ_SAA1by4RZ7Jd816Mphk,5.0,"['tourist_attraction', 'point_of_interest', 'establishment']",1.0,-7.052409099999999,108.0554583
"X2R5+4XV, Jl. Desa Putrajawa, Putrajawa, Kec. Selaawi, Kabupaten Garut, Jawa Barat 44187, Indonesia",Sungai,,ChIJ88-Z-ufLaC4Rmiquo5l21e4,0.0,"['tourist_attraction', 'point_of_interest', 'establishment']",0.0,-7.0096327,108.0099114
"WVGM+6JX, Karangmulya, Kadungora, Garut Regency, West Java 44153, Indonesia",Leles curve,"[{'height': 6000, 'html_attributions': ['<a href=""https://maps.google.com/maps/contrib/117754426344047753036"">Adit Salfani</a>'], 'photo_reference': 'AUGGfZn8UOJvjgAXE61jQWH2UOFnP-aCbuy_ZyAHqH2IsMkxgU3qlfp4sRJdBBtNsp40AwAgwf9HhR1sW1LnGpmZK4XIyWbtHQR4-bSeMRjzxl37kOatJSl0cC7Xj0-k8KKgYh9UAUZp6vkyq-Ldv3OUFOFAvPYDDCR44sIcNYKUWUcw5gJa', 'width': 4000}]",ChIJTSSP1JXJaC4R12xZndduhss,4.8,"['tourist_attraction', 'point_of_interest', 'establishment']",6.0,-7.075385799999999,107.8840024
"Jl. Sukamerang - Karesek, Sukalilah, Kec. Cibatu, Kabupaten Garut, Jawa Barat 44185, Indonesia",Saung Kang Ndad,"[{'height': 1920, 'html_attributions': ['<a href=""https://maps.google.com/maps/contrib/109493065443765343701"">A Google User</a>'], 'photo_reference': 'AUGGfZmpjFmtHSzHFPmAlnjKSD8dbt2OQvZps0XdGmPnKYY1Je5bsolEQBeYFRtqitlCXckd5CJX39LHozqyqDelHvUtFuh9I-xwh04sLvfe9GwIbpiGA1fAN5OTh5oNLyAxURvAXxprnEHxNN3-CeiNgOTryRCleUF7GiN2F3oGIZTl64h9', 'width': 2560}]",ChIJ9bBpomHLaC4R_-kH-tAwxTU,5.0,"['tourist_attraction', 'point_of_interest', 'establishment']",1.0,-7.0726724,108.0030212
"W3W4+GR6, Sukaratu, Malangbong, Garut Regency, West Java, Indonesia",Kebun Durian Berkah,,ChIJE96-bHk1by4RG8ctHMw0gGY,0.0,"['tourist_attraction', 'point_of_interest', 'establishment']",0.0,-7.053719,108.0570151
"X2W7+32G, Putrajawa, Selaawi, Garut Regency, West Java 44187, Indonesia",KAMPUNG TARIKOLOT,,ChIJ0T5JBs7LaC4RsdPGHBIt_TQ,5.0,"['tourist_attraction', 'point_of_interest', 'establishment']",1.0,-7.0048125,108.0125781
"Cilampuyang, Malangbong, Garut Regency, West Java 44188, Indonesia",Curug Parigi,"[{'height': 801, 'html_attributions': ['<a href=""https://maps.google.com/maps/contrib/117931132348434404919"">Harri Kurniawan</a>'], 'photo_reference': 'AUGGfZkERhfqyMNmDnpkutq0FPFdnLxiftE_SBoVjSjLG_gSEKM9aWL8oW6Qc5w2fdBUnYb0KxRqFyFQNuBtYKKoLAcXNPdMVgMYlhyRwmZMQJgSSSropaYeB86nkQhrNmGpeFne-R1uOaI8B1_lAMjijEyVMACGQPJ84Gu8xXhxxK-OIBA5', 'width': 1068}]",ChIJNxG9d9M1by4R2zayjiyq4cg,4.3,"['tourist_attraction', 'point_of_interest', 'establishment']",38.0,-7.006810499999999,108.0575544
"XXFR+F66, Cigawir, Selaawi, Garut Regency, West Java 44187, Indonesia",Kebun Duren,,ChIJuWeL6XvLaC4RkQa1o5XqZ-U,0.0,"['tourist_attraction', 'point_of_interest', 'establishment']",0.0,-7.0268646,107.9908365
"WXCF+H8H, Cibiuk Kidul, Cibiuk, Garut Regency, West Java 44193, Indonesia",Curug Seeng,"[{'height': 3118, 'html_attributions': ['<a href=""https://maps.google.com/maps/contrib/109482758957200210965"">109482758957200210965</a>'], 'photo_reference': 'AUGGfZlfpwaxHq2EEOuQPb3uz4cq-uWyIxFER0IKI1GZTDUUSiVH81BlLAPzik_d-bXgHxHoC-LeaPg_yufZZ_f1HKBPstdPHVt9tAH8pl-oU880TN0s9P1tuTHHMRJwpTSoogfTgEK-dWdZYpwyoQFTXXYv73c5sQIpPiHIGxOxzyYWyhAw', 'width': 4158}]",ChIJU8wMaLTLaC4RzjzxkRZ1vd4,3.9,"['tourist_attraction', 'point_of_interest', 'establishment']",12.0,-7.078562000000001,107.9733592
"Jl. Raya Bandung - Garut, Gandamekar, Kec. Kadungora, Kabupaten Garut, Jawa Barat 44153, Indonesia","""Saung Panineungan Kuring"" Cibonteng Gandamekar, Kadungora","[{'height': 4000, 'html_attributions': ['<a href=""https://maps.google.com/maps/contrib/103705668205813312678"">A Google User</a>'], 'photo_reference': 'AUGGfZnCKGxYaIIHQqJElb8h4Xo0yIHgNj78Kxlx9o-Hvlve96K6wGrjySCxwpr39uqgoy-ICRJTmZa3FuOukcLW6I1_VA0dGzf56QlumZnV0t2UIp5xu8YtZ2L8WOTqLQU_QcLGVgxyv6Mjv1RfXlN_HFGe8K1rkt0k97FYuubOopI8f8BP', 'width': 3000}]",ChIJwcYGXzbJaC4RnEHwDfuVJhc,4.7,"['tourist_attraction', 'point_of_interest', 'establishment']",3.0,-7.0628553,107.9019143
"WVJV+J2, Karangtengah, Kadungora, Garut Regency, West Java, Indonesia",Spot miniatur,"[{'height': 3292, 'html_attributions': ['<a href=""https://maps.google.com/maps/contrib/102858743511887379815"">A Google User</a>'], 'photo_reference': 'AUGGfZnMIqWhb0ZPFRoLwxLthT8h1hkjvMpvdsiPu4CfB1yz-PySq1V6-o6CSVW-u_qjL62AxenEYVOpHJxSpMl7QQwwPLLs3j21CA3dUz4dEVhf6sLtrihnZVi4blU4C0bYlZ1nBpzzzl2azDZIPslJmhYd2SaEVFnqP9wq6dlDpF5EgZ0Y', 'width': 4939}]",ChIJJ9M8MRXJaC4RakIGjPHMaiY,0.0,"['tourist_attraction', 'point_of_interest', 'establishment']",0.0,-7.068426499999999,107.8925101
"WV86+XF2, Jangkurang, Leles, Garut Regency, West Java 44152, Indonesia",Air Terjun Cibuni Racun,"[{'height': 3120, 'html_attributions': ['<a href=""https://maps.google.com/maps/contrib/110251979434818859592"">Asep Rahmat</a>'], 'photo_reference': 'AUGGfZmekqJSrN1JsorMKLv5MA-O_H3lleD74SFl-Uj2MvcojK1nleETDZRTvcM39rutdCg8JEib2DrEIZDUkae1yuyIpFCX2TxuPaZrl78EsnHj-gOCqg3iFcUzSlYJ7TF3HqixmT68fgTkE_yo3PcpfOB7kdQGwfx3zQiX2IV34JhUFG49', 'width': 3120}]",ChIJ_U1aMgDIaC4RS3wQnTHvMOY,4.2,"['tourist_attraction', 'point_of_interest', 'establishment']",100.0,-7.0826132,107.8611319
"7RCW+FW, Sancang, Cibalong, Garut Regency, West Java, Indonesia",Cikolomberan,,ChIJjxHGbwATZi4R0Jg6J9WyHOo,0.0,"['tourist_attraction', 'point_of_interest', 'establishment']",0.0,-7.728833799999999,107.8472723
"8R73+MP, Karyamukti, Cibalong, Garut Regency, West Java, Indonesia",Sawah Cibaregbeg,"[{'height': 1920, 'html_attributions': ['<a href=""https://maps.google.com/maps/contrib/108444535311832641381"">A Google User</a>'], 'photo_reference': 'AUGGfZmKx-TxHHYtqK0ytjCaJiATfCbbBVb0gRud6QTjZDRiYIde4kRIsLro-OhmP31uQXqTlUg2qh1-lkoduYR0C9Rh8qHwPHSUoIsM59yUJaMToy3dxtA9jVB98Ih5a66xUFfToHgXOKejbqWYKUUwmt0-gyPTo24zzBURGK8xh6LUcfc2', 'width': 1080}]",ChIJH2V7RRUTZi4RGEWnj27kcLc,3.0,"['tourist_attraction', 'point_of_interest', 'establishment']",1.0,-7.685848399999999,107.8043419
"7VMC+X3H, Sancang, Cibalong, Garut Regency, West Java 44176, Indonesia",Area burung walik sancang,,ChIJpZhlMAANZi4RtZdRRGa-YUg,0.0,"['tourist_attraction', 'point_of_interest', 'establishment']",0.0,-7.715070499999999,107.8702347
"9R7V+6Q5, Mekarmukti, Cibalong, Garut Regency, West Java 44176, Indonesia",Kebon Kurink,"[{'height': 2592, 'html_attributions': ['<a href=""https://maps.google.com/maps/contrib/113648651765901194744"">Derryl Herdiansyah</a>'], 'photo_reference': 'AUGGfZlaSW8-kGosy4Muc0cCwvroNqQ7CHCinGT6WEguTaula1X3at1w97qbngQ0At2-MYpuf87fPeVDm32_lDbfQYQiPundT6ezDSu9BRbNA29JFzr2sbbSow_S5P-7Ve3UpKC6CCExxE7jXQxEv51Ex0c2aWNp9FQdX-a9SA-ILCbqkmq1', 'width': 4608}]",ChIJrfQvuzERZi4RL2nopLzijnI,0.0,"['tourist_attraction', 'point_of_interest', 'establishment']",0.0,-7.636980599999998,107.8444791
"CW24+Q4G, Jl.gorowong, Maroko, Kec. Cibalong, Kabupaten Garut, Jawa Barat 44176, Indonesia",SAUNG MAK AYUM,"[{'height': 4208, 'html_attributions': ['<a href=""https://maps.google.com/maps/contrib/113742526963515696542"">Ajun elbarca</a>'], 'photo_reference': 'AUGGfZnW7TGG-WRlhco1-NiFBj-ypKL5tKMaLIsOlTX4YXHwIkfNfAcR_GcnnDQr-YpMxP4EzwRLdrqIUAmhtKFvCDGPrdCXiUnoCURfiR9KO51PoWVdi2uqI_NKA91DRtpLOcambkz_Js9bMQrCUf-FCT82ouqdNlJ7mDsoKcQ7YJGb6i05', 'width': 3120}]",ChIJlWDmzPAPZi4RCgvGETpY6Zg,4.5,"['tourist_attraction', 'point_of_interest', 'establishment']",4.0,-7.5980627,107.9053404
"9V4H+6W, Sagara, Cibalong, Garut Regency, West Java 44176, Indonesia",Leuwi tonyong walungan cibaluk,"[{'height': 3000, 'html_attributions': ['<a href=""https://maps.google.com/maps/contrib/114716575049800994838"">Widad Laila</a>'], 'photo_reference': 'AUGGfZnq9jVP6WQaVY3bTM65695Po-U9LnPrXp8N8nFZqD-hG_ALvu7KNPwgHOvhomcmBjL7k2H4kFbssoVtBFmrPdYIFf07tPmPbFgI5LkZmeO4sF9FbiF-Ppn2OgVLkuHSnwyjEDSsOXcNhleOWggiunUGUzYmXdYMCDHvM7fV93_CSnGj', 'width': 4000}]",ChIJHx9ABRIPZi4RbGyXKLwthq8,3.7,"['tourist_attraction', 'point_of_interest', 'establishment']",3.0,-7.644486399999999,107.8797689
"7W73+PR3, Sancang, Cibalong, Garut Regency, West Java 44176, Indonesia",Pelabuhan cipanglembuan,"[{'height': 4160, 'html_attributions': ['<a href=""https://maps.google.com/maps/contrib/117962155588152236183"">A Google User</a>'], 'photo_reference': 'AUGGfZnz_AVgIBC550WKjYkRpF4pQh8tulNv1JknGWMr2pjK2zMLUyML7Dtchatb0GgvfM1dgvBLakx3Oe8VOAVHz57yPZJgK-2ZpT7qhwszzHphowOGl8EUVOyuxXZuu9ZkfnP354sDMyq6nqma7w9LPf00pSD6vdzlKu2YUmKaGRlbt5jK', 'width': 3120}]",ChIJbeWMWsgNZi4R8icAmLOhEow,4.1,"['tourist_attraction', 'point_of_interest', 'establishment']",11.0,-7.735748099999999,107.9045321
"7RVP+QM7, Muara Sungai Cibabalukan, Unnamed Road, Sagara, Kec. Cibalong, Kabupaten Garut, Jawa Barat 44176, Indonesia",Pantai cijeruk,"[{'height': 4032, 'html_attributions': ['<a href=""https://maps.google.com/maps/contrib/109198534973819734746"">Imam Syafutra</a>'], 'photo_reference': 'AUGGfZlhdpqjo4rDkpPKArklmpkln0OnL_RK0k0J-qXhsR43bWDIRWC29ZSf2ms8wOKe1docG8EMvU4g2EuXUJgUsKh21ILDxKiWuGsbLkGmD4bZ75ceMStgGtJOL3aQnVIixyMTbDGHNSIe4d_-u5hoJ1_tcZLE9uSJznmPzsBIYxbL2bT-', 'width': 3024}]",ChIJR8mMBp8TZi4R9HQw97g4UYk,4.5,"['tourist_attraction', 'point_of_interest', 'establishment']",60.0,-7.705579999999999,107.8366578
"7V5X+QM2, Sancang, Cibalong, Garut Regency, West Java, Indonesia",Karang Gajah,"[{'height': 1115, 'html_attributions': ['<a href=""https://maps.google.com/maps/contrib/118358259873112803965"">kelly kalimantana</a>'], 'photo_reference': 'AUGGfZmobg0tB28QGHPJm6M_Y-_c33QqyqDfwrTSay2jZcY-UQN_dxf3-eSet-cdJrgHAbb_cbHseig_1SXYXCat9vu_xMPCY5DYaRE6j-_iwCOhdufVm-OQs1-_qQzGAcJo46AAgG8NAp0dehVhrmQCbOWQ0OPHw0Zg9TOa9NHhBYdsxAVY', 'width': 1625}]",ChIJ4WLbDywNZi4RDdCKnwBOcEM,4.7,"['tourist_attraction', 'point_of_interest', 'establishment']",64.0,-7.740612,107.899154
"Unnamed Road, Sancang, Kec. Cibalong, Kabupaten Garut, Jawa Barat 44176, Indonesia",Mangcaca Island,"[{'height': 2250, 'html_attributions': ['<a href=""https://maps.google.com/maps/contrib/117308675208263299009"">A Google User</a>'], 'photo_reference': 'AUGGfZlN5DpK4duUXAka48mPNtXw61TZRhqNJOxo-0kjot9-UBPn_xEqq26qnVxY3hdy6ZATFU-JXZXG0fAO3-uPrBGN-6z4Yv1RhfXM7zu12IHUO13x8JFJqrLq9wnKG9n10BAetP328pG-PeDEkhTFVn4qRPJHb05h6IQrd7eII3hBxlXB', 'width': 4000}]",ChIJWU3My94TZi4R0ri5xUsrpwY,4.8,"['tourist_attraction', 'point_of_interest', 'establishment']",21.0,-7.7180946,107.836297
"7V6P+GF8, Sancang, Cibalong, Garut Regency, West Java 44176, Indonesia",Pantai Sancang,"[{'height': 4032, 'html_attributions': ['<a href=""https://maps.google.com/maps/contrib/106810470394640018695"">A Google User</a>'], 'photo_reference': 'AUGGfZnRHUR2eB9RhhS31QhmDq995Rn0lAxKgEiTqqmf0rBUVuoororUKi9paciSgLAvyZApUp_xXtgZt6jLdlBoS7HJwdURBnC_3sFFjyh4P-V1kyVN7sougtKe7iXJTzhRjwl98XK_8EA1batx-9ClQdcTh9x4xLGA_4-eqb48C6uDphsq', 'width': 3024}]",ChIJtSI69jYNZi4R4WP0VqHLNvw,4.6,"['tourist_attraction', 'point_of_interest', 'establishment']",240.0,-7.7387149,107.8861918
"7V7Q+FW4, Sancang, Cibalong, Garut Regency, West Java, Indonesia",Goa Ciporeang Sancang,"[{'height': 1922, 'html_attributions': ['<a href=""https://maps.google.com/maps/contrib/100348010946255680872"">Dikki Juliandri</a>'], 'photo_reference': 'AUGGfZkHxZKpX3EDBoPXJSM3I21zkYmW_KbcGbqNvP1DEEByWqFnCq3iT1KlGXD9hhcHOCeqfP9yBm4ONbbLxoiswHJAsjTwj7CRgrHqpvnuEGCa7rr97HUm6aIFrJL0Td1YgrjzVEX1KhC7Y1qPvwCkdwJI993jYeSDmfkk5beEIRyqKr1I', 'width': 1080}]",ChIJTyJPIV4NZi4RH9N13-PHQEg,5.0,"['tourist_attraction', 'point_of_interest', 'establishment']",3.0,-7.736366699999999,107.8898376
"8R95+42J, Karyamukti, Cibalong, Garut Regency, West Java 44176, Indonesia",Sungai Cisangiri,"[{'height': 1920, 'html_attributions': ['<a href=""https://maps.google.com/maps/contrib/108444535311832641381"">A Google User</a>'], 'photo_reference': 'AUGGfZlAfg6gJkeHVG8JwineEsNULOsqOTwErUEsSX7ZNRypUPhe4Y4SIH6JEDbfO9-olEZ1WMj4_4lrZYVLhjNpz7Rb3v2A9ui_xnWLnNdSLckU2ZEqgH9wEcm9_mm9NwnNa_nZje62FK6cQWte3WDwXOkEyr3bUwwkQdn9TR2QEP5ZgAZX', 'width': 1080}]",ChIJA8UvFq0TZi4RDyqRihAd3Ow,5.0,"['tourist_attraction', 'point_of_interest', 'establishment']",1.0,-7.682158500000001,107.807528
"7RQP+GRJ, Pantai cijeruk, Sancang, Kec. Cibalong, Kabupaten Garut, Jawa Barat 44176, Indonesia",Pantai Cijeruk Indah Garut,"[{'height': 3840, 'html_attributions': ['<a href=""https://maps.google.com/maps/contrib/109198534973819734746"">Imam Syafutra</a>'], 'photo_reference': 'AUGGfZldgUlcOBb1ADM4Bm1Py0AMeXGC6PXVvbDNGYMPXZgSQBbsWpgI9aKq2nFPunSAtbtorS6zLMczjtNZfnQ-usg3bmDsy7UZd6kkQ9h1SDS6MUgCEmHoPGiBzOYyvVyMmcxYeP87hOmwh23tIonTHdwNc634JORpcimI2yzilIJtW8tQ', 'width': 2160}]",ChIJs2db0UoTZi4R4NVTFeQ2vkk,4.5,"['tourist_attraction', 'point_of_interest', 'establishment']",6.0,-7.711170000000001,107.837028
"Karyasari, Cibalong, Garut Regency, West Java 44176, Indonesia",Coral Coast Paranje,"[{'height': 4160, 'html_attributions': ['<a href=""https://maps.google.com/maps/contrib/100864137608937316624"">A Google User</a>'], 'photo_reference': 'AUGGfZmeJ0FRGhJoSCVS83RlF0CrvDxSVctXqbl0YiWt21T46ZgZeKodxzeFdaYNxJPqdNfA_MgfcVRik4EAt9JEQeYfWIaNnIB-sInR_abDx9dBGEB3gOD6qtLOlrzJIbdO1g4oIYV_0bN54GZbTkWcTfqf4zSTLGOGPMpHilMdzb3CO5MP', 'width': 3120}]",ChIJFZIZ4cYTZi4RCJlE09kGmO0,4.4,"['tourist_attraction', 'point_of_interest', 'establishment']",857.0,-7.6841298,107.7948894
"Maroko, Cibalong, Garut Regency, West Java, Indonesia",CURUG NAGROG DESA MAROKO,,ChIJ6-nmk0APZi4RtjVe24qEnxA,5.0,"['tourist_attraction', 'point_of_interest', 'establishment']",1.0,-7.627222600000001,107.9021597
"8R2J+27, Sagara, Cibalong, Garut Regency, West Java, Indonesia",Musmu Puspalad,"[{'height': 1960, 'html_attributions': ['<a href=""https://maps.google.com/maps/contrib/103060180225943025016"">Andika Dharma</a>'], 'photo_reference': 'AUGGfZmMplS7433BLfGTcQHltlzQgnRpdvyYL9jN36zd6yFQDzLakY7P00MRgYbnpDNw-Dw429lPJcHyg3TaUviYPrWOA49ScloR4mf9gFjDrAXJ0JXaejbukGQg_dKdzsHjt3-DQwlmzgebbXkIV86TQ-gXGmPSJFmhuE_Wp6o_Frne5UGH', 'width': 4032}]",ChIJASeJRhwTZi4RU0wUUJFiyPM,5.0,"['tourist_attraction', 'point_of_interest', 'establishment']",2.0,-7.699892499999999,107.8306922
"8QGC+QFH, Jl. Miramareu, Mekarsari, Kec. Cibalong, Kabupaten Garut, Jawa Barat 44176, Indonesia",Gantangan Burung Darmaga Enterprise,"[{'height': 1007, 'html_attributions': ['<a href=""https://maps.google.com/maps/contrib/106138178297419007593"">A Google User</a>'], 'photo_reference': 'AUGGfZk0NNIMMLT_m8deqqJXxLTj7S--FU84ugFL802M7EqbuNcp_nGHVRn_Yn8n3RXzLvpmiAN_5f8o4jm5gapDMNdkzEiQg3o2dPJXAdKC_6eR5jURydoulWIr442YSw3bZmqyfNVuAXmpG0mT1wWte9AKhBxi2qAeaiSP-aQJ-LMERlNH', 'width': 1600}]",ChIJ-ThqKbQTZi4RRXOWMk6cJPM,0.0,"['tourist_attraction', 'point_of_interest', 'establishment']",0.0,-7.6730732,107.7712467
"8V3V+39W, Sancang, Cibalong, Garut Regency, West Java 44176, Indonesia",Tugu Maung Sancang Lodaya,,ChIJT5J_Sq4NZi4RJdO1lonjyoM,4.8,"['tourist_attraction', 'point_of_interest', 'establishment']",9.0,-7.6972518,107.8934606
"8R75+4C5, Karyamukti, Cibalong, Garut Regency, West Java, Indonesia",Pantai dua muara cibaregbeg,"[{'height': 4160, 'html_attributions': ['<a href=""https://maps.google.com/maps/contrib/117509629532914432161"">A Google User</a>'], 'photo_reference': 'AUGGfZm_x6oiO03E3LLOcv4gQn7URHLPr0Iow4nmOfOVk_sQGDDwy8rGqFVgA4Iq7SmlG3GngtGcn5oUUEK7e-CZ8i00eE4c0G3HcWS24d35w-H7j-CE9oDEDNJNgBzsryX-bv_TnMQ0uFL6JrBcTl7vZFyudzQXOxzGp2gSGRKYI7OMLzYi', 'width': 3119}]",ChIJ2x80WFYTZi4R6Md70N3qOnE,5.0,"['tourist_attraction', 'point_of_interest', 'establishment']",2.0,-7.6872465,107.8085948
"9QVF+G86, Depok, Cisompet, Garut Regency, West Java 44174, Indonesia",Lembah Cerelang,"[{'height': 1080, 'html_attributions': ['<a href=""https://maps.google.com/maps/contrib/112870208992198074841"">A Google User</a>'], 'photo_reference': 'AUGGfZk7y536imu7mnFuN36viO8wwhmuTB6jwaRvrYGeuec6m5O-5p_fAzjvD15_zrXNJ3f9qt3EcWmnxgMw5x-DWxmmj_qggJenPyB1sjRl5hZO8cRO8NpsiZZ3gJSNvoGoNezUedRhs0IS5Hnl3g47uqZdujHz9vriZUJ2cLPlt9EEg8MO', 'width': 1920}]",ChIJj-_phrMRZi4RGkKKMVPq-yI,5.0,"['tourist_attraction', 'point_of_interest', 'establishment']",1.0,-7.606203799999999,107.7732731
"Sancang, Cibalong, Garut Regency, West Java, Indonesia",Cipunaga Beach,"[{'height': 4000, 'html_attributions': ['<a href=""https://maps.google.com/maps/contrib/102316000962489131977"">Johan Liem</a>'], 'photo_reference': 'AUGGfZmMKK2URY0YUkPskvMVjgrR-7kSp1bk1sLYm1FiVh3W06Q95Ca_qg1kq03CR9lTFrQjcUoWXMulX0_MZDq01lr4rcQ7l1e5uAvqMjs4WiY7VuD4Oea5Ja9gYdjFhfYSTZH_-jN3WD9zi1OxsFL1KUcjpUC6thxwYUGHsm-nLFmprtBi', 'width': 3000}]",ChIJqc_YAVENZi4RDC7T_Q192tQ,4.5,"['tourist_attraction', 'park', 'point_of_interest', 'establishment']",34.0,-7.738645799999999,107.8670204
"8R58+3CR, Jl. Raya, Sagara, Kec. Cibalong, Kabupaten Garut, Jawa Barat, Indonesia",Pantai Cimerak,"[{'height': 3120, 'html_attributions': ['<a href=""https://maps.google.com/maps/contrib/103510691260791433283"">A Google User</a>'], 'photo_reference': 'AUGGfZl7CXdss6v62o3FBh8aX4oOeh4tXknur0xYs3_lfUJAod_QKXoIO5QoyYkh5WTBnkpwFSOuDdTrmVCJ-DNi8EQ5j68KoV3zVFaYpNEGzEM6nMvmC9PusqbqqDWPGBkLrO_2qdxASa1tCe9XW50X8IMqQ1WkRBuTj5ueIe0x9x_vwUFf', 'width': 4160}]",ChIJTdah35ATZi4RIb5w8HCsVqQ,5.0,"['tourist_attraction', 'point_of_interest', 'establishment']",9.0,-7.6922503,107.8160024
"7V6W+RMR, Sancang, Cibalong, Garut Regency, West Java 44176, Indonesia",Sancang Karang Kulon,"[{'height': 3000, 'html_attributions': ['<a href=""https://maps.google.com/maps/contrib/115079275241167260832"">Sarip Sarap</a>'], 'photo_reference': 'AUGGfZlyIB2sEgO_fPj0R-baDibwNPyIFfsyKZHks_a-qrq7AHg63Z4DuhkkOGXVC4H3h2-UE9BYYG0YOwdXfb5k_cSVMR5c_rvn-R1-f3B8mBL69JwzUW4DmQefN7MmHKIQhrJ32P2sStojfk8lfcE_fg52xw5b_ewN4nWZEsPXw2au7DbV', 'width': 4000}]",ChIJ2-0-NccNZi4RK0X_fN60nBY,4.3,"['tourist_attraction', 'point_of_interest', 'establishment']",13.0,-7.737882999999999,107.8966336
"pantai Jl. Ciporeang, Sancang, Kec. Cibalong, Kabupaten Garut, Jawa Barat 44176, Indonesia",Warung Bunda Apih,"[{'height': 3096, 'html_attributions': ['<a href=""https://maps.google.com/maps/contrib/109595269959823594310"">A Google User</a>'], 'photo_reference': 'AUGGfZmdFb1j_qCXDvaUb2_oTsEJb3o5KmGoljQbQ1sXzQtaSDVVb9g-BwDJ3RZFxmPJNIrs1P73lGNeR69Hn8d9ZawXrH1sGXprb5jd4KpcnZYTvdpXN-2tNefkov--oRKIuYq1mbrjw45UIKTu39Wd479Ez3-YR2pgfJialIDp_qVp_36C', 'width': 4128}]",ChIJCVJfRDINZi4RcGD0MPdelWc,5.0,"['tourist_attraction', 'point_of_interest', 'establishment']",7.0,-7.738592499999999,107.8855335
"FV92+FG9, Jayamukti, Cihurip, Garut Regency, West Java 44173, Indonesia",Leuwi Tonjong,"[{'height': 1080, 'html_attributions': ['<a href=""https://maps.google.com/maps/contrib/118175967339317537833"">Hadi boseh</a>'], 'photo_reference': 'AUGGfZkCaO-fL8EQGDTRys8TE7-8AjxjmuchrqR1beYD8edPa1ECo-0geUTlLKavJeGEUmDuzVtJzXcyqkuncxL-av9GxesKC0VZFZq7RdYkfsKtp7J5AuV7Z-PQiRhlPee1FHeJzGh3rgZ8HkDVl4WShcIpn1_7gbEhc7Dic4bUyI0eXRwc', 'width': 1080}]",ChIJ80vBDjIbZi4RfzUKoaU7vmU,4.5,"['tourist_attraction', 'point_of_interest', 'establishment']",404.0,-7.531327,107.8513651
"7VGR+VM, Sancang, Cibalong, Garut Regency, West Java, Indonesia",Curug Cikajayaan Sancang,"[{'height': 1600, 'html_attributions': ['<a href=""https://maps.google.com/maps/contrib/111475985371450020863"">tatang heryani</a>'], 'photo_reference': 'AUGGfZnqM7nuNtQQysXFTTn_Y9mfVPz9ndWwf45SBm8jCjhxH3dNCJ0NbsLRLYgXXlRb2GJgRXJi3pCC-jaHDK5PD5h-Ot18kC_ooepzkXySm7IQx9kwa5WLPrpluZBeH6P97DphTOfTv0OLYl1bGWLat3XHWW21d2W-d83aV5hvGVM83qtC', 'width': 1200}]",ChIJoYqcA2sNZi4RY6cPuV4LcEo,5.0,"['tourist_attraction', 'point_of_interest', 'establishment']",2.0,-7.722810399999999,107.8916783
"Jl. Pantai Sayang Heulang, Mancagahar, Kec. Pameungpeuk, Kabupaten Garut, Jawa Barat 44175, Indonesia",Rumah Makan Perahu Seaside,"[{'height': 2322, 'html_attributions': ['<a href=""https://maps.google.com/maps/contrib/101381372197763797160"">Taufik Gunadi</a>'], 'photo_reference': 'AUGGfZlA9ysW4HbSXMu7cTfIPeU0hRzM-ujI394bDXezEC1eTwREjaZyl2UpEZ_gvOufGClnsmR7f244BYMHJx04l6inPcxKTntgLJaMdxdAx9lSbSITHk7YbgBTtEINl4Z9Fg1EqkHmhWABofAZuEUSRRPzw-eLrawP2O-X3wSQ14tXEEoC', 'width': 4128}]",ChIJTYYJqwUXZi4RT6M6aAfAU88,4.5,"['tourist_attraction', 'point_of_interest', 'establishment']",440.0,-7.667428500000001,107.7007486
"7RWP+844 Hutan Cijeruk, Sancang, Kec. Cibalong, Kabupaten Garut, Jawa Barat 44176, Indonesia",target penanaman mangrove,"[{'height': 4624, 'html_attributions': ['<a href=""https://maps.google.com/maps/contrib/113093186611882198354"">A Google User</a>'], 'photo_reference': 'AUGGfZlviCORzeQ3lUoFNboXlWD7jXPdbMbYGKe-IdbRGiQ5_EmUN9nugxc6U9SbMjE5_NHiCsI34O5sXRGspyhXhuDa0wdvSSqGwH1xk-uT_W_gtU03avqcepPj4BV3ashgRl-8v1-O2pvN1HvOHt46sr5IMkjdSe3_1ffan2rKZxvYwhIJ', 'width': 2604}]",ChIJL0_sOEQTZi4RzxrFvMQN_Mg,5.0,"['tourist_attraction', 'point_of_interest', 'establishment']",1.0,-7.7049447,107.8348078
"9P4P+56, Sirnabakti, Pameungpeuk, Garut Regency, West Java, Indonesia",Sungai Cikaso,"[{'height': 1080, 'html_attributions': ['<a href=""https://maps.google.com/maps/contrib/106636910035732766842"">A Google User</a>'], 'photo_reference': 'AUGGfZlHuuwoJtTOlByUh4d4yTSXhoEcoL6DLMuzaqlrb-1YOaTK0dxbRZg4RV6fToXH1LK-h0CKso8cT8utlIA83f2Rmp5AdqgvP-HbZbXYJyys5LU39cD_SfbXS0nribIj6g0f8nfUSPxEvUWEgq_pxnPdT6dti-jvBHf8rG0v7wLLGeH4', 'width': 1920}]",ChIJCS_Cd8MXZi4Rh7rdQydK3l4,5.0,"['tourist_attraction', 'point_of_interest', 'establishment']",1.0,-7.644513,107.7356079
"9R2M+XW, Karyamukti, Cibalong, Garut Regency, West Java, Indonesia",Perkebunan Karet Mekarmukti,"[{'height': 4000, 'html_attributions': ['<a href=""https://maps.google.com/maps/contrib/106578305211525320856"">Elsifa Albanna</a>'], 'photo_reference': 'AUGGfZlbEjJ7xi0ZAM2TDmDgmOthk-lRWfVAtD-oqSJRFK6KedKkJRiSuoevMaekxHn9AvBG55tyYXVlvstOOih8DHVjkH89kHtaoiK1vWqVeuPb_pyFdL9-vuHRSkw8buGV5aKWI1EdlMJOjtxQ-KMh_bsaD4xp38JQ_07okuQTfJrP1rV3', 'width': 3000}]",ChIJFXVh1uQRZi4Rt_T3PrgNdHw,5.0,"['tourist_attraction', 'point_of_interest', 'establishment']",1.0,-7.647516299999999,107.8348345
"Pantai Karang Papak, Kec. Cikelet, Kabupaten Garut, Jawa Barat, Indonesia",Pantai Karang Papak,"[{'height': 2268, 'html_attributions': ['<a href=""https://maps.google.com/maps/contrib/102057904283552866671"">A Google User</a>'], 'photo_reference': 'AUGGfZlQneWpUCe01NBVPguc6cuS47xXGNmUrLNOrfN8nE053RnnN_t0chGh1a9c0C2FXOxj6I6XHQBxmeup4m1YzS7ekoWUxG3R9EEG6NpZTFtuBrJRhCtcrLYpur3kZyrkQbh7T8n5KLdQFh28Dnup6yY0OA8zF0KbycmJETgLZ-GNbrLH', 'width': 4032}]",ChIJ0Y4KYToWZi4RNDAfj8Vd6hw,4.5,"['tourist_attraction', 'point_of_interest', 'establishment']",1699.0,-7.6405941,107.6837437
"9RVR+67V, Cikondang, Cisompet, Garut Regency, West Java 44174, Indonesia","Leuwi Kanjeng Daleum ""Leuwi Daleum""","[{'height': 956, 'html_attributions': ['<a href=""https://maps.google.com/maps/contrib/108125053640611741273"">Suhaya Hegar</a>'], 'photo_reference': 'AUGGfZmGCvzwRk4F2CA34OKBnB7Zbg-uzAkeB2JfYoxrw-GCwKRlwL4_XrXCBUei4WperkFtp3l2cmQy7XtS1bb60AfhTzjYPOd4nFyyJ8maxI5g5OJEVoWztOytvBzZa5e66FUjDI8pkWPSgrlOQ1KDkSxgZB1siciZFbW_1BQwFI5QvoQt', 'width': 712}]",ChIJQxid2ysRZi4Ry8koHFRXjlg,5.0,"['tourist_attraction', 'point_of_interest', 'establishment']",9.0,-7.606885699999999,107.8406697
"CVCR+W7Q, Pangrumasan, Peundeuy, Pangrumasan, Garut, Kabupaten Garut, Jawa Barat 44174, Indonesia",Curug Batu Nyusun/Curug Cisarua,"[{'height': 2526, 'html_attributions': ['<a href=""https://maps.google.com/maps/contrib/101672601484647671646"">hendra joey</a>'], 'photo_reference': 'AUGGfZnU8bctdTFmOdiRPhzOHimexM-PjEWPCXirAG6vAAQs-Gwei4FQrgtBkWGusxNf0IsqB7ZafhbsqHWvCeZW2RxA-m07HqzW9_MHSL5Hr7KD7I1uzIesU3fZ5BITBZgSOn_WcWlhdZmQAOguUpsgRLdLr5MSZRLgwPlqAwa4i7wu9xKI', 'width': 3372}]",ChIJs1skXmIFZi4Ru5KOqwH0Co8,4.6,"['tourist_attraction', 'point_of_interest', 'establishment']",40.0,-7.5776664,107.8907231
"8VX6+4MX, Sagara, Cibalong, Garut Regency, West Java 44176, Indonesia",produsen Gula aren,"[{'height': 3264, 'html_attributions': ['<a href=""https://maps.google.com/maps/contrib/108877923950455596575"">A Google User</a>'], 'photo_reference': 'AUGGfZkeHmrIxEZZFAaE8B7dPBJDc962pN6uyZra8Jk-anIjwelllLo0hqO99fJV2emkhzLMfvVaB8vVpbOs8cqCuPyhEb00taSIUQeknFWjKViR01tUwdG6s8rnP0_m9dAGR8qoyMW9zYqUEgeoiO0BuL_K_kaXQZKpgTPzVWKuBnw9_1LM', 'width': 2448}]",ChIJrym2JuAPZi4RQkNOg4Qz88Q,3.7,"['tourist_attraction', 'point_of_interest', 'establishment']",3.0,-7.652132099999999,107.8617344
"8PJR+5XH, Jl. Satria, Mandalakasih, Kec. Pameungpeuk, Kabupaten Garut, Jawa Barat 44175, Indonesia",Leuwienis Beach,"[{'height': 4160, 'html_attributions': ['<a href=""https://maps.google.com/maps/contrib/101661674755564005100"">Rosi Rosmiati</a>'], 'photo_reference': 'AUGGfZl9C2dA5IIjwQYRbLYeAIt7OLG5LgfwcdDHl389K78XLdB2onLMl-d5pVtciBFyOwdnqNQ2hg7ttr7Q-PD0VupEVlk9LTQ0lQJCcIPkgZXhqAINEnW_U7klyCz3MeuYiijDKYJ2niiAVf-oEkXhUlOXyczDOkrDKh_9qYkindhtZmWi', 'width': 3120}]",ChIJI1CcWyAVZi4R_6LeXw2zG5g,3.8,"['tourist_attraction', 'point_of_interest', 'establishment']",6.0,-7.6695614,107.7424935
"9PFH+JX, Pameungpeuk, Garut Regency, West Java, Indonesia",Saung Alam Jaya,"[{'height': 1932, 'html_attributions': ['<a href=""https://maps.google.com/maps/contrib/106209751872844801958"">A Google User</a>'], 'photo_reference': 'AUGGfZkXz_KiRuIJ47Cfllsys5DiM_HYoEVAZd9AQzYcPVvWOV6qSBHAiK6rVF81LVsJaes76Io7a3eJ_6jLxmNqi_oXBD8nJ9nVZ8szOWBNuH81rMkpKlTRqgxLFBGkoOX0S-_LpIQk4hm-CcMVKYfCienksUe8MAmajyuZk9SMVBhoAICE', 'width': 2576}]",ChIJ8-POFM8XZi4RsFOLNGFmDk8,5.0,"['tourist_attraction', 'point_of_interest', 'establishment']",6.0,-7.625922999999999,107.729923
"GMQC+W39, Jl. Raya Depok Bungbulang, Depok, Kec. Pakenjeng, Kabupaten Garut, Jawa Barat 44164, Indonesia",Wisata TONJONG,"[{'height': 3000, 'html_attributions': ['<a href=""https://maps.google.com/maps/contrib/103630466257082344669"">azmi nk</a>'], 'photo_reference': 'AUGGfZkFaGb1YgKpAz6IOSpHOB5cYQCCFwZrD3PTUM-6RS3W8Gq20vHh780Gr4DhFq9Q5ejaA8NZBNXdHPPQlUsOtRK_7pyYhZev66M40-EXxkBhdzNGCPWXCx-KQFCzlaOYBeB5hyu3WHsOJliPwo7ghevH96z8JLpiJVMcp0YSqOudzetG', 'width': 4000}]",ChIJc6qHE2UfZi4R5qTFCwckd4o,4.7,"['tourist_attraction', 'point_of_interest', 'establishment']",7.0,-7.4602095,107.6702311
"Pangrumasan, Peundeuy, Garut Regency, West Java, Indonesia",Wonderland of the pangrumasan city,"[{'height': 3120, 'html_attributions': ['<a href=""https://maps.google.com/maps/contrib/112512980245873919828"">A Google User</a>'], 'photo_reference': 'AUGGfZnhwtNve0ToO8rDGLAyUfUG5xtEN-SQc6Dr4CVlUgPBA__FSDkvJ_1RGtD3MjbUQ-Qzrqki4Li1RMLsEM2jd5qfL3uOqJQ83dqruA208GNzW0BSuZwsR5GA_pHio6h9fUzRi7ckDv78PCUXZa7d9GAa5fswV26cUESwFH4Eulbeox1y', 'width': 4160}]",ChIJlaqTgx8FZi4RPFh6-qnf5iA,5.0,"['tourist_attraction', 'point_of_interest', 'establishment']",3.0,-7.5630269,107.8998566
"8PJ3+X9Q, Mancagahar, Pameungpeuk, Garut Regency, West Java 44175, Indonesia",View deck sayang heulang,"[{'height': 2992, 'html_attributions': ['<a href=""https://maps.google.com/maps/contrib/108443030228009758679"">jumnan kuswandana</a>'], 'photo_reference': 'AUGGfZmSJs9qkVwpNnPK5JUZf8uNNRai1rtSTCboJ42Q7NuE17RF6xJmfUYohxZ2mPMXab507emznXJrW1XkZ0B8MTEJnqg6AhynvIzSGCIiuzYBMe4kxngBM8K8IFYoyJyHyxBeaiqKdj84GT0k4zET3Jvwl6xRtnWi9ulMxCQripU_M4xp', 'width': 4000}]",ChIJPwws6JwXZi4RcM8PvOOGjkc,4.7,"['tourist_attraction', 'point_of_interest', 'establishment']",45.0,-7.667832599999999,107.7033396
"7V6P+5X7, Sancang, Cibalong, Garut Regency, West Java 44176, Indonesia",Pantai ciporeang ( sancang),,ChIJ0eaJf0UNZi4RUG0antieQFY,0.0,"['tourist_attraction', 'point_of_interest', 'establishment']",0.0,-7.7395783,107.8874206
"7W95+CW, Sancang, Garut Regency, West Java 44176, Indonesia",Muara cibera,"[{'height': 4000, 'html_attributions': ['<a href=""https://maps.google.com/maps/contrib/118309224671703107465"">Rangga dimaul</a>'], 'photo_reference': 'AUGGfZnYbCv0tkEdmKlKcpU3DmxnAe_JTIn2hWgc2lhUYiCIm9E_NGQuSN8HblbRQvizQpteYPw8WLSemDJo35NZVdgyTM9rgibqqrs4hJ-WdnthkXgGhXzBE7OTp-ei-BAHsJvFhBVSCwnTWWyq_o6Dkyj1esP_OngkRQRt9gPE2dgWsKP-', 'width': 3000}]",ChIJ65p5Ej8NZi4R60RAsuHCe54,0.0,"['tourist_attraction', 'point_of_interest', 'establishment']",0.0,-7.731456700000001,107.9098388
"7RVP+G7V, Pameungpeuk, Garut Regency, West Java 44175, Indonesia",Cijeruk Beach,,ChIJlUTUWwAXZi4RDoTgnlcLuqM,0.0,"['tourist_attraction', 'point_of_interest', 'establishment']",0.0,-7.706125599999999,107.835671
"8PJV+W9, Mandalakasih, Pameungpeuk, Garut Regency, West Java, Indonesia",Muara Leuwi Eunis,"[{'height': 4080, 'html_attributions': ['<a href=""https://maps.google.com/maps/contrib/115001682128264751069"">Idris Nur Shaleh</a>'], 'photo_reference': 'AUGGfZlOirc1dieiMDhr-h4tOf0fPO6xCeg9Do0EQTA7qcuN2Aur6l_ze4ytF_Q5f5Xcg4l--hMJn_0JAWkSYg80PYXCNdtpdtA6fp2bKZu5UygVzYdy48Fv47gDMgJh4thUukwQ4XYziPp1JOTmu4hVEHJLZOg1DJlWMnqNK2jUOF2sE23F', 'width': 3060}]",ChIJafOliyQXZi4RC2XY_y4COIU,5.0,"['tourist_attraction', 'point_of_interest', 'establishment']",4.0,-7.667737499999999,107.743455
"KAMPUNG PUNAGA, RT.KAMPUNG PUNAGA/RW.007, Kabupaten Garut, Jawa Barat 44175, Indonesia",wisata agro forestry,,ChIJ1x5DTGQVZi4RJXr8IaD_DNs,0.0,"['tourist_attraction', 'point_of_interest', 'establishment']",0.0,-7.6708333,107.7375
"8PMP+HQ9, Mandalakasih, Pameungpeuk, Garut Regency, West Java, Indonesia",Ranca kancah,"[{'height': 3120, 'html_attributions': ['<a href=""https://maps.google.com/maps/contrib/106240711414180057113"">A Google User</a>'], 'photo_reference': 'AUGGfZl985-468HzTQt_zEj78OVCp2qykupR7ojpZHKQSswyarSAskzcTbQ-lqxUFP-POLS9NuDbbFwGytNoL6MtMBl9uxCg7M4rcxBab3zvvPFxvDwHoBk227edz4gH-uZmc334fAWr8togPjSslZrFlCnvpfLBIAxH7t1p8ZqaJ135ZuLU', 'width': 4160}]",ChIJgZHN69IXZi4R4SyLNrElIi8,0.0,"['tourist_attraction', 'point_of_interest', 'establishment']",0.0,-7.666088199999999,107.7369738
