formatted_address,name,photos,place_id,rating,types,user_ratings_total,lat,lng
"6FRF+PV2, Blang Baro Rambong, Beutong, Nagan Raya Regency, Aceh 23672, Indonesia",Krueng Isep,"[{'height': 455, 'html_attributions': ['<a href=""https://maps.google.com/maps/contrib/107662321866621621576"">Lisa Fajar Wati</a>'], 'photo_reference': 'AUGGfZlvr7YYz08vCKj31KUZS-HbSmkWv-qYPJmiOiOUOzqZFECu790eHnT5WpH49hVkiPVXbviDaZUMFXDPLvcPw5gahV3-oag58BGErOrMJFhpLmmLk6sYn_QIv013aKuKb1fkQ_CnFaGSVGr1GSot09ShSsy1k7BQXjuGfcuP2Sm-dMnR', 'width': 720}]",ChIJ37pTecktOTARCj3uNea9lLI,3.4,"['tourist_attraction', 'point_of_interest', 'establishment']",20,4.2417714,96.4746279
"7CPJ+7R, Blang Seunong, Beutong, Nagan Raya Regency, Aceh, Indonesia",ayah juna subulussalam,,ChIJvbiiVZ8tOTARW6umM37tI6g,3.7,"['tourist_attraction', 'point_of_interest', 'establishment']",3,4.2857188,96.4320205
"6CXH+47 Meunasah Teungoh, Lhok Seumot, Beutong, Nagan Raya Regency, Aceh 23672, Indonesia",Bantaran Irigasi Beutong,"[{'height': 6000, 'html_attributions': ['<a href=""https://maps.google.com/maps/contrib/110082219927538088244"">A Google User</a>'], 'photo_reference': 'AUGGfZl6a-TchQme04bK-vr7Gz08trF8mSP-mYHRG0PjDffv8vUdEn_JF_fetV-McurVipCoNy6nftvXI6b9w1pq-vMPhtrYFX81b_VkeOjFkZ2f4hhoz_SCz8ETRgumHj1deTs5TeG6ARAHeq2vfgGkQkwuxOAm4DQyQL-b406_WARi4ZMn', 'width': 8000}]",ChIJnQYKhWUtOTARPU4-qtxV1P0,4.2,"['tourist_attraction', 'point_of_interest', 'establishment']",14,4.2478561,96.428224
"FFQC+QH, Hutan, Beutong, Nagan Raya Regency, Aceh, Indonesia",Jambo singah,"[{'height': 534, 'html_attributions': ['<a href=""https://maps.google.com/maps/contrib/112823331391805139199"">A Google User</a>'], 'photo_reference': 'AUGGfZnAFLd8GHOl5juKQ57vOHzPxb_chC7rTxlAhji9OZnjJBAtVBQ_JefCwAnTxih6XGQwbr5pnGKoduzYs-J7CawvXCZIWoOw73-RhGO9Mtfb10hKmZm7VY1d8ff-3p6DwrWg6gWwPHDyYATqzv_uyANM5I4vjVwDXIH7YkPKsTCjLm8W', 'width': 720}]",ChIJ9SAndgDTODARJ4xUybT3cJk,1.0,"['tourist_attraction', 'point_of_interest', 'establishment']",1,4.48946,96.4713831
"7FRC+C42, Jl. Meulaboh - Beutong Ateuh, Blang Neuang, Kec. Beutong, Kabupaten Nagan Raya, Aceh 23672, Indonesia",Alue Gantung,"[{'height': 960, 'html_attributions': ['<a href=""https://maps.google.com/maps/contrib/100723038990991690288"">Hermawan awan</a>'], 'photo_reference': 'AUGGfZltrCXUOoF6l6lfk4N_OIxohbqUxpYINLBHnA0q49JIvTEpShJwQIBe_qlv8rV-00hICx3wm1c-ivbPAeVMCOFDyXCsDItoLQjdjDYiBA4KbBqdI0my8qUsB7vlTBD3SGXrbm-_GraOnSL4erp64bdru564oGng89tYH_jGuK_3xEcQ', 'width': 1280}]",ChIJk9s25SorOTAR1fWl8KShTVI,4.6,"['tourist_attraction', 'point_of_interest', 'establishment']",13,4.2910061,96.47026799999999
"7C2V+H5M, Meunasah Dayah, Beutong, Nagan Raya Regency, Aceh 23672, Indonesia",KAWASAN TERNAMA,,ChIJ-2faUwAtOTAREr2y-DwApkU,5.0,"['tourist_attraction', 'point_of_interest', 'establishment']",1,4.2514975,96.4429541
"79PJ+674, Panton Bayam, Beutong, Nagan Raya Regency, Aceh 23672, Indonesia",Jembatan gantung Agoi Panton bayam,"[{'height': 4160, 'html_attributions': ['<a href=""https://maps.google.com/maps/contrib/102663846231760595609"">A Google User</a>'], 'photo_reference': 'AUGGfZmhjq8m1LiELpafc5yTaVZD0nBHUNFbNDxFZ7QOmVB6tCYQb8geZUYGu0iYGmm3xWDvSg6n95F3t3_mjQv7Pz8mGhvvQfdMRvE9DcmQEGtjdKGpO3Dm07yVvXpni9Ccrcm8Q3a5a3usmQMzK_ntvhUN6BBuJ-Y_gdaEbpxYdIZtjsoz', 'width': 3120}]",ChIJlw75lDLTPjARiHGK7VnHNJ8,5.0,"['tourist_attraction', 'point_of_interest', 'establishment']",1,4.2855066,96.38071839999999
"899H+9R, Kila, Seunagan Timur, Nagan Raya Regency, Aceh, Indonesia",Air terjun alue pange,,ChIJgdWtAwDVPjARFVKJhG-POJ4,0.0,"['tourist_attraction', 'point_of_interest', 'establishment']",0,4.318396,96.379609
"69X6+JWP, Lhok Mesjid, Seunagan Timur, Nagan Raya Regency, Aceh 23671, Indonesia",JAMBO BLANG ABU ISMAIL,,ChIJ6zJXdADTPjAR95KfYvw5rNM,0.0,"['tourist_attraction', 'point_of_interest', 'establishment']",0,4.2500355,96.36178369999999
"Unnamed Road, Hutan Babahrot, Kec. Babah Rot, Kabupaten Aceh Barat Daya, Aceh 23766, Indonesia",Bukit Trangon Camping,"[{'height': 5472, 'html_attributions': ['<a href=""https://maps.google.com/maps/contrib/111867175131298241354"">A Google User</a>'], 'photo_reference': 'AUGGfZmZbW_rUopF70Z4fiQB6_lqUo7Y_WGUJ00YgvullIQcsrYu5rL7151jp7G0Fe7WJbkgXfThr_cFjoVJR4z4bCZ4GbShqDz9zD8H_3PUTJnUuoxYhFymPzwWZbTdr804CWCnwxg3RgXcz8aF3MmOuWErWblwCxDdfx4fP56FcTJxRyol', 'width': 3648}]",ChIJ-RWVLB5DOTARd9TWEcv86QY,5.0,"['tourist_attraction', 'point_of_interest', 'establishment']",1,3.9320398,96.7093081
"2CG3+8H4, Krueng Itam, Tadu Raya, Nagan Raya Regency, Aceh 23661, Indonesia",Wisata Laut Tadu,"[{'height': 768, 'html_attributions': ['<a href=""https://maps.google.com/maps/contrib/100030145403286865816"">Zuki Rama</a>'], 'photo_reference': 'AUGGfZn78BcfnmiaWzDUkWs0uJ3SXNZ3dfIIYjrWvEO9t7SYkfk2dZhs6ORoFoR0smyNzSyIiLahBrvI4cYjcKP9vEkAPrWzRgvuoGPPpZiOxmcD3dHnOZW4MrgfJbnstk1EwfehjgiXu4FJx-KJxem_D9wNTM9OI0UyEBMTnWG0JBdJCXdq', 'width': 1366}]",ChIJP01FGdW1PjARVN3ALroWpmE,4.3,"['tourist_attraction', 'point_of_interest', 'establishment']",12,4.0257748,96.4039437
"CG57+4JX, Kila, Kec. Seunagan Tim., Kabupaten Nagan Raya, Aceh 23672, Indonesia",Puncak Gunung Singgah Mata,"[{'height': 1984, 'html_attributions': ['<a href=""https://maps.google.com/maps/contrib/100030145403286865816"">Zuki Rama</a>'], 'photo_reference': 'AUGGfZn1klZ3tSFdLe6eWnB0dZ15BXSaYAhBHHuTpiceZtI9U50L6Y-S2gDQl6bfyCYu3ZucLJnLEc31IXtWK2q8LdvN6mSacxGwZJGjOXfIOMGn1Hc6vmBdv3Dq-J7L5td_khiK37QCw_UCv3slni91fFZh5FjWgzjeHyhidL9wLw-u_-Xt', 'width': 2976}]",ChIJT1yKbEDUODARgCBOc24v46w,4.9,"['point_of_interest', 'establishment']",22,4.4078713,96.514096
"CQ4F+5MM, Bukit Sari, Jagong Jeget, Central Aceh Regency, Aceh 24563, Indonesia",Wisata Sungai NK,"[{'height': 2304, 'html_attributions': ['<a href=""https://maps.google.com/maps/contrib/100454676503576155982"">A Google User</a>'], 'photo_reference': 'AUGGfZlwT2X_I2siiOlgOxupQLm6_Nb8hsxuS008DPAXyIFRdDlJhwcbJcG5xTmXlXmfIChb3RrIe9mxW7lEeTym0Yw6jjmmnU3vinWcragx4Ev4hSqxK6DaYwrriULi4lcwzXK-k5SDjYICQa7CenjfkHSophv4yyXILtMNWm6zZYoDJ2zJ', 'width': 4096}]",ChIJEzc0HV_gODAR8aIhayy6Lns,3.6,"['tourist_attraction', 'point_of_interest', 'establishment']",14,4.405461,96.774177
"QQ7H+5CX, Lampahan, Timang Gajah, Bener Meriah Regency, Aceh 24571, Indonesia",Taman wisata Bukit Arjuna,,ChIJ_bvc8EGVODARrIE17LLVT-w,2.0,"['tourist_attraction', 'point_of_interest', 'establishment']",1,4.7629999,96.7786111
"PVPW+H3P, Unnamed Road, Blang Ara, Kec. Bukit, Kabupaten Bener Meriah, Aceh 24582, Indonesia",Blang Ara Kec. Bukit Kab. Bener Meriah,"[{'height': 2288, 'html_attributions': ['<a href=""https://maps.google.com/maps/contrib/113200675802312200082"">A Google User</a>'], 'photo_reference': 'AUGGfZlr_yiU945NU1gFcJrBd-s6OU2SV7Ho-i7M-GWOjvru26VFOFwEc1Rh-DLTgWa0pJB-4eFGOlCI_707MTU3zCN_oAR_bL1Zk0BLdl_CIDrIBXxonM2GH16Op75E8WjR-Yqq3buXzkpBC9Jv7_VkewbdvfqTTku4rSn3a6MLQacYiTzW', 'width': 4080}]",ChIJIRWjX-WTODARIsXYJXSr6zM,4.7,"['tourist_attraction', 'point_of_interest', 'establishment']",3,4.736469,96.89519290000001
"Bies Penentanan, Bies, Central Aceh Regency, Aceh 24552, Indonesia",Puncak Melaya,"[{'height': 3864, 'html_attributions': ['<a href=""https://maps.google.com/maps/contrib/115759970188034899721"">asin kurang maram gaming</a>'], 'photo_reference': 'AUGGfZkCF4Um5We-CxdnCMs2QGtfGFtZYmXfhHFXep5vQImyQwnlOutC0Q77H6zOCndhLpoV1SinNt3JmbUdt11Jpx3UaGcU--QaFRUlO2yMpe7w1r5DWjAzBIcAYbgfnC3-ryNBJX5UXgNmSzfQmfM1OC5vqOOaeIpEWuor9o4sX5zCuNtr', 'width': 3864}]",ChIJnSrIkezrODAR4y11HMKwV4A,4.9,"['tourist_attraction', 'point_of_interest', 'establishment']",16,4.6225628,96.7827296
"PVV9+3MC, Bale Redelong, Bukit, Bener Meriah Regency, Aceh 24582, Indonesia",BURTEMUN(Bukit Merah Putih),"[{'height': 3456, 'html_attributions': ['<a href=""https://maps.google.com/maps/contrib/108195277934238941960"">Muhamad Arindra</a>'], 'photo_reference': 'AUGGfZlwtFh2Azy0cLeQbBADROfmNPzY1zNBsgeQ0zP2sEfFcL9o1zw6buxFBTtqIXsOoLl83oefEKxcB7RjEPNcLKOwKOIYoVRagWTYoFuN2RUi2i46DH8wWWLXwXIGE1uiiP4dviwnr3-Z4bVy6odM7SJ41LsIP-dvN2bOlJZG1fRVXxrz', 'width': 4608}]",ChIJa9Z0yhuTODARRjQuobY-oEw,4.0,"['tourist_attraction', 'point_of_interest', 'establishment']",4,4.7426765,96.86915239999999
"MVX7+575, Serule Kayu, Bukit, Bener Meriah Regency, Aceh, Indonesia",Sanasiurus,,ChIJqVmDWwCTODARUoMj-Bhczsk,0.0,"['tourist_attraction', 'point_of_interest', 'establishment']",0,4.697879599999999,96.8632451
"JRX4+HGM, Ulu Nuih, Bebesen, Central Aceh Regency, Aceh 24471, Indonesia",Taman Bunga Tiga Dara,"[{'height': 2088, 'html_attributions': ['<a href=""https://maps.google.com/maps/contrib/101451781522711994719"">agus</a>'], 'photo_reference': 'AUGGfZltHvYFdz4GUElxJi582zxAY01IfSIWXJLAxvJGyi3yAB8R1LG2FzEOAgXXqjILMFhljFx9-gokX4lKR0I4iFmpA6wXgaRCdcNotH8ItZKbaylILi1BegKjiV5-Mv3PzMTgTXoV6V7MLnoJWyh_wsHzJZYLGd50YupZ5QCscrTOISxU', 'width': 4640}]",ChIJxwO8wPjrODARvaHHFRtX-_k,4.2,"['tourist_attraction', 'point_of_interest', 'establishment']",27,4.6489739,96.80630819999999
"QV89+VXG, Hutan Bukit, Bukit, Bener Meriah Regency, Aceh 24582, Indonesia",Lut Kucak Bener Meriah,"[{'height': 3024, 'html_attributions': ['<a href=""https://maps.google.com/maps/contrib/100329929168739600980"">Muhammad Reza</a>'], 'photo_reference': 'AUGGfZmuZBwp7GD_f2YwygH3VPnC85GSG51eaf7VXNCjfNsc9l0RhJpUO9ZZK1F08d_Gq1F-GTV56Prj0ZCgJ8pTnrbZ01o7QVzAGo3WA3hNOfSaQ9zOaPJmDjABlyc158vHlkhk-K5wlcrkCFZKa0YOBv9orSUEwoRiWioUhru0WSGgAEu9', 'width': 4032}]",ChIJlXpCnRiTODAR_NZ5WJbUiXU,4.2,"['tourist_attraction', 'point_of_interest', 'establishment']",33,4.7671773,96.8699607
"Tingkem Bersatu, Bukit, Bener Meriah Regency, Aceh 24582, Indonesia",Bur Belah,"[{'height': 2992, 'html_attributions': ['<a href=""https://maps.google.com/maps/contrib/115909557074418338119"">sucipto gayo</a>'], 'photo_reference': 'AUGGfZk1C6GYaSsvUP4lvlESvWq4WSrWImkhJreC0AqcX_Je1u6pZDU_mSt8DRT307umDUTeMINRCPRPfpHE7gnbs_OEZj6p4DfZUrjkSQAeWCztAVO14sQezmr84ldJACQRDI1hmYcXDORVLZas5NvdyGo8ghs_OS-4Yc7OdDbxfHuNgDdN', 'width': 4000}]",ChIJDaMzUwrtODARUwgi_i0UpZo,4.5,"['tourist_attraction', 'point_of_interest', 'establishment']",2,4.6928952,96.8730752
"Blang Tampu, Bukit, Bener Meriah Regency, Aceh 24471, Indonesia",Pentago Garden - Permata Dataran Tinggi Gayo,"[{'height': 1836, 'html_attributions': ['<a href=""https://maps.google.com/maps/contrib/115599126985228471125"">Yusran Nasir</a>'], 'photo_reference': 'AUGGfZnIGo0PEM09Wxco1jVAcZArYUGnbwbqZfkfT9hpAckQJmQX9TZ4MPkYTjeIubXTNzga1xZkMHon-9XW7gPq-Pmmzm145SuLnsKumj7v1edJjZWW0EJqzGxtfyRb5OztVSFe6CE3tYsmNoLtdpc8MT7y7Xoqpmk1mi2HMfWd_f7Cjvl9', 'width': 3264}]",ChIJgTGqU83tODAR1RhwFvGJ_lc,4.6,"['tourist_attraction', 'point_of_interest', 'establishment']",68,4.6869511,96.8434947
"PR9J+53J, Karang Rejo, Bukit, Bener Meriah Regency, Aceh 24471, Indonesia",Danau Mini Sengeda,,ChIJQ85jYgqVODARzLvf78dSrfY,0.0,"['tourist_attraction', 'point_of_interest', 'establishment']",0,4.7179562,96.8301323
"MWX8+F63, Pilar Jaya, Bukit, Bener Meriah Regency, Aceh 24582, Indonesia",Linge Antara,,ChIJTZ5OKQCTODARP0BOD6Vf11s,0.0,"['tourist_attraction', 'point_of_interest', 'establishment']",0,4.6986481,96.9155468
"MRRV+M76, Blang Tampu, Bukit, Bener Meriah Regency, Aceh 24471, Indonesia",Pantego garden bener meriah,,ChIJgYufEgDtODARNCL94MAqe6Y,0.0,"['tourist_attraction', 'point_of_interest', 'establishment']",0,4.691655,96.84314020000001
"Takengon, Ulu Nuih, Bebesen, Ulu Nuih, Kec. Bebesen, Kabupaten Aceh Tengah, Aceh 24475, Indonesia",Pantan Terong,"[{'height': 3840, 'html_attributions': ['<a href=""https://maps.google.com/maps/contrib/117824705168090289229"">Donny Afandy</a>'], 'photo_reference': 'AUGGfZlyjXjb5Z_dJ10hW-ALuHfEtiLJkx3iywgixcVSnbsQpEJBVRBqMOc_vmR78LFYMZRl79s1Skr9uVwnMjpu2UzMEXtolG9QCDEsvzp5qDkOByoKhhKicZkRq_DzvRQQd_9LF7KGmcL-OXulONFGoxZR7_PkuhT6Ji77-Veozv72uJxh', 'width': 5152}]",ChIJAxY7DKTrODARutWX2KO6Swk,4.5,"['tourist_attraction', 'point_of_interest', 'establishment']",3105,4.64734,96.80785999999999
"MV97+9M5, Blang Panas, Bukit, Bener Meriah Regency, Aceh 24471, Indonesia",Bur Oregon Gayo Bener Meriah -Aceh Tengah,"[{'height': 2352, 'html_attributions': ['<a href=""https://maps.google.com/maps/contrib/112964724709566411776"">A Google User</a>'], 'photo_reference': 'AUGGfZme-vre3iXQB27WH1RkOJXjlBRpfCRlwd8XiZifGu9CmfNDgZLvIp362BLEew2DXSE1USw-7a6JOgp8cGNt8tSGWFHfs23C8_ICWA29E5b6IEiTKi-c23m_aS6Ba3mACL7D6YDpOSD5UlC4P6-Sf2gRNhHTDCU_njHVhnH5c1JyMDLd', 'width': 4160}]",ChIJ02qIB_btODAR6Ii2ZfDvk-M,4.3,"['tourist_attraction', 'point_of_interest', 'establishment']",53,4.6683791,96.864249
"MV9C+XJV, Uning Teritit, Bukit, Bener Meriah Regency, Aceh 24471, Indonesia",Gayo Origon Aceh,"[{'height': 4000, 'html_attributions': ['<a href=""https://maps.google.com/maps/contrib/111707782152678938994"">Husaini Tingber</a>'], 'photo_reference': 'AUGGfZk0SzCd7-YLDNPWMHMYs5lZoEerazrcNXkybX0kJ-lw7gwUxNw9lcqhDaM5tdcoD8BXPGTWEieTtuomypAajwo2FrvVA_wOz9_mQJW8eM9yy7xP-cwJrMfT9f6WeR5_SgKB63d7PWkO9RAgoVsJLDTGZ7FoTjNapFD3OFOaUUzqNgVO', 'width': 6000}]",ChIJ3SoehNbtODARmQFhQVUxz9M,5.0,"['tourist_attraction', 'point_of_interest', 'establishment']",2,4.6699968,96.87154559999999
"Bukit Ewih Tami Delem, Kebayakan, Central Aceh Regency, Aceh, Indonesia",Natural park takengon,"[{'height': 3888, 'html_attributions': ['<a href=""https://maps.google.com/maps/contrib/106069202288261290881"">murt taza</a>'], 'photo_reference': 'AUGGfZmO-MR-Misfr17kb4d8alELDtXXK827wJsJA8Aevtb7D9KE-GF23ryy1EgUOSOPPTEWH8ydWvbj55NjLVOv6_dYSRh4aRhtXMRo3zYMaWAnA1i7H2Qv--atZobsEI7m8YmrVUhBYvTdN8iGJeI2NEcD53-gvzgNmLIR7ak1SAnXeplt', 'width': 4832}]",ChIJC6KFYTDtODARwx_lL19lQ-g,4.1,"['tourist_attraction', 'point_of_interest', 'establishment']",299,4.6597763,96.8466545
"V9C8+7PW, Hutan, Cot Girek, North Aceh Regency, Aceh 24376, Indonesia",CRU Cot Girek,"[{'height': 480, 'html_attributions': ['<a href=""https://maps.google.com/maps/contrib/101928252764080552585"">Rid Wan</a>'], 'photo_reference': 'AUGGfZnMmLhYVbfHjM2z-5wdZIIu2jBuk7aVulYK0sD_tzWdnEr5xoDFl7CjoUF7wq0yQg3Id-lvvjgUKsXaGioe3VJsnzoztDT8ceVMVlP_M5-3rocZvBymYnxD35eIyn9QyY-cmqSxw7MxsPHc54reb4GqcDM4BMU9xhuTeLVG1jP4idhi', 'width': 480}]",ChIJB2NhaRFzODARXmVvEIh5nxc,4.8,"['tourist_attraction', 'point_of_interest', 'establishment']",8,4.8707703,97.3668331
"754G+2HW, Putim, Kaway XVI, West Aceh Regency, Aceh 23681, Indonesia",Danau Geunang Geudong,"[{'height': 4000, 'html_attributions': ['<a href=""https://maps.google.com/maps/contrib/103000044464821176071"">A Google User</a>'], 'photo_reference': 'AUGGfZkPEtGtp4OINTRkQ9Ky8AbNZaIFMJc0YJpVJ10nL6hR-puMykYtfvtQa0d69IbDVsOLkWoLAFiid0w2SGRprr-N9dpJAezNGTZn7wf6D4VLhVDWy1n5b6l2UEizyZCHRx1GDIbbKWBiQTr_Qf0ZgYyZ0eXc6kuS5439rByl5qA6dmdD', 'width': 2000}]",ChIJ7eOQLKLbPjARBEDnYHoLdo0,3.8,"['tourist_attraction', 'amusement_park', 'point_of_interest', 'establishment']",20,4.2551112,96.1764535
"QRPG+46H, RW.Pucoek, Krueng Alue Seulaseh, Kec. Jeumpa, Kabupaten Aceh Barat Daya, Aceh 23764, Indonesia",Pucok kreung Alue Seulaseh,"[{'height': 4272, 'html_attributions': ['<a href=""https://maps.google.com/maps/contrib/100077754540393359689"">A Google User</a>'], 'photo_reference': 'AUGGfZnUYkCPEbT2NU-HTXDkIUuPrkcBU7Ei2SrRrERH6ZeF9z_SwZNOpz2xtJdB_qDJhmzw2r-5RFFFaRfIOO2yj5DN73q2ixkhinEUqoJ1l9uVvY5dD8vsODjE9Vb6LZ1eMYVMVQbSO8cU8OAmn3zVItcsHuVZV5TLO3CyB7Zr47ysPLHB', 'width': 2848}]",ChIJBRqWMJphOTARlry61TUnn_Y,5.0,"['tourist_attraction', 'point_of_interest', 'establishment']",2,3.7854843,96.8257076
"Alue Seulaseh, Jeumpa, Southwest Aceh Regency, Aceh 23769, Indonesia",Kolam Renang Bukit Hijau Putroe Aloeh Alue Seulaseh,"[{'height': 1280, 'html_attributions': ['<a href=""https://maps.google.com/maps/contrib/109053436931281428578"">A Google User</a>'], 'photo_reference': 'AUGGfZlIGOlGIYhXiEnK-2C6grEEFsYSf_cAzJ1Z6Uq1TuUZF1GvT0CNE2MhHBmsqkJu2tpnGMSOX3u0GoZgTzJfgW6xb-xLqvCdQG9elln6TTBzCn6ezoj_XM2vukpgHd01i37Hv4cr6mFbs52cFWI2Mx3iq5F08GKnuUyAc4tYZ-XggsGF', 'width': 1280}]",ChIJWfk98uxhOTARuEoGgcKUeiY,4.0,"['tourist_attraction', 'point_of_interest', 'establishment']",33,3.7802991,96.8234822
"367H+PR, Gampong Lhok, Kuala Pesisir, Nagan Raya Regency, Aceh, Indonesia",Pantai kuala pesisir,,ChIJUVc_BwDHPjARYC7909chjg0,0.0,"['tourist_attraction', 'point_of_interest', 'establishment']",0,4.064297499999999,96.22951590000001
"Padang Rubek, Kuala Pesisir, Nagan Raya Regency, Aceh, Indonesia",Lhok Raja Sunset,"[{'height': 1080, 'html_attributions': ['<a href=""https://maps.google.com/maps/contrib/110662045897442636471"">Ari Wirawan</a>'], 'photo_reference': 'AUGGfZkGYVKYnq_bgRuFSTxQC3felm9aN4wuHm_6QmhSTrXJm19k44eQLj2K711LWM4wai1N0RuW4RgBN_JwdHEfG2HlwQd9iV65Sd8jReXG8EKZLvMBiuktZbbqsca6h-1nTTvLZjucCXB2ks43OaByaWdsU7-rkQRX6kqvQ0F8G3AkVhXM', 'width': 1920}]",ChIJ13xbC43HPjARunvoqUg8VAg,3.0,"['tourist_attraction', 'point_of_interest', 'establishment']",1,4.0681085,96.2262607
"Padang Rubek, Kuala Pesisir, Nagan Raya Regency, Aceh 23681, Indonesia",Lhok Raja Beach,"[{'height': 3120, 'html_attributions': ['<a href=""https://maps.google.com/maps/contrib/115751891597579306786"">A Google User</a>'], 'photo_reference': 'AUGGfZlJ3hPxbwsij7xKph4kr7Qs5QX3vLWFpd0zTQEnxRy5f8olkxFs8MTMfwSoBwAe1YSQf4NMkAD4AJaD3vyT_Ut9cwjzwuikTgrK-DcgUL4vhZEKNYTZlr3boe4xzodHfLD5ZnqQqX1CZ1GCHucK6svgFF3TmAN4bBUudMPj_YI9yyLo', 'width': 4160}]",ChIJNRdV_pjHPjARAhY8PVUkN-c,3.5,"['tourist_attraction', 'point_of_interest', 'establishment']",6,4.070904,96.224693
"36FC+2W, Padang Rubek, Kuala Pesisir, Nagan Raya Regency, Aceh, Indonesia",Cafe apacut,,ChIJ67rtTwDHPjAR4frkJmYstMc,0.0,"['tourist_attraction', 'point_of_interest', 'establishment']",0,4.072592999999999,96.22237299999999
"36P6+F7H, Unnamed Road, Suak Puntong, Kec. Kuala Pesisir, Kabupaten Nagan Raya, Aceh 23681, Indonesia",Warung pancing Suak puntong,"[{'height': 3120, 'html_attributions': ['<a href=""https://maps.google.com/maps/contrib/114289055113010557284"">A Google User</a>'], 'photo_reference': 'AUGGfZmd2Zy9mzS8oD1HY8ROlSd0jksmpb25w1TGqUbYQUCgkyWE2_vKtHLa70wpGdHEpGyn8na_6HMwoMCpLo8MlTKDZeWtbXa3m72mMAefldSbj-8oDwfxL15j2f4rbTIlYHds72HZvS1PjhzHSgujtuWofMZUhmiGrLQ3j4njbG0dM6dS', 'width': 4160}]",ChIJFVe_pGfHPjAR5YKtjbpDsdQ,4.0,"['tourist_attraction', 'point_of_interest', 'establishment']",1,4.0861817,96.210725
"27J4+C42, Unnamed Road, Kuala Trang, Kec. Kuala Pesisir, Kabupaten Nagan Raya, Aceh 23661, Indonesia",Pantai Cemara,"[{'height': 3024, 'html_attributions': ['<a href=""https://maps.google.com/maps/contrib/109396192484066967625"">Yeni Novida</a>'], 'photo_reference': 'AUGGfZkPQZgRJjbWoZR4GgTzKtkQjTVCu7-i3muMUpTUNKzYxmHdkZzE19Y6xDtCEZ40haAeGVYsVXOtOdnUb5x24EEfmEN_ITLbFSp1MBH4uMxBAAVxEg05RTMmNT6Zh_iGEAmypCWTPmUvRiN-BVgUFY7-ZyH_KRr03ZAK3bkxUDaLVrch', 'width': 4032}]",ChIJf7x7pcK3PjARIcSDcRjsbqw,3.1,"['tourist_attraction', 'point_of_interest', 'establishment']",7,4.031001499999999,96.2552608
"36G9+V9R, Gampong Lhok, Kuala Pesisir, Nagan Raya Regency, Aceh 23681, Indonesia",Pantai Lhok Raja,"[{'height': 3120, 'html_attributions': ['<a href=""https://maps.google.com/maps/contrib/103686918386706178096"">A Google User</a>'], 'photo_reference': 'AUGGfZlGoZxj6YcAJLCDVMs9ggsVPjXM2Rv6lqAnxVPtKKRURqwmVp4LiPrC2hgXPG1v5xKzvp0vo0SIwMrhKbqJ8UciOl2-F3OcY6geFM9N7G3cXkEm_T0K_OEq40u2IvEv4IglMKTvqXN7ANn1hSHBWPK0wcUX9esxb8NGWQhS5Or8CuBo', 'width': 4160}]",ChIJGWUvZsjHPjARAwFFhWn0Q7c,4.4,"['tourist_attraction', 'cafe', 'store', 'food', 'point_of_interest', 'establishment']",93,4.0772483,96.2183783
"37M9+73X, Pulo Ie, Kuala, Nagan Raya Regency, Aceh 23681, Indonesia",Simpang Sidan Desa Pulo Ie Kecamatan Kuala,,ChIJJ6YzESTJPjARv6Y0DhZpLOI,3.0,"['tourist_attraction', 'point_of_interest', 'establishment']",1,4.0832484,96.2677193
"Gombak, 68100 Batu Caves, Selangor, Malaysia",Batu Caves,"[{'height': 1365, 'html_attributions': ['<a href=""https://maps.google.com/maps/contrib/108093408089432966223"">Adam Bolty</a>'], 'photo_reference': 'AUGGfZmxkuVA7nft85Waqe7A1QaZEhBXle5JB5OQ2VlgLVriheBkPkcbJsLjSUFNZ8eX_KOm8ABwLiXCJl7iKaZCUelRUrCyRCbvMxuD2aRvOdhTCD1EwK3DbtF9LFyRqzziYLPbS49UbKVc2rgZORhwqVQWPFr4gaposh5UeurvxMAvXt0Z', 'width': 2048}]",ChIJBahJiQxHzDER-Z5vs7Lrv_I,4.4,"['tourist_attraction', 'place_of_worship', 'point_of_interest', 'establishment']",60525,3.2378844,101.6840385
"36FC+JF6, Jalan Samudera Pantai Lhok, Gampong Lhok, Kec. Kuala Pesisir, Kabupaten Nagan Raya, Aceh 23681, Indonesia",Penikmat Senja Samudera Beach,"[{'height': 1472, 'html_attributions': ['<a href=""https://maps.google.com/maps/contrib/118229413003903834324"">A Google User</a>'], 'photo_reference': 'AUGGfZmUwuZbhEcDpz2qEwNLsG5F0M39v8DuhsVXFlo7o-F9a31_XqjoZrK9a1ufqcH_yNYOIU0iFMhJGlPSdstXJomqZKuem3Xubb_4fy4CUdYaPO1R5TIbFKOzTxfM7FR5rsCKPLKmdmtEHCw0Ro0o2xXyH5PiJtZISEDVBP7bYuJPU21f', 'width': 828}]",ChIJFdeMHwDHPjARrxs6Oa-Z5JU,5.0,"['tourist_attraction', 'point_of_interest', 'establishment']",2,4.074064799999999,96.2211725
"Lorong Belakang, Jalan Raja Jalil, Pekan Lama, 45000 Kuala Selangor, Selangor, Malaysia","Laluan Seni, Pekan Lama","[{'height': 3926, 'html_attributions': ['<a href=""https://maps.google.com/maps/contrib/117949342139248439903"">hanif arifin</a>'], 'photo_reference': 'AUGGfZnwq9Zq0tUX-12mzOLeUVeNZmMblAwKxNOu3LxLsR7BJXfI0co5AC_pcqHp2F5NOM3lyyjB2ImtB2TYIJN9znR8UUPrts4ZmVveoNBpR9gGm_4dj4_bkArG7GqT2fcy2GBz5ZEm15-5Ap8QrOOGkSlpINBO3S9gUt6EH8jhz1sQ6Z2X', 'width': 5332}]",ChIJA7p-JjPzzDERz0DJo5vfYNg,4.8,"['tourist_attraction', 'point_of_interest', 'establishment']",12,3.3410616,101.2492078
"Jalan Sultan Mahmud, 45000 Kuala Selangor, Selangor, Malaysia",(Official Jetty) Sky Mirror Kuala Selangor,"[{'height': 2160, 'html_attributions': ['<a href=""https://maps.google.com/maps/contrib/103700564007602729320"">A Google User</a>'], 'photo_reference': 'AUGGfZkgOvjQ888CqO8HM2V5BObsnuou8o587UZHyQIfl-1Mpfk1Sqx2-mg17wYFgRgE-RsVVwDh6NezzRMRNgD6ddGreO9arxru0bLfa0LgnL7ERHGuhh8V4Oj43VwTq1k8AkupIhLPgwWlr2d-XOAaDxReN8tVyzwg1UXEy58hv6NOdyec', 'width': 3248}]",ChIJDe7XA77zzDERddzPYx6WQ2o,4.3,"['tourist_attraction', 'point_of_interest', 'establishment']",1976,3.3424776,101.250781
"2 Jalan Punchak, Off, Jalan P. Ramlee, 50250 Kuala Lumpur, Malaysia",Menara Kuala Lumpur,"[{'height': 4000, 'html_attributions': ['<a href=""https://maps.google.com/maps/contrib/108597933853743961751"">Maximilian Mende</a>'], 'photo_reference': 'AUGGfZmUkBxnpXKvDPL0-z3Jq0O_XxeVoTNdMboagnHbkWWUFNgizt36WN7jiYq4cPyio262tzrlRjVKJXIdR9aXPMID7PH1lG_9k6SM7wEFc3spESyNl2PVirZ-4mhoB8BYZYzcb_eU2klxDF5rkVYcyX2Jd2Pc4Az9vHkAlzrq6HZeWrzG', 'width': 6000}]",ChIJE1jNHStIzDERujrDO85YYBA,4.5,"['landmark', 'tourist_attraction', 'park', 'point_of_interest', 'establishment']",34597,3.1528762,101.7038516
"Jl. Meulaboh - Nagan Raya, Kuala Teripa, Kec. Tripa Makmur, Kabupaten Nagan Raya, Aceh 23662, Indonesia",Kuala Tripa Beach,"[{'height': 3000, 'html_attributions': ['<a href=""https://maps.google.com/maps/contrib/111339736915062094209"">Dedi syahputra</a>'], 'photo_reference': 'AUGGfZkYO6m1akyO86nHYOZIy8k3s8YC6dH3tiBFwHzh2MJ4MGUFYgRwZF1ktJru7CjH8Qu_2mt3gex0TeQI4dbxOOoZoCbaLU02Q8hNBtQ4sl6JqPFgvQrojSIjO1xHQx8hrKAjM0jrcpulYuu9OmVvw_tYMNEKKbuiCgrW_tsqXhdRSO8D', 'width': 4000}]",ChIJYbF7NHKzPjAR9vERAc_kYsI,4.7,"['tourist_attraction', 'point_of_interest', 'establishment']",9,3.8935483,96.35595169999999
"MY :, 45000 Kuala Selangor, Selangor, Malaysia",Malawati Hill,"[{'height': 3000, 'html_attributions': ['<a href=""https://maps.google.com/maps/contrib/100827918438930804132"">Subah Shini</a>'], 'photo_reference': 'AUGGfZm2kye_rKHzlyTDpH41aA6x9jlZ1gtnE0kIvW_AuIZCL29BLFsIwTyAttO3hxf76ERpEHKjgQWMWlicIk3OxywHHudZFCwrMYCD__AVWKPWEqy-Yf0OGZ_idEOT3rDWFGpP1cD3uX7lDC8M98dJx-CqG9AtXSIy-r8d4p9Pa52yEuFE', 'width': 4000}]",ChIJDbHKEVnzzDERB0onrkufykA,4.2,"['tourist_attraction', 'point_of_interest', 'establishment']",5120,3.3416401,101.2463485
"Jln Raja, City Centre, 50050 Kuala Lumpur, Wilayah Persekutuan Kuala Lumpur, Malaysia",Merdeka Square,"[{'height': 4032, 'html_attributions': ['<a href=""https://maps.google.com/maps/contrib/117606389515370040679"">A Google User</a>'], 'photo_reference': 'AUGGfZkEDBK-9Q5KRYwHKBTY9vzduTMx4srsTeE5hWqk1Wc3fPty8s6EqI6Wd6tAq3y818bjlO2wllOAlE_WFywU9C2X8fXR-SYTnXajKkMJUZ9LrhJiDS0V04toRSwQ-ysKOvjlo7vNLy4qjuLryqWxADE74pW4drava15jR4ww28heRBVG', 'width': 3024}]",ChIJORWImM1JzDERWTN2vAb5CzQ,4.5,"['tourist_attraction', 'park', 'point_of_interest', 'establishment']",45556,3.1490605,101.6936592
"45000 Kuala Selangor, Selangor, Malaysia",Altingsburg Lighthouse,"[{'height': 3840, 'html_attributions': ['<a href=""https://maps.google.com/maps/contrib/113621015968005137963"">A Google User</a>'], 'photo_reference': 'AUGGfZlE2ww36uzEsq-2bEGgJXZaZovBvPFsUKYK9-6o2ZMmJtSVXmTyKux0bOW1uDFQBHRvphgHIJzh57ZOKiYut0hmAGaflS-HVQjzzW1YustVIHsd5GaTgXiq4WUeCpT280NSsZRCGwKcbwwKcWtR3LN815Kbwerh2djc-lX18Pnc6XGP', 'width': 5120}]",ChIJOdHfD1nzzDERtAKG2Sorwnc,4.4,"['tourist_attraction', 'point_of_interest', 'establishment']",158,3.3412187,101.2449326
"Unnamed Road, Kuala Teripa, Kec. Tripa Makmur, Kabupaten Nagan Raya, Aceh 23662, Indonesia",Pantai Kuala Tripa,"[{'height': 3120, 'html_attributions': ['<a href=""https://maps.google.com/maps/contrib/101324293700696525146"">A Google User</a>'], 'photo_reference': 'AUGGfZmHfOdH8fH64x-DJsK7uRlNFC79OeWI96oIVSm8O-pAuWfmVaW44zdE8rEl8cEP5RuAniVXh175bP0wfgQCRWoSH1Abl49t7npwB8e7-4M1VdoHkf0MR56SdYyrg-QxgwrG0Jj5qOCUEnNhc--jEOnAofhiv-_pGH0ppiO6D16eoWGQ', 'width': 4160}]",ChIJZbPwigyzPjARqroYS7tr9Ww,4.3,"['tourist_attraction', 'point_of_interest', 'establishment']",11,3.891898099999999,96.36000310000001
"Perdana Botanical Garden, Asean Sculpture Garden, Pesiaran Sultan Salahhudin, 50480, Wilayah Persekutuan Kuala Lumpur, Malaysia",ASEAN Sculpture Garden,"[{'height': 3265, 'html_attributions': ['<a href=""https://maps.google.com/maps/contrib/100408068665997412463"">Phòng Thông tin Triển lãm</a>'], 'photo_reference': 'AUGGfZlHttkkRo6ZP0bhNRHgqhDYh1luv2pmQFTd_cEMvwWBjT5zo1BzmHyfjS4eHbgdlATCff7GxJRRsFw_L7tex0DOVcmtDVYMw54XRSmBmbm2kIVzIH2OB1VO8YOrY0nyj28fBffltn8E2FNjrW8ND3ouDM9oZRGrxMIwtfAdWimSQOXi', 'width': 4898}]",ChIJm4fmX7VJzDERAr6LJ1p2j8Y,4.4,"['park', 'tourist_attraction', 'point_of_interest', 'establishment']",4489,3.1504807,101.6839757
"Jalan Kebun Bunga, Tasik Perdana, 55100 Kuala Lumpur, Wilayah Persekutuan Kuala Lumpur, Malaysia",Perdana Botanical Garden,"[{'height': 3456, 'html_attributions': ['<a href=""https://maps.google.com/maps/contrib/102254411133603152308"">Ang CheeYong</a>'], 'photo_reference': 'AUGGfZlLAxQXnWtMZq_qGmKnQLdl3BIBTXnVtCuO9J4AyZaH1hEWwMqyEmOi_3yMocAp3sljuBNfaVpsq6BDsQ5TQmYHKdoOIRDB8gjy_3uDqR002GGQQhslwi4aUQk17b2-FAtaDJPb7fuXQb6bORSLdNcO4jlfYYV_eos-t7zVUG5OYbfY', 'width': 4608}]",ChIJEWkeL7ZJzDER38lq7GVsWyk,4.5,"['tourist_attraction', 'park', 'point_of_interest', 'establishment']",24571,3.1431481,101.6849799
"Cangkat Persekutuan, Bukit Persekutuan, 50480 Kuala Lumpur, Wilayah Persekutuan Kuala Lumpur, Malaysia",Palace of Perak,"[{'height': 2268, 'html_attributions': ['<a href=""https://maps.google.com/maps/contrib/105165773086024547869"">fady alrayyes</a>'], 'photo_reference': 'AUGGfZkinClm-D572kQ4mwUxcHQ-sNtTl3_WV4ye1mjlRFXc2GQG_VvqefgyMclA2h0TvLMvOJcCUTtHhFbXFRNTLy-c35lj9XIQt8uhdN7dCx5MxTCrr-sMjHIyn6ZNfpgdIOUEcrPPr-bCLutDkvlAgmrjJkDYbIFmJ8wT_NrixrjycPnl', 'width': 4032}]",ChIJ30IaJr9JzDERwm1OuyhDiUs,4.6,"['tourist_attraction', 'point_of_interest', 'establishment']",83,3.1359645,101.6822316
"2799+H9M, Kuala Trang, Kuala Pesisir, Nagan Raya Regency, Aceh 23661, Indonesia",Pantai Seunagan,"[{'height': 1184, 'html_attributions': ['<a href=""https://maps.google.com/maps/contrib/114226784141700062465"">asnan cot rambong kuala pesisir</a>'], 'photo_reference': 'AUGGfZlNkavZ9zQvc0dPyoFfJYR6ycMNMDpHgR1w0NvUuz3gNBjUINQ-P62hK1vsYffxldTHo_29hX04SpypXNrdtDbUHZn8ZjW-yAkEVsqr25GI0kvvsAwGb8AsjPOYUZgoW0uwohHrzHwLz43etk_xFlikpiUZfmFoFGCcURtVvwJ1WhE5', 'width': 2560}]",ChIJ-8LqPWq3PjARLrFWx1Cgu-8,4.7,"['tourist_attraction', 'point_of_interest', 'establishment']",7,4.018956,96.2684086
"Pasir Penambang, 45000 Kuala Selangor, Selangor, Malaysia",1188 天空之境,"[{'height': 3000, 'html_attributions': ['<a href=""https://maps.google.com/maps/contrib/110716025362780210006"">黃春福</a>'], 'photo_reference': 'AUGGfZnbXWBa-CbbZcFFQWy71Swm0VUsXshLOWF_dHQf18V_TR2fRr38mwkJok02-7_HPIdSy_c6BOydX-O4257xgnntHXw2YfNW8E3pnjx8p8_GetC43SlfZZDy8uW0JNf_Fp-v8clDXWQczeLtU5pZizZ_1YV5cGAilaxa2t9aTz1LQ-sr', 'width': 4000}]",ChIJ7aII5qXzzDERMwaJlRwoaIs,4.5,"['tourist_attraction', 'point_of_interest', 'establishment']",102,3.3515402,101.2493329
"Kuala Tadu, Tadu Raya, Nagan Raya Regency, Aceh 23661, Indonesia",TPI Kuala Tadu,,ChIJWVeLIjO3PjARRSAaxHlQN30,0.0,"['tourist_attraction', 'point_of_interest', 'establishment']",0,3.9652206,96.30877860000001
"Level 1, Green Zone above Giant Supermarket, Sungei Wang Plaza, Jln Sultan Ismail, Bukit Bintang, 50250 Kuala Lumpur, Federal Territory of Kuala Lumpur, Malaysia",MinNature Malaysia,"[{'height': 2268, 'html_attributions': ['<a href=""https://maps.google.com/maps/contrib/100940401411909188324"">MINNATURE</a>'], 'photo_reference': 'AUGGfZn82Ev-OddQqpAFfZ32ARrNGq7IYPfM6Quqe1oey4PApjNmN2r0WntiCFS3tbmmgTCLdN6rfquYM3e_0n0pXUxI8CkrXVS81IKEqtjIyF_ljqcvsbq3UuRVhHNdjPcxFt5fm4HTXLwqY7SSrdYv4-hsvHDOKe5HutW7qlzJa4haxigk', 'width': 4032}]",ChIJ27V2U5NMzDER5BiqIB-t7fQ,4.8,"['tourist_attraction', 'point_of_interest', 'establishment']",698,3.1439061,101.710928
"KLCC, Lot No. 241, Level 2, Suria, Kuala Lumpur City Centre, 50088 Kuala Lumpur, Malaysia",KLCC Park,"[{'height': 2109, 'html_attributions': ['<a href=""https://maps.google.com/maps/contrib/117850279269541082357"">It Jaya</a>'], 'photo_reference': 'AUGGfZlSJGo55tr2DvUGhu0v2f41TLMUwFsbZEyLM8V37CMoNaUTMw9InhkXagOB8cIdiPnh6lXytLttTQ30ASNpuA9otVPB9yA1WPvcVCU9m2fDPlr-dk7oMZuYlDZUpSPxJ0p4VkocSgeP2nmjdyPy3Z_lycAMNzAeB0S5zkMwpetVn9zm', 'width': 2313}]",ChIJBWbm2tM3zDERTno0px940s4,4.6,"['park', 'tourist_attraction', 'point_of_interest', 'establishment']",56259,3.1553166,101.7139427
"279F+WWR, Kuala Trang, Kuala Pesisir, Nagan Raya Regency, Aceh, Indonesia",PANTAI KOLAM BEBEKGAMPOENG KUALA TRANG,,ChIJvT5SHwC3PjARwnPhDgpuqWg,0.0,"['tourist_attraction', 'point_of_interest', 'establishment']",0,4.0198522,96.2747734
"Jln Tuanku Abdul Halim, Bukit Damansara, 50480 Kuala Lumpur, Wilayah Persekutuan Kuala Lumpur, Malaysia",Istana Negara,"[{'height': 1770, 'html_attributions': ['<a href=""https://maps.google.com/maps/contrib/100657037478485574064"">Magdolna</a>'], 'photo_reference': 'AUGGfZlzI-xB8PUFZ6nvqn7Ta60033xShdhu1chM1rUgC_P-Zv0OL3YsIqSi7c1OP7HogsDbGh56gcriCDDm5wt6TrpmsDfbkzpTUz3Ym6RO0vQQBwfE1oZCgUbZ-ALq62_FmWWK-IHBK4rld5pKXN3wVigHSAF04FP0WMJF3xrxJ5Dy2z2R', 'width': 2714}]",ChIJrcImKFhIzDERyKp873i-bdM,4.3,"['tourist_attraction', 'point_of_interest', 'establishment']",7263,3.1614782,101.6638917
"Blang Muko, Kuala, Nagan Raya Regency, Aceh, Indonesia",Kebun jeruk nek,"[{'height': 1920, 'html_attributions': ['<a href=""https://maps.google.com/maps/contrib/100783841487235246020"">A Google User</a>'], 'photo_reference': 'AUGGfZm-RoQfytCknctaOKacXl7lFt8XBVchSMnler1XapGsWMH6udoX3jf0KSncHyPuBztyMH4RS5SAfXOE_MEi_orOhxn5vV1DRT-W7SIcpW7C4I5Va-YiLC6CSK9ahUGxAnd_wBKkrpZ2dQOo0_Ljd8Kk0HeWAexLE5e1xhq_qz4Kmth6', 'width': 1080}]",ChIJeU9FWgPJPjAROuYeX-E6Kss,0.0,"['tourist_attraction', 'point_of_interest', 'establishment']",0,4.1049283,96.2833036
"29GG+M3Q, Gapa Garu, Tadu Raya, Nagan Raya Regency, Aceh, Indonesia",Nila Gacor,,ChIJ6ZjWDgC1PjAR7AMcLczAcyg,0.0,"['tourist_attraction', 'point_of_interest', 'establishment']",0,4.0267249,96.37522159999999
"No 1, Puncak Bukit Melawati, 45000 Kuala Selangor, Selangor, Malaysia",Muzium Sejarah Daerah Kuala Selangor,"[{'height': 3000, 'html_attributions': ['<a href=""https://maps.google.com/maps/contrib/117146073996186729047"">Wang Wee Siang</a>'], 'photo_reference': 'AUGGfZloTOhdOO3HwJeCX55QFctgXepwzGNGkogiygr9b4Of0JtAqyEe7JuJ4AkOuo85KaYIIDUCP0aJOYeRDhFlNXUOuSYZDQ7DFMfOFysQuzfS7eXN2ViPyNXB1QAzqz_Jx8bLnwmaQK1NpmjpRQmIVf8B9z0IEKExblacMf-nfsf9U9c', 'width': 4000}]",ChIJAZ2Is1vzzDERcL3u2gXXYhU,4.1,"['tourist_attraction', 'museum', 'point_of_interest', 'establishment']",244,3.3418067,101.2453417
"River of Life, Jalan Tun Perak, Kuala Lumpur City Centre, 50050 Kuala Lumpur, Federal Territory of Kuala Lumpur, Malaysia",Kolam Biru,"[{'height': 3024, 'html_attributions': ['<a href=""https://maps.google.com/maps/contrib/109404760884412579390"">Cj Houston</a>'], 'photo_reference': 'AUGGfZk_ehjUZOKJu7L4PEuLUeguJdY0N85T4lmOJWgPiZ16Zy9eF65lp1jkjq-1SQYuRfPd-b-NhAItn_wAgZ7rtKB1xK58xelmda1st-5897WCx-hFXZY73gpsb2IpbpuEe7zi2mzLiRkM89EovqK2p4k-6qP9mIW48WW67K32iHb3roKX', 'width': 4032}]",ChIJfXjQic1JzDERPt_s5Y9b6LY,4.5,"['tourist_attraction', 'point_of_interest', 'establishment']",131,3.1481777,101.6954539
"Pesiaran Sultan Salahuddin, Kuala Lumpur, 50480 Kuala Lumpur, Wilayah Persekutuan Kuala Lumpur, Malaysia",Plaza Tugu Negara,"[{'height': 3456, 'html_attributions': ['<a href=""https://maps.google.com/maps/contrib/110805744037140242963"">Shashank K Pal</a>'], 'photo_reference': 'AUGGfZmlyfv0odUxa2h3v69X1rnY3Wat1ydSUhsejQGZkl-oL6uRT8eNuOhpVpnMBkztETdhgAZ6SlVZs3F8t7r6mWQlsA2CnZCv37LkoWpFb29rDZDLrkehamo-_m12aFcSV7GkFGrS4rzUWqEufE5IKohxRzWq7E9xXzuHXMYT6MA6g6nq', 'width': 4608}]",ChIJOzgKmspJzDERMH_AAunHNm4,4.6,"['tourist_attraction', 'park', 'point_of_interest', 'establishment']",395,3.149993,101.6847623
"Petronas Twin Tower, Level 4, Kuala Lumpur City Centre, 50088 Kuala Lumpur, Malaysia","Petrosains, The Discovery Centre","[{'height': 1536, 'html_attributions': ['<a href=""https://maps.google.com/maps/contrib/106908161960027928036"">Budi Santoso</a>'], 'photo_reference': 'AUGGfZkosoKUavVgUesrsjGDeO89rVagboDYiLKBxPqBFh4HpW7_L03TDvXiAY5dEJNcxPOtPdQx5_fs8L3smYZcWPVdmFVxhZ11reMoC-Plg03bjQELdHhnaTvshBAQpAP8ZFh2y8upYwNhiZ5w7fdEeqb4ugdnE8Riave1Fdr9qbxycuVg', 'width': 2048}]",ChIJiXsntdY3zDER0-B-9En1XOQ,4.6,"['tourist_attraction', 'museum', 'point_of_interest', 'establishment']",6961,3.1578933,101.711981
"Jalan Taman Zooview, Taman Zooview, 68000 Ampang, Selangor, Malaysia",National Zoo of Malaysia,"[{'height': 1840, 'html_attributions': ['<a href=""https://maps.google.com/maps/contrib/110429940718669466648"">Seok Bee Lim</a>'], 'photo_reference': 'AUGGfZmH26OluqR9pyVU2-J895mE-_SaTeAcEPGGToShP9CVDMouDCebso7vtQYFqnELKKWxjNL66BAvuajTwEziMRYZ6vLgCN0fnINjkRnTf2UnIGIq3WnL_b1CyrB_jeyQIUZt82rU1ebLCYHpY4UssKbSqTU0dkF9_yKaRsBFJnYDybtf', 'width': 3264}]",ChIJ4R-DCrY5zDERL3vbAscAyPI,4.1,"['zoo', 'tourist_attraction', 'point_of_interest', 'establishment']",18942,3.2103488,101.7588188
"V98R+PPR, Jln kuala tuha, lamie, Babah Lueng, Kec. Darul Makmur, Kabupaten Nagan Raya, Aceh, Indonesia",Krueng mate,,ChIJA89Lt-etPjAR9LfX6HmTtiY,0.0,"['tourist_attraction', 'point_of_interest', 'establishment']",0,3.866874999999999,96.3917654
"26VV+QVV, Kubang Gajah, Kuala Pesisir, Nagan Raya Regency, Aceh, Indonesia",Pantai Seunagan,"[{'height': 1280, 'html_attributions': ['<a href=""https://maps.google.com/maps/contrib/105839304197333789934"">A Google User</a>'], 'photo_reference': 'AUGGfZnYUtx5xb6TBhkHZHFwgjBeY73NK9e2HnMmhuj-QaWrpEyJVjYLsEhlUlqCBZY0SaNp2JR_C-0-yoz9tCWGuiCHeniwK9FSn4dnkHA2IOmLCsd4YrU6oI7BzWrJAkBjuKu0bGCBGKaAZmttCRrPSdEf07KzTI-PqiXzHtsBp7TYsGPj', 'width': 720}]",ChIJaUTFlv23PjARdD53RzvjcRU,3.6,"['tourist_attraction', 'point_of_interest', 'establishment']",16,4.0444833,96.2446848
"987C+P74, Blang Tengku, Seunagan Timur, Nagan Raya Regency, Aceh, Indonesia",Ladang Kuhadin,"[{'height': 1920, 'html_attributions': ['<a href=""https://maps.google.com/maps/contrib/110945264612454959384"">Ahmad dani</a>'], 'photo_reference': 'AUGGfZktYZMTlHArKVoUADL92uKNgm_xJfz-Vy2Dv4XSh92AItQ4yhoTry7QhbBvfiAmBlinuGIrjYVsjHZtv_L1CsRLaJVI3Mv7ojdHvWIG5gUsL645xOjKaGEaXO6YXWXpbMRU8hNv_tb5A2J9jYmHFXprHuiW60yb_YmmiTB74UugLLQi', 'width': 1080}]",ChIJCeu_Yx3XPjARjIUHOnCRkDU,0.0,"['tourist_attraction', 'point_of_interest', 'establishment']",0,4.364258,96.3207144
"788R+X6, Blang Tengku, Seunagan Timur, Nagan Raya Regency, Aceh, Indonesia",Jembatan gantung Blang Teungku,"[{'height': 4160, 'html_attributions': ['<a href=""https://maps.google.com/maps/contrib/113279490509086620086"">A Google User</a>'], 'photo_reference': 'AUGGfZnaGFTd-rk0vqOgwcTPNY2q5wdjhM6xRdqp56kBf8KBoLXMuB5PKrYUt5ZASjCKbMA_5ok94h-2W3W8PcJZ75xVQ_jJswYMw9bFzdbtNj0n5ns-yYiqhdci7QNCw9htcDxOmHZdsr5jOfoonbULeyJzKP1YhS-8iGYnRIAm7rMYb3Ny', 'width': 1872}]",ChIJYR761V7TPjAR2hyHy9TH2zk,0.0,"['tourist_attraction', 'point_of_interest', 'establishment']",0,4.2674427,96.3405956
"79CH+4JF, Cot Gud, Seunagan Timur, Nagan Raya Regency, Aceh 23671, Indonesia",Wisata krung Cot Gud *wow*,,ChIJf4wWRBrTPjAR3iLdHROghlE,2.8,"['tourist_attraction', 'point_of_interest', 'establishment']",4,4.2703228,96.3790551
"87CW+27, Tuwi Meuleusong, Seunagan Timur, Nagan Raya Regency, Aceh, Indonesia",Jombo Lampoh Amadi,,ChIJQ4pyHgDXPjARDBsE1O_bCso,0.0,"['tourist_attraction', 'point_of_interest', 'establishment']",0,4.3200894,96.2957486
"685W+6RP, Alue Peusaja, Suka Makmue, Nagan Raya Regency, Aceh 23671, Indonesia",Teupin Jaloh Krak Tampai,,ChIJtUBxlh7TPjARJnJhxksN1LM,0.0,"['tourist_attraction', 'point_of_interest', 'establishment']",0,4.2080834,96.3470775
"882V+J4F, kandeh, jln. krueng meulaboh, Pante Cermin, Kec. Seunagan Tim., Kabupaten Nagan Raya, Aceh 23672, Indonesia",Bendungan Kandeh,"[{'height': 3120, 'html_attributions': ['<a href=""https://maps.google.com/maps/contrib/114258208191533111113"">A Google User</a>'], 'photo_reference': 'AUGGfZkIDOn3KiEbf-GSai0Q3Cq_7SK4wb5zjP00Sdzx4O-Ef4gFtUDD9glxBhXCp0CBek3ReiTx6Jq7OIJTwHY5NDXXK-sk2RVxQPuhStlwzNbOakkiBPThk0Bm4xM5Ylr7BmztX48xridIVezZ-hdKICXcceF0XMZwpL17ctA3TaI2Yv6m', 'width': 4160}]",ChIJkX3_167VPjARMZRFJeDCu4E,1.0,"['tourist_attraction', 'point_of_interest', 'establishment']",1,4.30155,96.34279629999999
"Paya Udeung, Seunagan, Nagan Raya Regency, Aceh 23671, Indonesia",Penyedia Jeruk Lokal,,ChIJwymanenRPjARLYO9XJpZw1c,0.0,"['tourist_attraction', 'point_of_interest', 'establishment']",0,4.2171022,96.26555479999999
"68CJ+Q94, Jl. Irigasi Al-Zabar, Blang Puuk Nigan, Kec. Seunagan, Kabupaten Nagan Raya, Aceh 23671, Indonesia",ALAM MEGA JAYA jalan alue peusaja - jeuram,,ChIJcTLzPNrTPjARKzI-EPVA3OY,0.0,"['point_of_interest', 'establishment']",0,4.2218826,96.330942
"5833+37J, Cot Kuta, Suka Makmue, Nagan Raya Regency, Aceh 23671, Indonesia","Sawah""Ampon Muda""","[{'height': 4160, 'html_attributions': ['<a href=""https://maps.google.com/maps/contrib/115751891597579306786"">A Google User</a>'], 'photo_reference': 'AUGGfZncLPhA3LC-IxO43k1T9fGrR2HC7CYBCxB8gWZym0qKiFURm-qtwlAMma3UwG9RgmNIjiueoKisTN5n70Zp1IN6J8vAT0OkCwIBznx_TlNQMdNSZRc6VKgO_OVKeTauB3BROWtjDILmXgf6hf1HFJe84qZQ-UdMds8JGrOYThkxmKUO', 'width': 2352}]",ChIJ78sKJ9bPPjARgzbzvE9GTeY,5.0,"['tourist_attraction', 'point_of_interest', 'establishment']",1,4.1527005,96.3031278
"5897+RV6, Lueng Baro, Suka Makmue, Nagan Raya Regency, Aceh, Indonesia",Lapangan bola kaki karang anyar,,ChIJLaq5cgDPPjARUsSHL8YTI3s,0.0,"['tourist_attraction', 'point_of_interest', 'establishment']",0,4.1695404,96.3146324
"589G+8F8, Lueng Baro, Suka Makmue, Nagan Raya Regency, Aceh 23671, Indonesia",Kota Suka Makmue,,ChIJ2f_GdsXNPjARx-YMxutivpc,5.0,"['tourist_attraction', 'point_of_interest', 'establishment']",1,4.1682785,96.32620419999999
"573J+VXX, Macah, Suka Makmue, Nagan Raya Regency, Aceh, Indonesia",GAMPONG MACAH,,ChIJ64LJELbPPjARaOLcGkxE1R8,0.0,"['tourist_attraction', 'point_of_interest', 'establishment']",0,4.1547376,96.2824698
"48W2+7J, Alue Kambuek, Suka Makmue, Nagan Raya Regency, Aceh, Indonesia",Aisal sp,,ChIJL3hykSnPPjAR0aPbyj9pHWQ,0.0,"['tourist_attraction', 'point_of_interest', 'establishment']",0,4.145738,96.301503
"58CC+CJ2, Lueng Baro, Suka Makmue, Nagan Raya Regency, Aceh 23671, Indonesia",Masjid Agung Baitul A'la (Masjid Giok Nagan Raya),"[{'height': 1960, 'html_attributions': ['<a href=""https://maps.google.com/maps/contrib/106625986688183859902"">Ishak Bima</a>'], 'photo_reference': 'AUGGfZlj7N5UcL8mDhuA2GRoaUktmNCXi8bz7bTnIUjMzWwO1g5VG2b4WbxPgBWyeo8fnDo-hm0jJ5KFvlEwl0-3-MwWN5H8TH3VZpkgPzWbOCSeeDDXrb2C6zNB0unh6DZPo11rLVamojjpSdjol57xnNd6Fcqbh92zhcQmoW2Y8m53rqmN', 'width': 4032}]",ChIJcSIrftPPPjARbUqPEBCpSlE,4.7,"['mosque', 'place_of_worship', 'point_of_interest', 'establishment']",250,4.1710458,96.32152239999999
"XGXF+MX2, Gunung Cut, Darul Makmur, Nagan Raya Regency, Aceh 23662, Indonesia",SPBU ALUE BILIE,"[{'height': 3120, 'html_attributions': ['<a href=""https://maps.google.com/maps/contrib/106840131926573965831"">Husnul Khalell</a>'], 'photo_reference': 'AUGGfZme0wlgqlVD-aLfABLuhG5kbKpGJEHoqL5VXa5AnD1XZGt_cW113ad4VkZuP_HqTWCunLJ1ikS7Q7J7Qx9rntD0T71kspHhtzAAPmS4U4w1SfjHBjaTXRaynHExFB-TfIyVXsSj-pFQMBv2m1NsGlqLw1T1AWBwVJ9fbqL9BpSH4wxA', 'width': 4160}]",ChIJrzsTnghJOTAR7DSL6nb71dw,3.8,"['gas_station', 'point_of_interest', 'establishment']",178,3.9991268,96.52489589999999
"PGW4+W28, Pulo Kruet, Darul Makmur, Nagan Raya Regency, Aceh 23662, Indonesia",Tanah garapan Suwardi m,,ChIJmUGfBJFXOTARpCbc9wuVlbU,5.0,"['tourist_attraction', 'point_of_interest', 'establishment']",1,3.7472895,96.5050935
"W8HP+QC, Cot Mu, Tadu Raya, Nagan Raya Regency, Aceh, Indonesia",Tanah kebun Hafidz,,ChIJ8RLOtFCzPjARNIDGv9HtaYQ,0.0,"['tourist_attraction', 'point_of_interest', 'establishment']",0,3.9294388,96.33607769999999
"485F+XG, Babah Dua, Tadu Raya, Nagan Raya Regency, Aceh, Indonesia",Ujong Patihah,"[{'height': 3118, 'html_attributions': ['<a href=""https://maps.google.com/maps/contrib/117074042976135003759"">iBlackNicotine PersonaNonGrata</a>'], 'photo_reference': 'AUGGfZniWKS4-vZl8VYGNnxhIeH4DqBRznkVJFDUykfFqQ799gfXwqT8JWMSEhVkksfGY6c5-TMQbOFC432Gp8-pAgLnrL_7AbKD_wqwhLjoyFXNPYUdJ_WMCil-UOV55OaRtu6vhEsx54mfhMWw9qe02ZjfOMTMHQ6OOaxqnFwOkysocs4J', 'width': 5846}]",ChIJETmAJLTLPjARVJHQVdlwrPM,4.5,"['tourist_attraction', 'point_of_interest', 'establishment']",2,4.109994599999999,96.32380560000001
"QJJC+V9, Gunung Samarinda, Babah Rot, Southwest Aceh Regency, Aceh, Indonesia",Titik temu,,ChIJiweycgBZOTARx05KrTsH2eM,0.0,"['tourist_attraction', 'point_of_interest', 'establishment']",0,3.7821513,96.6209045
"V92P+8CC, Unnamed Road, Babah Lueng, Kec. Darul Makmur, Kabupaten Nagan Raya, Aceh 23662, Indonesia",Pante Suak Dama,"[{'height': 4160, 'html_attributions': ['<a href=""https://maps.google.com/maps/contrib/107601245937588310286"">Muhammad Q</a>'], 'photo_reference': 'AUGGfZkHoZ423uOS9nxlW7TwaeBvZPP-b5EoIPX78fZV0xQ9nafkUPM8-X3XNt90Pjf0AV-DjfUHm9wKrhNjdQCPHf0V7lX7nOawT8uuR8egyxzWHpUNhroIh9Q74N6E6uKksiMPlaaLp8xIyaptnElWqfXJ46ayLZPwPTqnWl74g3JFVtQp', 'width': 2340}]",ChIJN56OWkatPjARLavo9u1Hllo,5.0,"['tourist_attraction', 'point_of_interest', 'establishment']",4,3.8508054,96.3860121
"RCPG+67, Pulo Kruet, Darul Makmur, Nagan Raya Regency, Aceh, Indonesia",RAWA TRIPA,,ChIJbwu0JQBTOTARTYieGSlshPA,5.0,"['tourist_attraction', 'point_of_interest', 'establishment']",1,3.8355736,96.42568729999999
"9PCW+FF, Paya Dedep, Jagong Jeget, Central Aceh Regency, Aceh, Indonesia",Jeget ayu coffee farm,"[{'height': 3900, 'html_attributions': ['<a href=""https://maps.google.com/maps/contrib/114511371349068827161"">A Google User</a>'], 'photo_reference': 'AUGGfZmzSSndUkTQsFlYpAGXCVYz57LTSjF0fcxHUzpB1ymLEiQI7K8WBlmBb1vCio07K23Wm5PoAw0tuavhkgtDgAyTf6g8X487BL-IkAW5582vSIGxoBJLKqhGcftLczykEecnYoPrRM9XdrKstHXBFwh0HkxHw5NRdsjDy2csPmN4eiu3', 'width': 5370}]",ChIJoTxvq0PfODARxteDKQ-ggFg,0.0,"['tourist_attraction', 'point_of_interest', 'establishment']",0,4.3711623,96.7462304
"PWX6+F4, Hutan Tangantangan, Tangan-Tangan, Southwest Aceh Regency, Aceh, Indonesia",Gn. kila,"[{'height': 332, 'html_attributions': ['<a href=""https://maps.google.com/maps/contrib/116168867129072076762"">A Google User</a>'], 'photo_reference': 'AUGGfZkp-NQX2ysORUdrxqLDnN5qjBpwFua9RZ7wCxou24j4qZk4yC4mWIK5tOKvlo-W2WPDHCiSs988oN1HBuwM3tuhgmOQXH_p8Py-8ifMfcNrMdtuJdMX2YyA9uBqTIaZipmnmVzOsimpBZlmcfvKfvN0CjP9z4eaIGHzsZBJUFimXVAq', 'width': 720}]",ChIJ_3YlNABjOTAR-6-aYS-hsmo,0.0,"['tourist_attraction', 'point_of_interest', 'establishment']",0,3.748672899999999,96.9103286
"X8HR+34, Alue Siron, Tadu Raya, Nagan Raya Regency, Aceh, Indonesia",Kebun Pak Bayu,,ChIJd5NK6fO1PjAR_goFDDC8S1c,0.0,"['tourist_attraction', 'point_of_interest', 'establishment']",0,3.977636099999999,96.3403123
"9MFQ+HWM, Gegarang, Jagong Jeget, Central Aceh Regency, Aceh, Indonesia",Tsm,,ChIJ5b9W7V7fODARB30suU61RWQ,2.0,"['tourist_attraction', 'point_of_interest', 'establishment']",1,4.373961400000001,96.689788
"PPR2+CC, Lama Tuha, Southwest Aceh Regency, Aceh 23766, Indonesia",Lama Tuha,"[{'height': 1836, 'html_attributions': ['<a href=""https://maps.google.com/maps/contrib/102173462800560688360"">Apak NAWIR</a>'], 'photo_reference': 'AUGGfZkZB1pL0l5y14veFTuWv8aA266ysXFQTxM0tLsc3RaQt8phvZJBVy4YWWj99irgaOhDh7uynYEU9OAS2dkIckfg8HAnRPrCCO14vjQSOJdEdH6tW8nJI7D-GAkyO3Y1Tg7vaLU-HMA8pmxXGMvm5D7yqZmmNALnGdq96KuSPpXi8ZYY', 'width': 4080}]",ChIJnVrZwHFfOTARxS5I_cbx66w,3.0,"['tourist_attraction', 'point_of_interest', 'establishment']",2,3.7426181,96.7009551
"V9CP+FC, Babah Lueng, Darul Makmur, Nagan Raya Regency, Aceh, Indonesia",Krung mate Tempat pemancingan,,ChIJL_9rFwCtPjARH8wRous_8MA,0.0,"['tourist_attraction', 'point_of_interest', 'establishment']",0,3.871177,96.3860476
"667X+33, Muko, Kaway XVI, West Aceh Regency, Aceh, Indonesia",Batu bara,"[{'height': 4032, 'html_attributions': ['<a href=""https://maps.google.com/maps/contrib/109250396999677664424"">A Google User</a>'], 'photo_reference': 'AUGGfZlv3nBTmT24AFfTtUH4jsoSWwk47_SpfG0_5rrEAIfsBKDU8hXM83d8PdJnY_qJFeYZnayyx-9qT0ynK7zhZ2ylY-vlVdXqWwL-UhfgJyE3hW8qVVnepGlvAZEkKsGpUuWFPF0T4tZ2NAZDfXP6edKw4vXAswfJbUNPc3kh01GF6h_S', 'width': 3024}]",ChIJnzs_Og3RPjARTX8TvvrGquY,3.5,"['tourist_attraction', 'point_of_interest', 'establishment']",2,4.212687,96.247643
"45CF+2V, Gunong Kleng, Meureubo, West Aceh Regency, Aceh, Indonesia",Laut gunung kleng,"[{'height': 3120, 'html_attributions': ['<a href=""https://maps.google.com/maps/contrib/118316917386846936329"">A Google User</a>'], 'photo_reference': 'AUGGfZkeU60XeRG2tLpEQsHRz0rBjD8PUNDeIY3ImLELseBFvOZqaN_tp3cYkVb2qovBFulTke7pyjYsC0H9jQH9aZ4Dh3nbSqucS3CVH3c4Jh8Mw4LEFCLpMEjVh4oYtDOTjoXbu5Aw9u8PVDqeF3F0_iF_tQ8mUuIEz3WjPXc9mcntbFV5', 'width': 4160}]",ChIJ7_qBaUfHPjARtHdsog08zlE,5.0,"['tourist_attraction', 'point_of_interest', 'establishment']",1,4.1200838,96.17464299999999
"QJJJ+9G, Ie Merah, Babah Rot, Southwest Aceh Regency, Aceh, Indonesia",Kebun Salman,,ChIJ_bWmKgBZOTARZNbudurBVNI,0.0,"['tourist_attraction', 'point_of_interest', 'establishment']",0,3.7809138,96.6313098
"6788+Q3, Muko, Kaway XVI, West Aceh Regency, Aceh, Indonesia",KEBUN WISATA BUAH H. M. ZAINI. ST,"[{'height': 4608, 'html_attributions': ['<a href=""https://maps.google.com/maps/contrib/117849389190563159439"">A Google User</a>'], 'photo_reference': 'AUGGfZmGPygkn9ALIBR_7aph45Yzj3alzSno-4SMJyERc88bA72LmZ2cxKuoHVIA2CguFy6Jy4i98EMAVS3iNud68UDo8j1DNhhmbb5Jvnyp2v1F0jMbCkjxaFr_bCObZ6l7GL-PNLR3Mist8KyBVQNnjM3fKSjjlLw64taWgiMxCG211KMR', 'width': 3456}]",ChIJ3a7icgDRPjAReeocVZUW_QQ,0.0,"['tourist_attraction', 'point_of_interest', 'establishment']",0,4.2168972,96.2652289
"44VV+49C, Padang Seurahet, Johan Pahlawan, West Aceh Regency, Aceh 23681, Indonesia",Pantai Calok,"[{'height': 4080, 'html_attributions': ['<a href=""https://maps.google.com/maps/contrib/102195192757521125618"">A Google User</a>'], 'photo_reference': 'AUGGfZn2J533XxrtS7dNmhL9eqhgO3WHUNElLYbsF7b2lvgxOMZqAGQmWkvUWbkmQzTjpklQ1CMon02ak8d9xEL-VPEFzTR83GjaOLbtnwQUv7iTrjwZiqYQsQoTwEor_LZNvP9wKGSiiO66dQMZvwfghVGNUNndMbEP9MWUoOtXlWX3dGOJ', 'width': 3060}]",ChIJiy5FZrzDPjARO8Ctd37DZlw,5.0,"['tourist_attraction', 'point_of_interest', 'establishment']",6,4.1428143,96.14339059999999
"44X8+36W, Kuta Padang, Johan Pahlawan, West Aceh Regency, Aceh 23612, Indonesia",Ujong senja,"[{'height': 2449, 'html_attributions': ['<a href=""https://maps.google.com/maps/contrib/107982470912130316217"">Uda Reza</a>'], 'photo_reference': 'AUGGfZlRyj3MmowEwcfPd-94IO6nrcMBBCO-7Ytr8Z9mGyRnRBcMEgqJXpOswhc2uLlO1hb5EV877Uvp21qWb3f3Dq8oRo4s4WVBGMr-8PvmhNmbHVKswNnO9Jg-gLOBZ5gpdx5eYE0k3f8hOhaBEplZw0iylaYwIuwD9gaV2FTIPNzahFqK', 'width': 3265}]",ChIJPZrO6XfDPjARvjWni_gtSCo,4.0,"['tourist_attraction', 'point_of_interest', 'establishment']",4,4.1475254,96.1148904
"45H7+HQQ, Peunaga Rayeuk, Meureubo, West Aceh Regency, Aceh 23681, Indonesia",PEUNAGA BEACH,"[{'height': 3468, 'html_attributions': ['<a href=""https://maps.google.com/maps/contrib/104977979511876466907"">A Google User</a>'], 'photo_reference': 'AUGGfZl76rSO4gna7SHBLc4EVY9ZzbcMgvGeoVPUYRscRJNnIEVaQ-J43n0D2kakRQOxbN35NzwoTWEVWmhWZ_UjIs6__wGiK4bA6Tmmb-RkMYmwig-KV77zDD7xQax5-BjGylyF7sMXFfLnrM2ScAeWamE4xCEm0hU0Gwqls5mEr77hda2I', 'width': 4624}]",ChIJr3rpoEPFPjARqieq-S0q0fk,4.3,"['tourist_attraction', 'point_of_interest', 'establishment']",6,4.1289741,96.1644804
