formatted_address,name,photos,place_id,rating,types,user_ratings_total,lat,lng
"Jl. Wargaluyu, Wargaluyu, Kec. Arjasari, Kabupaten Bandung, Jawa Barat 40379, Indonesia",Arjasari Rock Hill,"[{'height': 2992, 'html_attributions': ['<a href=""https://maps.google.com/maps/contrib/106281805063410308692"">Beany Sudjana</a>'], 'photo_reference': 'AUGGfZneYwZ4y-FxT83blIn9d48Rm92yV9iUnFq37XmNvPW1W2aji9FDYqu8I8EJuI5VeAnl9kGHz41MWQHb-LvTpcs6wf8mypXtKr1_qSDI08zzSETDH-MzwZX1IfUhxupj_eyU12SNZN_VJXOWAMyw9hWeA9_oAbCd_6QDSYhu5td0VZ9J', 'width': 2992}]",ChIJoRxMkcbraC4R-wV15sE0JU0,4.4,"['tourist_attraction', 'point_of_interest', 'establishment']",548.0,-7.03478,107.609125
"XJ2M+MR3, Asrama, Arjasari, Kec. Arjasari, Kabupaten Bandung, Jawa Barat 40379, Indonesia",Batu Pabeasan,"[{'height': 3120, 'html_attributions': ['<a href=""https://maps.google.com/maps/contrib/113469425767718360322"">las Lasmanah</a>'], 'photo_reference': 'AUGGfZnZ7TtZB6AraMHeoPH1zlsGW8NhZ1mybT-U7iC3avlDS6x3laoDWvqFNFWN6UYYCVjioqp0wzLXIidO3mZ8ttj_OJEPlPCUNtNFxBgEOqeaR5Q-gzTxrRR_qxC5Z6PMELVdzV2Xd8GCORSXuQc29A_WJJfqjX_HNiLrMmC1sckFBlx3', 'width': 4160}]",ChIJtWl3FKXraC4R0_Si-LuJ8K8,4.7,"['tourist_attraction', 'point_of_interest', 'establishment']",25.0,-7.048359,107.63456
"Kp. Cibayongbong, Baros, Arjasari, Bandung Regency, West Java 40379, Indonesia",Taman kelinci Citalutug ( desa Baros),"[{'height': 4000, 'html_attributions': ['<a href=""https://maps.google.com/maps/contrib/112369609392880982880"">A Google User</a>'], 'photo_reference': 'AUGGfZnjYdU3a3uHHZYxnO1qkyltOqVxraEvrFAqX-aH4hrqFxZkSABpKTgHHxAlB-9sCotlh7TikGsAnQJFz6hMus-04HSHYtnDnfRiogQ8Z2ydniulb0309OnVx-1M7Xuu9Qq_-au-gD2T6zaXO0AUN1uNCZY3BPIXcQuK4y4BcRWpri9D', 'width': 3000}]",ChIJab36bcbraC4R6jajXvubqew,4.9,"['tourist_attraction', 'point_of_interest', 'establishment']",7.0,-7.061897,107.6282508
"XJ2R+6HQ, Sukarasa, Arjasari, Kec. Arjasari, Kabupaten Bandung, Jawa Barat 40379, Indonesia",Wisata Leuweung Pinus Balebat Arjasari,"[{'height': 2736, 'html_attributions': ['<a href=""https://maps.google.com/maps/contrib/113401912448525899256"">A Google User</a>'], 'photo_reference': 'AUGGfZljU_b4Sm-tfGJDNh4H0gssLP6b9UJ7U9ZSLpi5Ij6VHPffdSKfhUWWx5Bk9lsrHPAoD7m55Hp8jOD-EZ-4Ek-CAz580MpdgL7BGUj5ngr-kyKeU9M68zLyidQp1jOXaQyd1e648Van7FgAEI2EZ8hHIxOW8ZGRn2Ri-qSPUFSTtma8', 'width': 3648}]",ChIJoToiiUfraC4RE9Qv4luAXlU,5.0,"['tourist_attraction', 'point_of_interest', 'establishment']",6.0,-7.0494131,107.6414965
"WMQG+WHF, Patrolsari, Arjasari, Bandung Regency, West Java 40379, Indonesia",NASATUNGGA,,ChIJLTdMnLjBaC4RY3Lmi_kIAr4,5.0,"['tourist_attraction', 'point_of_interest', 'establishment']",1.0,-7.060179799999999,107.676427
"WJ5M+3J7 Kampung Jugul, Mekarjaya, Kec. Arjasari, Kabupaten Bandung, Jawa Barat 40379, Indonesia",Saung Kakung,"[{'height': 4064, 'html_attributions': ['<a href=""https://maps.google.com/maps/contrib/112839933825086306884"">A Google User</a>'], 'photo_reference': 'AUGGfZld2Lb4ZL_XVc6oN7htzMaQHiJAkgppVA_x8alHt3x5uwnETenMjj32r1NZrx37wYHxSY0RXc-K8ivKj8-qCRMqtI0_0MUZTvEYSM5xpEf1bbWt2l21cv7tawp2HavCYv99rrt4zSIeFCwNZH9zgqAzIbgZ4h1TIv-I_i0SMPuWua3g', 'width': 3048}]",ChIJgwCYdgDraC4RA-CawuEEaLY,0.0,"['tourist_attraction', 'point_of_interest', 'establishment']",0.0,-7.0923417,107.6340527
"Jl Cihamerang RT03 RW 11, Batukarut, Kec. Arjasari, Kabupaten Bandung, Jawa Barat 40379, Indonesia","""Saung & Balong Zami ""","[{'height': 1882, 'html_attributions': ['<a href=""https://maps.google.com/maps/contrib/107750937735673507166"">Zami Nadzardharmawan</a>'], 'photo_reference': 'AUGGfZkpLbWNPniW4Nv3j4dMfOOvw9xH5GEqNn4qIgJCvT71dfJTb79QKZDjZzmUwhm1GDJad9uY6lZQxIPAHJIzDbkCRmawZz1cYV8yQaYI4_dwSXn5wqpoS66oernJF60kj78uSpQ42SFervJ1uXC2MQeBXBf2lrjRnw7DA2IXq32NKAYt', 'width': 1058}]",ChIJ8Q63m-vraC4RPb9kuyuyFXM,5.0,"['tourist_attraction', 'point_of_interest', 'establishment']",2.0,-7.0503617,107.6000598
"WMW4+V8, Patrolsari, Arjasari, Bandung Regency, West Java 40379, Indonesia",Saung Abah Ading,"[{'height': 1080, 'html_attributions': ['<a href=""https://maps.google.com/maps/contrib/107593482044138721541"">A Google User</a>'], 'photo_reference': 'AUGGfZkqH4tvzDQJAPnAAw-PukusAaX8IQknyih5MCPOpgmF1ZzCAZc4RE1mFKGeL5uzIMpF0jb4i_YEOWz54nkvFLGlWoTPyg0VhfdblRR5oF6ixFFWf-SHgelTXyb0aNOjgD0hStOQ5l14w_neFDuyNMMAx-aYGtJ1FGLG0oKNOWBe6P7P', 'width': 1920}]",ChIJg2-dzdDraC4RK-sHxTbVpmY,4.8,"['tourist_attraction', 'point_of_interest', 'establishment']",5.0,-7.0528507,107.6558698
"WJPF+GG3, Mekarjaya, Arjasari, Bandung Regency, West Java 40379, Indonesia",sungai Citalutug wisata,"[{'height': 4000, 'html_attributions': ['<a href=""https://maps.google.com/maps/contrib/109473523165027521435"">shandy irawan</a>'], 'photo_reference': 'AUGGfZkR9eweJzH56TpQ_ZnncjcOk9iprqD8NsJi4tkqqVpCq0MwiO8vVN0aQzjcdl7IG4OREEgeTVZW5P_qaZ9gBsH-8i55SGe1d_ZwU6naTrn-YjBGoad7-C3pZoqIEmrN0rTH7-587XvpLYVsfi8NzM7mGvfpxFvMG1554Y5njDg4k6SS', 'width': 3000}]",ChIJrT19HYXraC4RbS3KMmRQ0oM,5.0,"['tourist_attraction', 'point_of_interest', 'establishment']",5.0,-7.063365399999999,107.6238899
"XH6X+MP, Lebakwangi, Arjasari, Bandung Regency, West Java, Indonesia",Sawah papap,,ChIJq1u2J_7raC4Rz0Klz9VZznk,0.0,"['tourist_attraction', 'point_of_interest', 'establishment']",0.0,-7.0382558,107.5992635
"WJQC+F48, Mekarjaya, Arjasari, Bandung Regency, West Java 40379, Indonesia",Ayu lestari,,ChIJvfqkZSjraC4R3RvwCf1IvgA,5.0,"['tourist_attraction', 'point_of_interest', 'establishment']",1.0,-7.061335100000001,107.6203286
"WMVC+3PX, Patrolsari, Arjasari, Bandung Regency, West Java, Indonesia",Cihamerang,,ChIJAyisjBbBaC4Rgh5bk4Vp3bY,5.0,"['tourist_attraction', 'point_of_interest', 'establishment']",1.0,-7.057256799999999,107.6718469
"WJQW+VP7, Arjasari, Bandung Regency, West Java 40379, Indonesia",Lapang ketangkasan adu domba,,ChIJAfbuRBXraC4RscPyxpaZ_gA,0.0,"['tourist_attraction', 'point_of_interest', 'establishment']",0.0,-7.060338499999999,107.6467956
"WJ4M+JMJ, Mekarjaya, Arjasari, Bandung Regency, West Java, Indonesia",Saung cendana,"[{'height': 3120, 'html_attributions': ['<a href=""https://maps.google.com/maps/contrib/115344879656670882931"">A Google User</a>'], 'photo_reference': 'AUGGfZm9AL7JXTgCiIdmhgNYYtbAvvb_e8JOZyDNWlkhKCXqkuHMmi3-2_TrPvbUzi9gfptp4Ak6zDnUdcIb5BCbJC1B9Fvm3dh5CQnOFFOL4c7ANQM0_SKlzwdcxHiRN6Ii1xWwNFH0kBtJ2wX3HX4OLCNpAhmdkXQZnPZYJv5cWsoEBUQ', 'width': 4160}]",ChIJNRLgibOVaC4R4Tg2ApT6krA,3.5,"['tourist_attraction', 'point_of_interest', 'establishment']",2.0,-7.0934203,107.6341325
"Banjaran Pinggir Sari No.51, Arjasari, Kec. Arjasari, Kabupaten Bandung, Jawa Barat 40379, Indonesia",Wisata Alam Pabeasan,"[{'height': 2250, 'html_attributions': ['<a href=""https://maps.google.com/maps/contrib/109443183033141091754"">ahmad jaelani</a>'], 'photo_reference': 'AUGGfZmp-_Xs2t9MbSO_9l9DOtZM9p11iyhahG1udPd8rVUPWQXFs4JcQOzEOmQPsjzO7ijZbIm0bsVmXIin0g6Iq_Jxh0HSJqLhAkn8EI_91qaiyqYpFQW1JJ3DpQ6OIFaXEeQm7KkCJoCkbHF76k-Mq6gW4siPoYCHQ_4reTLFDHdx-9T4', 'width': 4000}]",ChIJWzkfs_TqaC4R6LMKr4rqOXM,4.2,"['tourist_attraction', 'point_of_interest', 'establishment']",141.0,-7.044695099999999,107.6361526
"WJ4J+8X7, Mekarjaya, Arjasari, Bandung Regency, West Java 40379, Indonesia",ci kuya,,ChIJp0SCfQCVaC4R8uazk44qMtg,0.0,"['tourist_attraction', 'point_of_interest', 'establishment']",0.0,-7.0942116,107.6324466
"WJHC+7Q, Mekarjaya, Arjasari, Bandung Regency, West Java, Indonesia",lembah besar,,ChIJkx8zEwPraC4R4XshD4JtzSw,0.0,"['tourist_attraction', 'point_of_interest', 'establishment']",0.0,-7.071857,107.6219476
"Sampok-Condong, Wargaluyu, Kec. Arjasari, Kabupaten Bandung, Jawa Barat 40379, Indonesia",Pemancingan Muklis,"[{'height': 3264, 'html_attributions': ['<a href=""https://maps.google.com/maps/contrib/105048241872299640051"">A Google User</a>'], 'photo_reference': 'AUGGfZkdXuWi7g8k9dJGP3zjbVmx9QpNwqf326UWaoSzD8g2HQnafS9MaSreg93jWeM-5pBYn844yb2eZpAD81NKp36fbe58kbcl1fZ_fTOA8UMHrdv_hoWHrfcYVjLF7jwup7Vp19xOzZESQ0XxDd_614okKtGvxiATuvLwrRaAd_7NSNqC', 'width': 2448}]",ChIJr9B1u3DraC4R3hAgupJtXrg,5.0,"['tourist_attraction', 'point_of_interest', 'establishment']",1.0,-7.032177900000001,107.6132221
"WJPH+H59, Baros, Arjasari, Bandung Regency, West Java 40379, Indonesia",Kp.Cibayongbong,"[{'height': 4160, 'html_attributions': ['<a href=""https://maps.google.com/maps/contrib/114217990451063834009"">A Google User</a>'], 'photo_reference': 'AUGGfZnvYnSq5AqyI6vO8BWxekxoWe9A9nzpspbQWqoy-leLSo7GC3enT73yjCPh7bqCj3nOG0oOr5FepCm5VlY1DG4dUZZsfGaE4LyUo1kRkNq-K1nV_IziA7myqOZQc6fqjzYV1aPQLn_WdlzTqePNwYWZTIWSD2UAqW3kA6wAsv6_4AkL', 'width': 3120}]",ChIJKTT2vIjraC4RHMcTiCXrzGw,0.0,"['tourist_attraction', 'point_of_interest', 'establishment']",0.0,-7.063594999999999,107.6279735
"WJM9+RG8, Jl. Ciheulang, Mekarjaya, Kec. Arjasari, Kabupaten Bandung, Jawa Barat 40379, Indonesia",AYI KURNIA CIHEULANG BANJARAN,"[{'height': 391, 'html_attributions': ['<a href=""https://maps.google.com/maps/contrib/102124863749907345967"">A Google User</a>'], 'photo_reference': 'AUGGfZn5TCRGMd4wJNmqH7x_7DEiv5fsdWxEQizLUFHynWUAeFQPmyh6voOsOcnS5cTv0Z2KWxg4hLLTiW9-zcBlirptyLxEDEokKKWr0XFfBhtJfaUjn2aniS1lZatvSlRRjITbyq_h45Q_dpKRQvWUXvOQsDYxMWkQy1xoomRMG4QqyMQJ', 'width': 523}]",ChIJvbUo1grraC4Re4QLuddKFq8,0.0,"['tourist_attraction', 'point_of_interest', 'establishment']",0.0,-7.065464299999999,107.6188185
"XJ9G+QX7, Cinanti, Wargaluyu, Kec. Arjasari, Kabupaten Bandung, Jawa Barat 40379, Indonesia",Curug Umar,"[{'height': 4160, 'html_attributions': ['<a href=""https://maps.google.com/maps/contrib/115677494705076377963"">Fahri Muhammad Ridho</a>'], 'photo_reference': 'AUGGfZl98HRsO4JFc8rEJ9jTqP3wbzv9ay4FpNp48Hhm8LKHzJPSmhLG9BOrcseaso1OjuqVQ4vbdhe6Qx1avoFHdiqV-t4URN-b1Tk12HaSpdRRZYdYcXUnbNR5oObmYeQ00jIuAcyLE6cLicX5hVHcz-JG6iBy49M48-DBkEOE7LHdXMBK', 'width': 3120}]",ChIJOeg4nYfraC4RoKLl3F_UdVk,4.3,"['tourist_attraction', 'point_of_interest', 'establishment']",3.0,-7.030580500000001,107.6274206
"XJ68+74G, Wargaluyu, Arjasari, Bandung Regency, West Java 40379, Indonesia",Saung bah Daun Bumi sakti,"[{'height': 1040, 'html_attributions': ['<a href=""https://maps.google.com/maps/contrib/102602916634659020122"">A Google User</a>'], 'photo_reference': 'AUGGfZmgmNIvaG-Mwh3CvEJ9TUs_3XJI8nC9lLKP55QnNJTcEPJKLua7EWAA9PeD-TTi9zK6GY8N5e9LkaoaGQ86Fr5zQnsxBoTKy1d98GsakZlA5x_v7qHdnyhP6GleYjSqyq42M9fB73e_HESfo0JdmA_S4YZlqSqnDmY4XD03Hol_vnLO', 'width': 780}]",ChIJ4b9zE6XraC4RGGcwGXOpjUA,5.0,"['tourist_attraction', 'point_of_interest', 'establishment']",1.0,-7.0386491,107.6152686
"WJPQ+7FJ, Ciwaru, Arjasari, Kec. Arjasari, Kabupaten Bandung, Jawa Barat 40379, Indonesia",Galatama Lele Ciwaru,"[{'height': 4128, 'html_attributions': ['<a href=""https://maps.google.com/maps/contrib/104662999761197087551"">Krisnawan GPR</a>'], 'photo_reference': 'AUGGfZkUOsuBnH8mYur4PI3Vh6IZnNJ6-EKQt3eFINtZKRyGOu6pEiE4vpvLor0ebX8Tcm6lxQOeHAdAKvmjm9ppIcBQwjUoyarRVXluWGVIEOw7XVfG9ei43C2qbZzTMcZWfRagTWeJJTI2_Tg36ki0ee0BbIPEkcc37XA18RVlDrATbAsp', 'width': 2322}]",ChIJp0Eo-rvraC4ROmZzSgzmNLI,5.0,"['tourist_attraction', 'point_of_interest', 'establishment']",2.0,-7.0642873,107.6386375
"XJ6J+QQH, Wargaluyu, Arjasari, Bandung Regency, West Java 40379, Indonesia",CURUG EKONG,"[{'height': 4160, 'html_attributions': ['<a href=""https://maps.google.com/maps/contrib/106829866044335711211"">A Google User</a>'], 'photo_reference': 'AUGGfZkJjxNfrpaChEHrZr1B0_64hS-r5vL1mPqmcnYvn7a6nWhRHPoCai_p6ItPXhRAypUEzdLQ26_SpeDHzX_Peh6dLUxYEuSQ7Kws7apf4fB4HL5EFc1xDpEMJ1cyssSsu-SxGml_jX1RwVSC_MYxSEzKng_8RRo3zfljJoQoXB9TSfcy', 'width': 3120}]",ChIJSzLY_9PraC4RcRNPMyEQBxU,4.2,"['tourist_attraction', 'point_of_interest', 'establishment']",5.0,-7.038074399999999,107.6319824
"Baros, Arjasari, Bandung Regency, West Java 40379, Indonesia",Rumah Bambu Graphe,"[{'height': 1908, 'html_attributions': ['<a href=""https://maps.google.com/maps/contrib/101135622262121793478"">Imanuel Joshua Pungus</a>'], 'photo_reference': 'AUGGfZnkXKDM47zKOJ62hpoe3ahmNQ1d7VZJeQBePkihNv8i5nYxE7QbhsRHmAT8Vy9v5OWOjIR3ZrxBFW3tk2e1g3N7jc50YcBYqzzFt8Ts4ADVVzCdaVTG134UZIwYKkTMKfy9q2POJBAVSjWPDL-akfvNvYxihy3Jqa-Ald3_g_oX4GRC', 'width': 4032}]",ChIJv2EJq9OVaC4Ri50XeKk8kFU,4.7,"['tourist_attraction', 'point_of_interest', 'establishment']",12.0,-7.094019899999999,107.6411153
"XJ7P+5GM, Sampok-Condong, Wargaluyu, Kec. Arjasari, Kabupaten Bandung, Jawa Barat 40379, Indonesia",Cadas Palintang,"[{'height': 960, 'html_attributions': ['<a href=""https://maps.google.com/maps/contrib/110993061124823820839"">Kiseki Ryouta</a>'], 'photo_reference': 'AUGGfZklhBcUes4aA56PeBUn94PnhL-RN83QnKOeAOunEm5QoWRxOIdGzhWumVH9h0rz_U7l045jIDPadRRPGcpV0n2oQ6sX8DUBcp2PU89lcd7OAodRb1rfeBLPoXhz8f--yLOlb2yUL3-x08lelSjf_32m16f_rAn1Vyj_nhyse_K0G3v4', 'width': 1280}]",ChIJ92PM-JDraC4ROcrjbDNSL6c,4.3,"['tourist_attraction', 'point_of_interest', 'establishment']",9.0,-7.0370399,107.6362827
"XM35+VVX, Kp sukatinggal, Pinggirsari, Kec. Arjasari, Kabupaten Bandung, Jawa Barat, Indonesia",Panorama Gentong 25,"[{'height': 4160, 'html_attributions': ['<a href=""https://maps.google.com/maps/contrib/112569536484490341975"">A Google User</a>'], 'photo_reference': 'AUGGfZkul8RRass40Dliq9Dv-l--lGu6OTsr6tgcqloev7dJ_aXXLkjCnvHdfiXcBE9aMDn6NKdzAevTf_zr2l2r63-_w2WqEJPPcT1JvLPaOARa74YueKBvIcgK4YgT87uB5D9DcDzN-u7kr7MkM9HRa_WrbaIwHGwXGiG4iSFlGAkJ2DAx', 'width': 3120}]",ChIJLRtlHorraC4R8MxKDLxuOgw,4.8,"['tourist_attraction', 'point_of_interest', 'establishment']",18.0,-7.045253799999999,107.6597373
"WJ5M+WW, Mekarjaya, Arjasari, Bandung Regency, West Java, Indonesia",Villa jugul jaya,"[{'height': 4096, 'html_attributions': ['<a href=""https://maps.google.com/maps/contrib/105575997250309433977"">A Google User</a>'], 'photo_reference': 'AUGGfZnZzR8pHeHVO94SZi8Av3Vm2geyeEKalyrMtcIaOstMe7ZPbf-PXs6o1MX8lPoSuBtzH_8BIheLEncgNLNPgz_uT63ISk863cP2aHYxQg21uW-78FbY1p_rLV9gzwWdvmd5cSn_ZMhWwWPLEJp-A5EHt9G2e9qKbt7JPhsMW1SLFDMl', 'width': 3072}]",ChIJIaDwMgDraC4RHcKM7wYeKR4,4.9,"['tourist_attraction', 'point_of_interest', 'establishment']",11.0,-7.0902383,107.6348376
"Kp cibayongbong, RT.02/RW.06, Baros, Kec. Arjasari, Kabupaten Bandung, Jawa Barat 40379, Indonesia",Wisata alam dan sungai citalutug baros,"[{'height': 1080, 'html_attributions': ['<a href=""https://maps.google.com/maps/contrib/100904846808394209985"">robert asima</a>'], 'photo_reference': 'AUGGfZmeMQWVj2BLwQKdFhTRBTWQwgm7jPg5csQFPBXMZrDjrQE5H5ZszI7gdJ6tBxAvkXdTJMRGEY6Ram2ION59pkvnjiRVrLq-iaSBbJmet-wgMJDkz_pojK5CJBpRkF1JqGjOzFAnRsJH3XER18Aj9rNo8B-BmouXsnQa0Mdz0JuA-5FX', 'width': 1920}]",ChIJgaGJmm3raC4RKsBWDEWAP2I,4.9,"['tourist_attraction', 'point_of_interest', 'establishment']",11.0,-7.0621934,107.6278938
"Kp, Citiis, Indonesia",Jalur trail citiis,"[{'height': 8160, 'html_attributions': ['<a href=""https://maps.google.com/maps/contrib/105804725826825735718"">A Google User</a>'], 'photo_reference': 'AUGGfZk13mux5LxOSpsTpPo5Lye8gkWUYHWOe3Gk9o1hz866o36qyjEIaVjehfL2fjl8aMtYubGS3THxJD6ihSBbcrX1x3Sfr2vTk3Mbcsg4e2--ylzDCmdXm9eWzLjjO6muZnicnnKs8gmt08B66zRo8J7Z3wT3vJf0GKhx5gCe0hF-HcHF', 'width': 6120}]",ChIJTV07aOKVaC4RXVwhS8BWcGw,5.0,"['tourist_attraction', 'point_of_interest', 'establishment']",2.0,-7.0932083,107.6417464
"Babakan Mantri, Pinggirsari, Kec. Arjasari, Kabupaten Bandung, Jawa Barat 40379, Indonesia",Kinalima Village,"[{'height': 3468, 'html_attributions': ['<a href=""https://maps.google.com/maps/contrib/110063404710476113194"">ihsan hairun</a>'], 'photo_reference': 'AUGGfZm9OugXcPJjW-tJ2yt2ZA3kvKrNCUt7NK3GwJ3vvYWfgGUv9RvZJ0kBbJm0yA-ob1IO0FNwyzevckzt-Xg3tEwndZqOKzrN2Zj6eyDZtQWKZpSkcHZMaZvGsaKPBcFs8eGzuqY7XaXqpF1JS7KHaB5gvhSjsBHOX3J7f4Nv4nfrz2jH', 'width': 4624}]",ChIJnbZlCzHraC4RO2PRIErceaM,5.0,"['tourist_attraction', 'point_of_interest', 'establishment']",9.0,-7.077919499999999,107.6543745
"WJFR+27R, Jl. Baduyut, Arjasari, Kec. Arjasari, Kabupaten Bandung, Jawa Barat 40379, Indonesia",Villa konus Alite Coffee,,ChIJ-e7ESIzraC4RShDvIzoaQIA,0.0,"['tourist_attraction', 'point_of_interest', 'establishment']",0.0,-7.077478600000001,107.64062
"WJV4+VG6, Mangunjaya, Arjasari, Bandung Regency, West Java, Indonesia",Rumah ketua guild kiler,,ChIJq0SVTgDraC4RwgeQucrezoI,0.0,"['tourist_attraction', 'point_of_interest', 'establishment']",0.0,-7.0547428,107.6058727
"WJ4R+F9F, Citiis, Baros, Kec. Arjasari, Kabupaten Bandung, Jawa Barat 40379, Indonesia",RAC Rompok Awi Citiis,"[{'height': 4000, 'html_attributions': ['<a href=""https://maps.google.com/maps/contrib/111552214111731229719"">A Google User</a>'], 'photo_reference': 'AUGGfZnqDFDFcIfA7qHsK7spGtjZcazxmByUmDW_Pvwj-sMyNZFoWJ0jG9XGDCeYPbUVm-fXDm3YjVXeESaG-o6P5IP-ZcC0Ph-nNqoc9_x4vaV-5GId8jcO_YUnTOd-cioNT7UvjH-sTjhzupSg4g_jwS3846TV6LTMOoObZjGI3I71J4hV', 'width': 3000}]",ChIJBQCvLwCVaC4RqjjzwMFF6kc,5.0,"['tourist_attraction', 'point_of_interest', 'establishment']",5.0,-7.093823599999999,107.6409205
"WJC6+69H, Banjaran Wetan, Banjaran, Bandung Regency, West Java, Indonesia",PAMIDANGAN GIRI RAKSA PUTRA CI KAHIANGAN,"[{'height': 4000, 'html_attributions': ['<a href=""https://maps.google.com/maps/contrib/105112580462633564850"">A Google User</a>'], 'photo_reference': 'AUGGfZl1XeVMN5uWMtKaNhQddXXUbqARbDcH4az5koIURGVur3DgdzuUs1Vsg0dwQSXOdGbP4OR69CcUA5Gp2Btpj7oOMaFHF_iJNck6wQfV5BuVNtrhrD9JAu0ojva43RKFB2Q-P1-bOpfRCGfSK3m5khyTGWnq_6mV42jngEVAauAGp0uW', 'width': 6000}]",ChIJ890owjHraC4RjiQnD0aGG6c,4.5,"['tourist_attraction', 'point_of_interest', 'establishment']",2.0,-7.0794334,107.6109815
"Batu Karut Sadah, Mangunjaya, Kec. Arjasari, Kabupaten Bandung, Jawa Barat 40379, Indonesia",Teras alam Mangunjaya,"[{'height': 959, 'html_attributions': ['<a href=""https://maps.google.com/maps/contrib/103090353930578378377"">A Google User</a>'], 'photo_reference': 'AUGGfZmdZoTunylhNcV_qfjzhE-gxp6lfeyLqap7ezzgzC9M8RmDZSlc5zFV8ZZwOXR3msL9pyjTMbD5JFA1t6W-45vIyVAugoc3g0a8iwez-0LCDT4G5T83AVHTlxRIw8XzQATcKbK3uDTZXlW7xOFcB_hnUoa0QLEL-sWTJSKx0EKMAm--', 'width': 1280}]",ChIJ43PF_VPraC4R3PPRr1ZKoJE,5.0,"['tourist_attraction', 'point_of_interest', 'establishment']",6.0,-7.0738144,107.6129076
"Jl. Raya Banjaran Barat Rencong, Malakasari, Kec. Baleendah, Kabupaten Bandung, Jawa Barat 40375, Indonesia",Kampung Batu Malakasari Ecopark,"[{'height': 2304, 'html_attributions': ['<a href=""https://maps.google.com/maps/contrib/111012499928816892538"">A Google User</a>'], 'photo_reference': 'AUGGfZn8V0pUUMgEk2Q4cSdXoA5ALEziTU95wXhjQbfh65TfMkhEDAoR-bYMp72Zafxpi20oxXvsGK0aM9K5EfmvY-yJQ4lbGDwS32K5qnHZJ1iIowJ_bsYh2Nz8MMpM94NQLyeQ85zsLFmsNIy1SBdRQWsjdSBLrE3zIFiwusD5mloMNY19', 'width': 4096}]",ChIJY7CFmmLpaC4R3Wqk4Boradk,4.1,"['tourist_attraction', 'amusement_park', 'park', 'point_of_interest', 'establishment']",5176.0,-7.0093633,107.6069444
"WJ4R+FQQ Sumber Air Baku Citiis, Baros, Kec. Arjasari, Kabupaten Bandung, Jawa Barat 40379, Indonesia",RAC riverside,,ChIJ6-PuQgCVaC4RxnlUii4mEq4,0.0,"['tourist_attraction', 'point_of_interest', 'establishment']",0.0,-7.093645299999999,107.6417856
"Jl. Raya Banjaran Barat No.228, Banjaran, Kec. Banjaran, Kabupaten Bandung, Jawa Barat 40377, Indonesia",PRABOWO MENANG WAJIB,,ChIJX1BjbM_raC4RdqSekZC0cwI,0.0,"['tourist_attraction', 'point_of_interest', 'establishment']",0.0,-7.047707399999999,107.5849861
"Jl. Jadipa, Mekarjaya, Kec. Banjaran, Kabupaten Bandung, Jawa Barat 40377, Indonesia",Senja batu wangun,"[{'height': 1800, 'html_attributions': ['<a href=""https://maps.google.com/maps/contrib/117955737485862302761"">Rizal Indrakresna</a>'], 'photo_reference': 'AUGGfZlQgW_oOLOzmoFHpabmMfybG6vKsW_lEQHEqvgiyM8L1h9rSVdlQLYOxrhgeUb09suOa7m9g9Dl90eUk-izIDtw55-GPiXn4UMzpGJpyO2KA_DzAxeb7X1ldc3XW5QQgaDpBNmSzgdB0ZEhHC2R70HsQSOOWG649L6wCJy_ZrZbYTP0', 'width': 4000}]",ChIJ6w7GwEOVaC4RNg6SOgrqSWg,5.0,"['tourist_attraction', 'point_of_interest', 'establishment']",2.0,-7.094989699999999,107.6024842
"WJ68+424, Banjaran Wetan, Banjaran, Bandung Regency, West Java, Indonesia",Balong oyon,,ChIJyUc-QOjraC4RgiXDjOdljJA,0.0,"['tourist_attraction', 'point_of_interest', 'establishment']",0.0,-7.089744,107.6150786
"WJ33+X25, Jl. Jadipa, Mekarjaya, Kec. Banjaran, Kabupaten Bandung, Jawa Barat 40377, Indonesia",Kampoeng Jadipa,,ChIJcY7j7v7naC4REHixqrdt8aE,5.0,"['tourist_attraction', 'point_of_interest', 'establishment']",4.0,-7.0951206,107.6026205
"Ciapus, Banjaran, Bandung Regency, West Java 40377, Indonesia",Simpay Kimfa,"[{'height': 2448, 'html_attributions': ['<a href=""https://maps.google.com/maps/contrib/114963586655593683822"">A Google User</a>'], 'photo_reference': 'AUGGfZn-Cvynu1xwwCLQvWyf3ycBND1ep56VNr8OLV21V4_3zCiAORYkYGZO02P8v16onYQTTAIQqIy5DMFpCjZBE4BKIAiMFJGKXxeiDuFOMST5SVwVrHZMLbrLRCU9Ei76YHnkuVyAzWLQQBjNbijfIo1zhnUqcujGU7GAVlzpC-WqlooL', 'width': 3264}]",ChIJWazbrI_raC4RaiI2OoQ_mG4,4.5,"['tourist_attraction', 'point_of_interest', 'establishment']",479.0,-7.0578027,107.5897108
"Jl. Mekar Mulya No.31, Baleendah, Kec. Baleendah, Kabupaten Bandung, Jawa Barat 40375, Indonesia",Bale panyawangan,,ChIJdWlZC3LraC4RIilYLVleaLY,0.0,"['tourist_attraction', 'point_of_interest', 'establishment']",0.0,-7.013815999999999,107.6270666
"XJPG+CCH, Jl. Situsipatahunan, Baleendah, Kec. Baleendah, Kabupaten Bandung, Jawa Barat 40375, Indonesia",SITU SIPATAHUNAN,"[{'height': 9000, 'html_attributions': ['<a href=""https://maps.google.com/maps/contrib/113146133430396243146"">rahmawati nurdin</a>'], 'photo_reference': 'AUGGfZnYw7WdTjqLxiLpaDPaMYt7-YxPOsW1_1yXj76de0C3EBEtPmS1_CfM9jqW6RKgU0IJireP1t4ygeKJZTpPbdjfCV8Pq_BaLfjqaOfKKS9wOONg-WeHjGAGrhiyQT6-hwQ7aVcxhz8tqZWP-85EuuMRiiO1Y9UwPkMDqR7rZfnx3vgY', 'width': 12000}]",ChIJcRHJBqPraC4RiMyONpCAtPI,4.4,"['tourist_attraction', 'point_of_interest', 'establishment']",147.0,-7.0147574,107.6265385
"WJR2+69M, Jl. Kiara Payung, Banjaran Wetan, Kec. Banjaran, Kabupaten Bandung, Jawa Barat 40377, Indonesia",Long Ring Long Land,"[{'height': 415, 'html_attributions': ['<a href=""https://maps.google.com/maps/contrib/109089588785733745272"">Nur Sodiq</a>'], 'photo_reference': 'AUGGfZlVcBlnW-vDA26vrVqZRnc-fwIcSeQzUzZanK03dpeG-DhSpu069oEqQIT3V2EfdR6YJDM5TX6b2eu-MEXLNbhSwSRKQnQgrgFIlhvvJUUDMY5lrra6de38VfiKvUQRQ6vBguqv6IAWf7sFDs686e_YPT6T1lJVFcAPa9FLp_AQn1p-', 'width': 739}]",ChIJcbhAHYTraC4RFk53lYo2J3M,5.0,"['tourist_attraction', 'point_of_interest', 'establishment']",1.0,-7.059317099999999,107.6007491
"XJJW+2PR, Manggahang, Baleendah, Bandung Regency, West Java, Indonesia",balong jobang,"[{'height': 3120, 'html_attributions': ['<a href=""https://maps.google.com/maps/contrib/100227224342939744293"">A Google User</a>'], 'photo_reference': 'AUGGfZm4Ziypzuyk4u0d7Mh3ldJ-dV4Jjf_E5GsM-pSTmlAWKFa7nWDGN4nMxw6ppgdJG3LZvD2ILdfpJVwqxVmwJ1rgm5NvRldd4lmkuQwIjSuS-ltuoLml49h_Peki9r842X-9KmmYffy6hMJRWMeFSC1vMgN4CObBj_EeVFWxmpoySEnC', 'width': 4160}]",ChIJ43M_3XvraC4RWALHgE32gHM,4.5,"['tourist_attraction', 'point_of_interest', 'establishment']",2.0,-7.0198816,107.6467513
"WJF3+7PH, Citarim, Banjaran Wetan, Kec. Banjaran, Kabupaten Bandung, Jawa Barat 40377, Indonesia",Ibu Engkom,"[{'height': 2448, 'html_attributions': ['<a href=""https://maps.google.com/maps/contrib/117469006214768697075"">dedi supriyadi</a>'], 'photo_reference': 'AUGGfZluqZXZ3C4KwilkXPRQtrQdMXLdwDeiC0hp9aGoYXO6bbzreNxB8PFcopMvM_me012MlsrcXnkRGW8ZA7lCgPSHy07pHBdgbHGhy6SD908yyvhfUD62XEzcKFXc2sRW5Bc4qSa4B8I-El2x8YQSTNj-UEbUIcvG73G7j-34NLVJXZJM', 'width': 3264}]",ChIJz2zlpqzraC4RikWanbxFuT8,5.0,"['tourist_attraction', 'point_of_interest', 'establishment']",1.0,-7.0768119,107.6043473
"WJ24+W8V, Mekar Jaya, Mekarjaya, Kec. Banjaran, Kabupaten Bandung, Jawa Barat 40377, Indonesia",Wisata Alam Wangun Hutan Pines,"[{'height': 3120, 'html_attributions': ['<a href=""https://maps.google.com/maps/contrib/104602093396301622688"">A Google User</a>'], 'photo_reference': 'AUGGfZk6a9eszGwLr_lmGEH5z01uSoSY53UcLZEOCMv8iVnO9drG0bUdQbBkGQC_Jin_E99XPRFQRDyBS9id4olSryR40tWEOKOdTnkuTNxMXj-chbfcuLdD1DOs_7hJJLoy45DNwS2kKUX--UEzwh8YxMZ3d1seKYWg4iMHwAg-bv1tGPWS', 'width': 4208}]",ChIJG5hkb8mVaC4Rmb5ZQ-jxULI,4.5,"['tourist_attraction', 'point_of_interest', 'establishment']",70.0,-7.097628299999999,107.605796
"XHCW+QQC, Bojongmanggu, Pameungpeuk, Bandung Regency, West Java, Indonesia",BNR BANJARAN BANDUNG SELATAN KTSM FENGTAY,,ChIJhR7rvvHraC4Rq39TV5SR1t4,5.0,"['tourist_attraction', 'point_of_interest', 'establishment']",1.0,-7.0280516,107.5968814
"WJ76+PCF, Banjaran Wetan, Banjaran, Bandung Regency, West Java, Indonesia",Pasir Kibanen,,ChIJl_LvZhHraC4RYpzvruFwU48,0.0,"['tourist_attraction', 'point_of_interest', 'establishment']",0.0,-7.0856872,107.6110327
"Jl. Kutamas II No.2, RT.03/RW.07, Baleendah, Kec. Baleendah, Kabupaten Bandung, Jawa Barat 40375, Indonesia",YEUTRIP,"[{'height': 1280, 'html_attributions': ['<a href=""https://maps.google.com/maps/contrib/102546910303178941911"">A Google User</a>'], 'photo_reference': 'AUGGfZmiIDkwMfPQo8BRR1KGg8Z-dExgKZjuG-0MK4C3v71POwvp20uQBvGL79IBhMp_dxJ9oXo2-5vhwVhGJuRtscG9r6j1h7NWOH5YNIHFkZEpduVsFSegs9UCT1iT029e0mL6ZdRK31Wpnz0wH9ocevfRyaw8nP74tIcwZ6SpyurwTaXE', 'width': 720}]",ChIJl04aV2PpaC4RsJaib5j1cZE,5.0,"['tourist_attraction', 'point_of_interest', 'establishment']",12.0,-7.0095557,107.6312427
"WJ32+G8W, Mekarjaya, Banjaran, Bandung Regency, West Java 40377, Indonesia",Curug Kian Santang,,ChIJVRfBTgCVaC4RiMqc04mgJJs,0.0,"['tourist_attraction', 'point_of_interest', 'establishment']",0.0,-7.0961438,107.6008169
"Sampok, Ciruum, Wargaluyu, Kabupaten Bandung, Jawa Barat 40379, Indonesia",Kolam Renang Maksum Sari Makmur Ciruum,"[{'height': 2448, 'html_attributions': ['<a href=""https://maps.google.com/maps/contrib/114596232891757963902"">A Google User</a>'], 'photo_reference': 'AUGGfZklhnt4TcXBZtqn7jOVpeYi9qRNwHJfIrlIsPumQeTv_zU8yVje_mv-8xt5yCM9FsRSfwgLV09vrg3slz0oPwEZSk64yLrmPYStB0ddiNR1DiralaDGp-EPXiaOtPG6q4N9A-18j_gvWOafi9ai-lA-1BJII1VE2ShxJy2PuZLzfZcz', 'width': 3264}]",ChIJf3VZLbTraC4ROzd-YR41wsk,3.9,"['tourist_attraction', 'point_of_interest', 'establishment']",846.0,-7.034001099999999,107.615817
"Jl. Ubra Citarim No.13, RT.03/RW.016, Banjaran Wetan, Kec. Banjaran, Kabupaten Bandung, Jawa Barat 40377, Indonesia",Saung tahim,"[{'height': 4032, 'html_attributions': ['<a href=""https://maps.google.com/maps/contrib/115379755398901088107"">A Google User</a>'], 'photo_reference': 'AUGGfZnGWkpQlU1OuzAyA1xHdnec58PpUetcA04B_M912zcI8P4zlYMMwjuvOtgNvyXOGQBgHMDMRFnGdzNdzSZCr0pN12rdXq4HLj8Vqtt_2c9akyWK6-bUdgTCNHNbMJnG3m1F46koeSFn5f8V6pOopeQ_Eb78O0yK7qM0KEJQrPXyR0M_', 'width': 3024}]",ChIJLd522eXraC4RZxc2FCTsXaY,0.0,"['tourist_attraction', 'point_of_interest', 'establishment']",0.0,-7.071218099999999,107.5959614
"Curug, Wargamekar, Kec. Baleendah, Kabupaten Bandung, Jawa Barat 40375, Indonesia",Curug Akub Cangkring,"[{'height': 1200, 'html_attributions': ['<a href=""https://maps.google.com/maps/contrib/118093875842409866579"">Haddian Fz</a>'], 'photo_reference': 'AUGGfZmN9SDztXNelGj2JzhvYcbRqM6D1WFbRpJKmU7wd1NwsQeg6QbsMFaK-tu6R0Edk8YjJvE0kPZGxO7utSUeOAVa10jaxxiUoGgab17shx8kIQUhLtDWiYTYJTCJe2BaLS-1--Gva_J3Eqi0i2P-bg1wIffmrQu7CRF75Nbsb6ypOaZb', 'width': 1600}]",ChIJt504S3jqaC4RtzcqTHf7yQU,4.2,"['tourist_attraction', 'point_of_interest', 'establishment']",124.0,-7.040153099999999,107.6679852
"WJVC+PFH, Baros, Arjasari, Bandung Regency, West Java 40379, Indonesia",Agrowisata Mega Tutupan,"[{'height': 4160, 'html_attributions': ['<a href=""https://maps.google.com/maps/contrib/106582302632695893044"">ikoy apriliyan</a>'], 'photo_reference': 'AUGGfZkhxRCvr_HNTBpn1dXJen-139tf0pncFIuxGGH-gTWi1h-Htk2bfsP-dyoD_Ui43cyotJG_VJ5qK7JconBq472ND_06RzIlEUE2FvDWa9DvTi4nqUG7Jrbj681ptG50WQ0J-b8o5pK7j0zaZ8_Q9EO3aSq2xp8rrirMVGNdCM4NOTtQ', 'width': 3120}]",ChIJVzdELUjraC4RgaCT94ZzMkM,4.4,"['park', 'point_of_interest', 'establishment']",308.0,-7.0556769,107.6212254
"WJ39+QQ5, Banjaran Wetan, Banjaran, Bandung Regency, West Java, Indonesia",BALONG MANDOR BANJARAN,"[{'height': 608, 'html_attributions': ['<a href=""https://maps.google.com/maps/contrib/107838152491031089353"">Rizal Hakim</a>'], 'photo_reference': 'AUGGfZmkE8S5g9z5FBST1NdiXc8s9D0PxW5w_TXm8uR-Iw0ihOyN75_fiKX_HmpNWHTgFIiFjAgMLxzDyw3BiQKjEl1OGrTCMJSdJ6OF3BNzHyHSM0ZlkYOFEkRRjDsfMyxJlZKzHNTXBbHQvgZy0bwuYHA334MP-N-TF3wY2n7XZVIaHyvP', 'width': 1080}]",ChIJn-7WhoSVaC4Rc3g7KwBByhA,5.0,"['tourist_attraction', 'point_of_interest', 'establishment']",2.0,-7.0956102,107.6194819
"XJV9+342, Jl. Adipati Ukur, Baleendah, Kec. Baleendah, Kabupaten Bandung, Jawa Barat 40375, Indonesia",Gunung Batu,"[{'height': 2160, 'html_attributions': ['<a href=""https://maps.google.com/maps/contrib/116526233752319208609"">Upri Junior</a>'], 'photo_reference': 'AUGGfZmLt2WAfEkI7qKdFU4nBxZ8FNGcQ_RnGYiMeDKAWt67DOwmoLOZt7uGZ_w78yKdLzCWEZe55Gta1OXJQYXtKf4V0cCx6vh_NxGbEaWpVi2S8QjDTeAPfD185YaUyOznIpBnny4NofRDIUink5UcV0HNCgZ6bkdQSWDyykdwWxmhysMI', 'width': 3840}]",ChIJ9bYLbpnpaC4RtEXHP0FSU7I,4.5,"['tourist_attraction', 'point_of_interest', 'establishment']",235.0,-7.007359,107.6177684
"Jl. Laswi No.37, Jelekong, Kec. Baleendah, Kabupaten Bandung, Jawa Barat 40375, Indonesia",Putra Giriharja 5,"[{'height': 5312, 'html_attributions': ['<a href=""https://maps.google.com/maps/contrib/111199156110491642900"">Suhendi Ratno</a>'], 'photo_reference': 'AUGGfZlt0zTfrOpYb69qyTm1a23gO8dYMdSqD89y3MyTpx3qk6vVBUCdGukzfPlFABABWNg_GrHqjqOePP6JDCRQ9nLOMXc05pvBglyET4UmwxYbFdGmXKPZAAnsTZzNljGAsQJDaCJxw9a8dOWX7S0YGo0wI44OJ0hUGOF3c-A8V5sNyx_z', 'width': 2988}]",ChIJL7C1CJHraC4RoAKM1d9uFOY,5.0,"['tourist_attraction', 'point_of_interest', 'establishment']",3.0,-7.0221221,107.6557951
"2J74+PFM, Bojongmalaka, Baleendah, Bandung Regency, West Java 40375, Indonesia",Rumah Mu,,ChIJ_5sNfQDpaC4RnU31ke4iMZc,0.0,"['tourist_attraction', 'point_of_interest', 'establishment']",0.0,-6.985657199999999,107.6061597
"Kp Mekarsari RT RW 07/23, kelurahan, Baleendah, Kec. Baleendah, Kabupaten Bandung, Jawa Barat 40375, Indonesia",Taman cinta Citarum harum,"[{'height': 1860, 'html_attributions': ['<a href=""https://maps.google.com/maps/contrib/106485499124980600349"">M. Deden Bayhaqi</a>'], 'photo_reference': 'AUGGfZmHqXChn0ldNf41u4P-XMyswgWI05kRT8jO3J4ecQXWSLj06Ke_Yvvg7diwIDjWuukFLBnhKUT1iMAhuityuVZ6OCK9AdNZdRRa7uEFboSA1Ph8fCZNBc-b_NaMX7OtbVOoG9b-B7X6aJO1LHJhb_wIgIKC6SPNek-CXPEaJJG6gqDF', 'width': 4032}]",ChIJj59DNxbpaC4RgiW0U1kKI8w,3.5,"['tourist_attraction', 'point_of_interest', 'establishment']",4.0,-6.9950237,107.6281945
"Jl. Siliwangi No.100, Baleendah, Kec. Baleendah, Kabupaten Bandung, Jawa Barat 40375, Indonesia",Patung Singapura Siliwangi,,ChIJf9VMGwDpaC4RviBBXM3eWpM,0.0,"['tourist_attraction', 'point_of_interest', 'establishment']",0.0,-7.0085171,107.6369493
"XJMG+JVR, Jl. BSA 1, Baleendah, Kec. Baleendah, Kabupaten Bandung, Jawa Barat 40375, Indonesia",Saung bamboe situ,"[{'height': 1800, 'html_attributions': ['<a href=""https://maps.google.com/maps/contrib/114955199471562132108"">A Google User</a>'], 'photo_reference': 'AUGGfZlUFuUlEXUtDztkZNVp8Xz57UoaKLH2UfZWBUWBLEOCuDzBa-_BvIyUkxr5Tp0OlYzQgbAGNSLK924vXXWe6E-V0u7EcElekW0VDSHHapCAxXGnIzPe-RVKXOB5Yb238pcDjOlj__Vv1I1BHCCIkZVemFrLBg5OU8iTDDQsBoW1PnNI', 'width': 4000}]",ChIJkfy2a1TraC4RETGOI-2F4l8,0.0,"['tourist_attraction', 'point_of_interest', 'establishment']",0.0,-7.0158857,107.6271222
"Andir Muara Jalan Andir Mura No.27, RT.06/RW.06, Baleendah, Kec. Baleendah, Kabupaten Bandung, Jawa Barat 40375, Indonesia",Nirwana,,ChIJNX2TtK_raC4RDmLbfjPJsy8,0.0,"['tourist_attraction', 'point_of_interest', 'establishment']",0.0,-7.014880900000001,107.6252155
"XMCF+GVR, Wargamekar, Baleendah, Bandung Regency, West Java 40375, Indonesia",Situ Cipakan heula,,ChIJTTMNDwDBaC4RtqbzR8Fd_2c,5.0,"['tourist_attraction', 'point_of_interest', 'establishment']",1.0,-7.0277002,107.6734205
"XM57+XJ2, Margalayu Patrol, Jelekong, Kec. Baleendah, Kabupaten Bandung, Jawa Barat 40375, Indonesia",RUMAH MANG WAKA,,ChIJ9TSaSQDraC4R4sM10gpZN-E,0.0,"['tourist_attraction', 'point_of_interest', 'establishment']",0.0,-7.04118,107.6643233
"XJRG+7QP, Baleendah, Bandung Regency, West Java, Indonesia",Jalur tugu,"[{'height': 2160, 'html_attributions': ['<a href=""https://maps.google.com/maps/contrib/114955199471562132108"">A Google User</a>'], 'photo_reference': 'AUGGfZnHEv-YjuJV8FtgGMVN7BmhYjcZPpS9YmhW2ncoHgvWSkZUPWGl0uoX18LHqJbpw9IKOdbQVL1e9pjL4mYU1llKGcyaA9x_WLue8L5zWnPxaj--PiuJjg1fJD38hJJ7jP41Y-4Nn7d08vgs-nPeY2JjNNiGnA3-IJzK_iv75pjhDd44', 'width': 3840}]",ChIJiVKJlXzpaC4RCHMUKQcRbrI,5.0,"['tourist_attraction', 'point_of_interest', 'establishment']",1.0,-7.0092897,107.6269603
"XJP3+V6H, Malakasari, Baleendah, Bandung Regency, West Java 40375, Indonesia",BOJONG KOPO,"[{'height': 3456, 'html_attributions': ['<a href=""https://maps.google.com/maps/contrib/117469006214768697075"">dedi supriyadi</a>'], 'photo_reference': 'AUGGfZnmVqXgOL8xFn4MqQwZR4Zzv0iZeIxaEKwLmOaFmjohwca_KVT835MKLal8eOIgg76gAusa5WB2gK8R7Dpa29qLfr2QDrNifhoi7tqW-x1kZWiemNFUkjDcUlbIpV9bmYKqquI7oE_aoB4vOBCk4JdRKcdt47wj6hhO_1ER5OBGOYTK', 'width': 5184}]",ChIJpwvcnGfraC4RGvz-kh3yCGI,4.8,"['tourist_attraction', 'point_of_interest', 'establishment']",6.0,-7.0128144,107.6031074
"Pasir Paros No.RT.06/16, Baleendah, Kec. Baleendah, Kabupaten Bandung, Jawa Barat 40375, Indonesia",Bukit Pasir Paros,"[{'height': 1200, 'html_attributions': ['<a href=""https://maps.google.com/maps/contrib/103125273828326961868"">A Google User</a>'], 'photo_reference': 'AUGGfZnIhArtw6HsjNLFQZVB8ofCHREDWo-7qa5ganEBhmh_i2zzkEgTVc7EUg9fUDhkbczsXMQEyoEvAEBKoTg91QZ3N65ioRCjPHnxcKfsyWig8COD0hBby6OUdZ2DKiBwqdb6Esi58ZdMNke6bThp3QORUyw7jnxuPMCt_0fwEcM5HdKj', 'width': 1600}]",ChIJB008rcfpaC4Rwdm4uN9P4uo,5.0,"['tourist_attraction', 'point_of_interest', 'establishment']",38.0,-7.0086424,107.6183204
"XMJ2+3VF, Manggahang, Baleendah, Bandung Regency, West Java 40375, Indonesia",Pemancingan Barakatak,"[{'height': 4160, 'html_attributions': ['<a href=""https://maps.google.com/maps/contrib/101426557643772196349"">Asep Jaenudin</a>'], 'photo_reference': 'AUGGfZnJOFpdw7cva32zuXCPVOFDLSbUyVGsa_7tJQLdSJ4-2sQD9YPot7Ac3TbbWXN9iXfzDwUvFAtt8u9MQOpTmu4Bq574YQ2rt1kyuOWSB3oUI6x-I-21PY8Wx0xJ_J-YcY9rb5l92DROKKAe8UyBASolyEuXYsObhyzNiO8n1rljtc0k', 'width': 1858}]",ChIJ4UWhFgDraC4R77Wyj2d5twc,5.0,"['tourist_attraction', 'point_of_interest', 'establishment']",1.0,-7.019799099999999,107.6521986
"XJJR+39C, Jl. Cipicung, Manggahang, Kec. Baleendah, Kabupaten Bandung, Jawa Barat 40375, Indonesia",Jalur trail godeg,"[{'height': 1800, 'html_attributions': ['<a href=""https://maps.google.com/maps/contrib/114955199471562132108"">A Google User</a>'], 'photo_reference': 'AUGGfZk5LhFq0Vy3Qba4CU5e4gRYWbLqmt3D9hr8XsOSednRiCNQxnUoEpO6fRWKZlyfGvGi3UeNpZGwqpmg3k0i5sMJ_s_xrLs29J7UChSuCMZ_K7yTL9z5CHK9En4HT8pbDCYSQPBFpv3s7X9Lx18W47dDpGf0stwo3qJ2W18UWMCYTPi-', 'width': 4000}]",ChIJFX7-GmnraC4R9jMBrXXx-Eo,0.0,"['tourist_attraction', 'point_of_interest', 'establishment']",0.0,-7.0198015,107.6408917
"Taman nasional cikawung Jl. Dayeuh Kolot Ciparay No.360b, Wargamekar, Kec. Baleendah, Kabupaten Bandung, Jawa Barat 40375, Indonesia",Situ Langoring,"[{'height': 1920, 'html_attributions': ['<a href=""https://maps.google.com/maps/contrib/116379174318847546537"">A Google User</a>'], 'photo_reference': 'AUGGfZmsDLaX8CbbrscYt2cvcy-YyWJrUMEDXPNlueC-tsuUdTdg5X13G-aHuZN4XJ383lX8woR8JjnFcEOS1w9KdqWYsMsyKsnMYGR2Zyt0ZdVmOPK2ME2Qj3hI1Y_SbMrC0S6k68DpPr8AmCYpOJgh5madgxCMzm8_AHrcBTvJwi3KjBeE', 'width': 1080}]",ChIJ_xGxJgDBaC4RokH0lCLHAY0,5.0,"['tourist_attraction', 'point_of_interest', 'establishment']",2.0,-7.022391,107.678176
"Jelekong, Baleendah, Bandung Regency, West Java 40374, Indonesia",Pondok Alam Lestari,"[{'height': 720, 'html_attributions': ['<a href=""https://maps.google.com/maps/contrib/115868776657751618119"">A Google User</a>'], 'photo_reference': 'AUGGfZnR-m-51LRBkYlh9MSqniy6HDCydrHQl-bSQwFN_28JWicXdOOQEQY8R1VdPfwJGQTESOcbi5uBIfejaGql8phTH3j47Jn7w0gubA6SzrS9WSvMIRrfEirraYKh-OMbQLtFt1Pdjo6pU2ppI1U3DM5yuhgSvfqbZ4FR0a2QYfBNFTcc', 'width': 1280}]",ChIJ1bzlqsHraC4RFghG1Xr7rEU,4.9,"['tourist_attraction', 'campground', 'lodging', 'park', 'point_of_interest', 'establishment']",24.0,-7.042907,107.6645575
"2J4J+V73, Jl. Raya Bojongsoang, Baleendah, Kec. Baleendah, Kabupaten Bandung, Jawa Barat 40375, Indonesia",Gerbang Masuk BBWS Kolam Retensi Cienteung,"[{'height': 3120, 'html_attributions': ['<a href=""https://maps.google.com/maps/contrib/108453183635353160539"">A Google User</a>'], 'photo_reference': 'AUGGfZk9IId0Y0ksvBttdBiMI_6FU8eek5AHpcPl3knCIl_XhYw6DRlfYVCIjeO-5rvJ9mDtFkatvcEkVY6VD2fo88S9XgxjLde7tMe0lFHhGUNuki_9WshGyZGglmzqUNES_NpyOJpGUcqGae60VOB5Kz71mqWuWVz9HmuoW1AwT3Z0T3nJ', 'width': 4160}]",ChIJH3mEHrLpaC4R9RXD8Y1R3hY,5.0,"['tourist_attraction', 'point_of_interest', 'establishment']",2.0,-6.9928565,107.6306785
"XM5C+MQ7, Jl. TPA, Wargamekar, Kec. Baleendah, Kabupaten Bandung, Jawa Barat, Indonesia","Perkebunan Cau Ciparay ""caucip""","[{'height': 3000, 'html_attributions': ['<a href=""https://maps.google.com/maps/contrib/101779002415493002781"">deni david</a>'], 'photo_reference': 'AUGGfZkjaUiiL8UWf6cUcIc3Lb8kE-6F-vP5_hHaNfcpowaEf8X-lUHTXE6Pwtkqp9koKPpcYwssS_PZj8Xs6JJYA936XXo_oUGa8VysII7uDLuqvXgZUJ1rYi6bMW4TYDW4qIx22Op-xUq9qjlX-fzN9yJrpC2NjxEa9dDHI4dh5KhDRPa1', 'width': 4000}]",ChIJ1Z1pZwDBaC4RNyzGqNLxWko,5.0,"['tourist_attraction', 'point_of_interest', 'establishment']",1.0,-7.0406885,107.6730926
"XJMF+32H, Andir Muara, Baleendah, Kec. Baleendah, Kabupaten Bandung, Jawa Barat 40375, Indonesia",Villa kaca amura,"[{'height': 4160, 'html_attributions': ['<a href=""https://maps.google.com/maps/contrib/109650838449053053316"">A Google User</a>'], 'photo_reference': 'AUGGfZmp-wO_v8EgpKWWUisVPEw2BA16MixQmybxFDua-YAyXhjoxpI4PNKX79SwTU8rO6i5UOu4yi-O5rnY2Ph1AtYHnj7ODo6bY64-b0AJVb6R6bV-3s1H5_qm17PA96lZ59XXrbBqtfc2Ash1s3CzjPZJ0PliSucdS0oLj98olEvUE7LF', 'width': 3120}]",ChIJpb2dOk7raC4ReKgIzSN-51w,0.0,"['tourist_attraction', 'point_of_interest', 'establishment']",0.0,-7.017322,107.622616
"XM66+668, Jelekong, Baleendah, Bandung Regency, West Java 40375, Indonesia",goa landak batu karut,"[{'height': 817, 'html_attributions': ['<a href=""https://maps.google.com/maps/contrib/103697236576952770938"">A Google User</a>'], 'photo_reference': 'AUGGfZnSvpsSdN_v19fl7V6ZCpqSSp5BXfNoOCyELz5H348VODv7yS_uUgU2cALNjJYkEpc2uBlPhXvx6BLMvPGpWIznlxkWzigm-qSPMFFUUa7QtjbDmWqOQqDv6dk1SL0wy7UIQceszU91CFZItbWrrWnPgpv2HuZ0dzcaP7aQBGF0z6O0', 'width': 1225}]",ChIJpUdk8pHraC4R1XXi8QTdfAk,4.3,"['tourist_attraction', 'point_of_interest', 'establishment']",16.0,-7.039452,107.6605654
"Manggahang, Baleendah, Bandung Regency, West Java 40375, Indonesia",Gunung Geulis Manggahang,"[{'height': 1868, 'html_attributions': ['<a href=""https://maps.google.com/maps/contrib/102165651111310595674"">andi susandi</a>'], 'photo_reference': 'AUGGfZlXdO7f3QtifHzhGxzz2M5woAdR0HjCAuHZzGw9XPqvBo_m2OLqR9ryknFnOtv-1CWaNyES1rIS3USaXfy81oeNqEE24eMyLpWm24LkgnjJ3T1T42kTo9FNLBSo74-gB7AkynuFerouOpWTfdrAPg4mI0ukm2yLXtjzt8W5-Jhj6EY9', 'width': 4000}]",ChIJbRDiperraC4RvP4Svly3pQ4,4.7,"['tourist_attraction', 'point_of_interest', 'establishment']",43.0,-7.036089599999999,107.6438753
"XJRW+P7J, Manggahang, Baleendah, Bandung Regency, West Java 40288, Indonesia",Pemancingan Pa Agus Cibarangbang,"[{'height': 1204, 'html_attributions': ['<a href=""https://maps.google.com/maps/contrib/103749231743980655415"">A Google User</a>'], 'photo_reference': 'AUGGfZmMbYgMfd6XnueQdrQH6hjI7XXZeCYHRrs90KczWOc4Q8ic3qmCb4bKkKBo0KUJavy1c8mSB6HT3dAl959BFQ4GDjNhf8yoTI_ITLAJDrCgSRySGKSesuD9MP7By2rE72OY5LuPKistKe2c2P13IQvPP5lgeOZ6m5RXI3fC3p9BbFMz', 'width': 1600}]",ChIJYUXN5MTpaC4R9fzDdxkebiA,5.0,"['tourist_attraction', 'point_of_interest', 'establishment']",5.0,-7.008491,107.6450964
"Jl. Raya Laswi No.381, RT.04/RW.10, Wargamekar, Kec. Baleendah, Kabupaten Bandung, Jawa Barat 40375, Indonesia",Tugu batas kecamatan,,ChIJXzQDHgDBaC4RrWQRWKtGEVk,0.0,"['tourist_attraction', 'point_of_interest', 'establishment']",0.0,-7.0219068,107.6794082
"2H5W+V2R, Kp, Jl. Bojong Koneng, RT.03/RW.10, Rancamanyar, Kec. Baleendah, Kabupaten Bandung, Jawa Barat 40375, Indonesia",Balong pa otang,"[{'height': 1970, 'html_attributions': ['<a href=""https://maps.google.com/maps/contrib/109959113381958565338"">Muhammad Aka Firdauz</a>'], 'photo_reference': 'AUGGfZmrtsMqUm2BVT8212GbQh2Y8H6jnxIK6y3DDXSWsQvbLoBsGlzWDOGfTW2dvWS8RRzZHObxIe_mi2IsuYtWk_hLug5lhHDm31P74z1V8wubp6CKTIDaJorA4cPyPDxSacfMySS7jBZ53IdGw4hgCl4LSzjmY3nP81X7N5Lu0_yMXvf_', 'width': 4160}]",ChIJIVv0yavpaC4RPe-aqpciXIY,5.0,"['tourist_attraction', 'point_of_interest', 'establishment']",3.0,-6.9903026,107.5950236
"Payaweuyan, RW.16, Wargamekar, Kec. Baleendah, Kabupaten Bandung, Indonesia",Pamidangan Reksa Pratama,"[{'height': 3120, 'html_attributions': ['<a href=""https://maps.google.com/maps/contrib/107455923722741797161"">imam purnama</a>'], 'photo_reference': 'AUGGfZkPpC8ILy5VXaIEb64jWCNAdRn3FhRZxI1bJFWicRNFYSUwVEWOCGtP7YkQKzSOC5zbYB0OmeNS6XycNmvs-iq3vZ5vTU7-oBL_5C6Wuf61RJayWmdqtiYWnoz0FzTigqnhLiWvyYA7FBn3SisZ0HInFQJY88svu8SLQaXUA28DGMYT', 'width': 4160}]",ChIJhS7k-RXBaC4RYPxb9ivHync,4.0,"['tourist_attraction', 'point_of_interest', 'establishment']",4.0,-7.043796299999999,107.6683682
"XM58+87G, Kp Curug, RT.001/RW.006, Wargamekar, Kec. Baleendah, Kabupaten Bandung, Jawa Barat, Indonesia",CURUG BATU PALUPUH,"[{'height': 688, 'html_attributions': ['<a href=""https://maps.google.com/maps/contrib/109190901783713723508"">deni rustendi</a>'], 'photo_reference': 'AUGGfZmO6A75l4G0G4Nk848zyeGK9NvARfGE3lhd3UfBhBMyFnqVNsv8mVjkpHP1qQIBCsBE4bgMlFxBlABAa2YnFpjixJDRUui6uWhKZV55ttM2bebuKPzTUmzwlkYBzOox0jFB8KPCXstUIAyYuCJ-lymZPH1BMCUlwKcJOUePLnodtCU', 'width': 1280}]",ChIJyTbV_LHraC4RhRlFp8CtNKQ,4.9,"['tourist_attraction', 'point_of_interest', 'establishment']",10.0,-7.041684399999999,107.6657102
"XJXX+P29, Bojongsari, Bojongsoang, Bandung Regency, West Java 40288, Indonesia",Tepas Ranca Kujang/ Tempat Parkir Wisata Pdam,"[{'height': 3120, 'html_attributions': ['<a href=""https://maps.google.com/maps/contrib/107376292892973647276"">A Google User</a>'], 'photo_reference': 'AUGGfZnIb7NV3IYP81JwFFdFQ3zVqki9s8Xm5MdQ3qV6lcYxNfWTQXKLVFXeCwgPdDgbLGY_isVeI7fWGvxc4Xw5kTyS5HcHrcl2EQXJAerCGf1nFl09xtz638yP-ywPCJ4JQYoCxZ9yOktF7-xeTRSSd_JauVuKw5jNS5_RjAckrusXjFMb', 'width': 4160}]",ChIJxTKz4NDpaC4R4HtDAZ2aAis,4.0,"['tourist_attraction', 'point_of_interest', 'establishment']",1.0,-7.0007065,107.6476194
"Jl. Bojongsari No.25, Bojongsari, Kec. Bojongsoang, Kabupaten Bandung, Jawa Barat 40288, Indonesia",Pemancingan putra pa haji,"[{'height': 4160, 'html_attributions': ['<a href=""https://maps.google.com/maps/contrib/116333293194515070130"">A Google User</a>'], 'photo_reference': 'AUGGfZle7-tkd6dVySMto0G78EkWIv7RY1lmpl6FGjQsrCIdsM9gon5nX7dTggIb3JtEM4jTHKuO1mJfgz2M_cWYDb0RcI9Ot9I4eSJQeBt-0-dGOK4VpJMBINJgIIUX7yNIYu1u1P4MPjTWR9HFNkzasYRt8y6xXB02-I6txOOu0BjS9ido', 'width': 3120}]",ChIJ6brGob3paC4RhzFj2vVYuI0,4.7,"['tourist_attraction', 'point_of_interest', 'establishment']",3.0,-6.997765599999999,107.6419744
"2M33+QQ7, Bojongsoang, Bandung Regency, West Java, Indonesia",Spot insta PDAM CIKONENG,"[{'height': 1080, 'html_attributions': ['<a href=""https://maps.google.com/maps/contrib/116848572950883712976"">A Google User</a>'], 'photo_reference': 'AUGGfZlgWgh4xyU7YtF1rCnEDAdMpTAQjXUjhQJzaS42AjqI6_EyDKXzfyYhGeJ9qPz5rJ4vT-E-CWdLM2zIp0PtljPzLgoGV7GNTriBkjoonrFMzMT0aDIaXWBYYW2mcAYL64A9bSi4_hTK-X9vAZv6rw3ZaSkks4d25eSJUgQQP6pvId0g', 'width': 1080}]",ChIJ9Q0shdnpaC4RcDXUzXptt0k,5.0,"['tourist_attraction', 'point_of_interest', 'establishment']",1.0,-6.995578999999999,107.6544087
"Jl. Cicangkudu, Rancamulya, Kec. Pameungpeuk, Kabupaten Bandung, Jawa Barat 40921, Indonesia",Pasar Tumpah Sabtu Sore,,ChIJa0kPoCvpaC4Rtod-cv-nXvo,0.0,"['tourist_attraction', 'point_of_interest', 'establishment']",0.0,-7.003123700000001,107.5905963
"2J3W+3W8, Bojongsoang, Bandung Regency, West Java, Indonesia",Pohon Jomblo Cikoneng,"[{'height': 4789, 'html_attributions': ['<a href=""https://maps.google.com/maps/contrib/102396682901663948794"">Andi Kanipatra</a>'], 'photo_reference': 'AUGGfZkgThuAI1SHtAtgrwaBLNx5N5ljGKBb6jzKuzBERtOe3qX_N4OqaKZ4M7-cEC-fz7afvSCKGYvTnHFBle4qWPtSkWf7I3g5R4U7gKIvgsyyIQ-EYuP9yVpE9Yiuglkv0oSzKBkQBscmDxNsOTgPK5JCKbIJlPJSFkzzaaqD7f6aBZZn', 'width': 3832}]",ChIJze1CIx7paC4ROd6d_9jhkSA,5.0,"['tourist_attraction', 'point_of_interest', 'establishment']",2.0,-6.9973424,107.6473196
"2J5V+F5C, Bojongsoang, Bandung Regency, West Java, Indonesia",Spot Foto Gubug Cikoneng,"[{'height': 1329, 'html_attributions': ['<a href=""https://maps.google.com/maps/contrib/104921068663159390024"">aris winahyu budi raharjo</a>'], 'photo_reference': 'AUGGfZlKPZKA2yTsTPXjmb9bogS8K0teKJNWL6pYXBjtV8myQvj5P9KavA6ijtJ0DSUtAEO99Nx5Xogoa9e_49-2RbLGa96Z16ZBkrfP2mgktII1vY9yk030NMovl6eoMs8kwa6jWM61wK5GrriBjaaKhrGRZz63b_7YIf8qba05zchBUEql', 'width': 1080}]",ChIJP1XLfgDpaC4RUpDvFJeAORg,5.0,"['tourist_attraction', 'point_of_interest', 'establishment']",1.0,-6.9913352,107.6429183
"2M33+JC6, Jl. Cikoneng, Buahbatu, Kec. Bojongsoang, Kabupaten Bandung, Jawa Barat 40288, Indonesia",SwaFoto PDAM,"[{'height': 1961, 'html_attributions': ['<a href=""https://maps.google.com/maps/contrib/116995575093343689682"">Surya Buddy holly Nugraha</a>'], 'photo_reference': 'AUGGfZnbpFctST_WnO9HBc8TUNWcEY_rK9u_lsAwfvRc2lECe0szxNAgYXq2PH1ebdFmqCRqlqVNSDEErtMAoeDPIG9M1Wn2YNcJKd2ltLehTi9ToVCJyDx7x6yxJWgsOb9Fm8zVT9im_u1pJ5ll1RqPoDw2ianC4-C6_fzqAgNHKPD3jFmH', 'width': 3486}]",ChIJCYRg7f7paC4R1SSxAZQf2bU,4.6,"['tourist_attraction', 'point_of_interest', 'establishment']",45.0,-6.9959511,107.6535192
"Jl. Pasir Mulya, Pasirmulya, Kec. Banjaran, Kabupaten Bandung, Jawa Barat 40377, Indonesia",Rorompok Arya De'borgies,"[{'height': 4248, 'html_attributions': ['<a href=""https://maps.google.com/maps/contrib/114766955326457981475"">rorompok Arya Karyadi</a>'], 'photo_reference': 'AUGGfZk7SqPfU2-uvIthzhyISMslTFYvuFT68jTdtsAVxJj3Q-hL6ifKfpJZ24huqeMVSqdpn7iFFTSi0XHV7EWxg5IPifU3NT1bREAK2E6L14Ho0tsVA5WP7IvtBKqC8ocf8BEL5AJY6cZ3MCJhnGBMnRu4qFQ62QbbT7j8lYAKTU24sfU9', 'width': 5664}]",ChIJ_16AqlvraC4RX0d_GmSYeJ4,4.5,"['tourist_attraction', 'point_of_interest', 'establishment']",26.0,-7.0806495,107.5836182
"XH2Q+PJQ, Banjaran, Bandung Regency, West Java, Indonesia",BANJARAN INSIDE,"[{'height': 1080, 'html_attributions': ['<a href=""https://maps.google.com/maps/contrib/103688650462285361283"">A Google User</a>'], 'photo_reference': 'AUGGfZlFGZXYQpRlQoTOVRJM7bTh56VAYWFXMdwJixjZJTSkVMMx77JKPwNWsCrrjAoUjUaSCxEKU2gN4JEreYdYYxgwgPtGkgPnStmInkympFLe3UZ18FMA8rIyAyWMTqnL2zJ1pCwxeaF0zzy7_KgEchcHlkhvtqHlYTYp4Hf5us89zX0E', 'width': 1920}]",ChIJXcBHdAHraC4RgftmPs6XUM0,4.5,"['tourist_attraction', 'point_of_interest', 'establishment']",2.0,-7.0481653,107.5891224
"VJ8F+FP4, Pasirmulya, Banjaran, Bandung Regency, West Java 40374, Indonesia",Curug Siliwangi,"[{'height': 4000, 'html_attributions': ['<a href=""https://maps.google.com/maps/contrib/113619109567179797135"">amar safrudin</a>'], 'photo_reference': 'AUGGfZmQIQCNBdGv6hHhC0DIhI7K90d141ZVUV_lZLr4nH8y0XsEfMrN2Vy0VZglDyysSDXlh1Su9a458w-RYZcpYY7eAO2efMaj-GPDGmd1AvPPenv4V70H_plZRJZof0Y-gpg2b6prROS1PJpxD18Nd7u-yqGLqaL4QmK8Zm7curVeiQve', 'width': 3000}]",ChIJY-YWn-OUaC4RA4XLhD4fASQ,4.4,"['tourist_attraction', 'point_of_interest', 'establishment']",54.0,-7.1338532,107.6243364
"VHW5+RQJ, Cipinang, Cimaung, Bandung Regency, West Java, Indonesia",Banjaran cikalong,"[{'height': 1080, 'html_attributions': ['<a href=""https://maps.google.com/maps/contrib/101759092631841241608"">A Google User</a>'], 'photo_reference': 'AUGGfZm7Ay7oVM9P5wBiiN-p7P73sZJeMH2b635D3h8qRYe7HL0rEFxzaKX1VX585tC0pX0mMQJ9vxXwLoVCqiU77a4IvAAcfNftOo2iFDx1OsPMG3I6GEfBbL_o0RrzgTG2TdNZqZyIPuK3u66IRC-nfqh4uQqdMwpy1cSSzxOPNLpbOiki', 'width': 1920}]",ChIJv270aQ2TaC4RcXNpy1SPBUo,4.3,"['tourist_attraction', 'point_of_interest', 'establishment']",9.0,-7.1029176,107.5593913
"Gunung Puntang Desa Cimaung, Pasirmulya, Kec. Banjaran, Kabupaten Bandung, Jawa Barat 40374, Indonesia",Wisata Gunung Puntang,"[{'height': 3024, 'html_attributions': ['<a href=""https://maps.google.com/maps/contrib/116358322999243824775"">diki fazmi baehaqy</a>'], 'photo_reference': 'AUGGfZlRXZT0O9SM3b8GRWhi3APmWOqgjg5T-0U6EAepDJG2TVkcVBOcefNUB7219HlDo-kDZacTyoCRFJSP1-Sasw0DIV4JvOllQYkhi1VFQqc9CdEAkhhYa5QT_GsBi7Anj9ey-hvhP4VDlOsyZfiH8Gzys3uO6TzBKb0AC_cLkzawhmhL', 'width': 4032}]",ChIJaV4SOcmVaC4RdvMg9IO1zfQ,4.7,"['tourist_attraction', 'point_of_interest', 'establishment']",283.0,-7.1149428,107.6055717
"VJM4+GF2, Jl. Gn. Puntang, Pasirmulya, Kec. Banjaran, Kabupaten Bandung, Jawa Barat 40377, Indonesia","Kolam Cinta , Ruïnes van de Indië radio-Uitzending in Malabar","[{'height': 2340, 'html_attributions': ['<a href=""https://maps.google.com/maps/contrib/116434373433878563396"">Yandri Ariyanto</a>'], 'photo_reference': 'AUGGfZmIwfEahCWTz_SAIzSCyiSDYVEZ2HvBDz4qNRWkZElTxFkYfg-bjxEy_Iz68qicx15pQe0SNwM94Gl1sZkxBqxVKeEaQiKUxOwT6kwY9SgyiG398Y-21-lFHwvEj2_2pF6sCS_rxLGM4iQ8XGWahPeedK0IkJIhmkPbKbhCU0f-Zbqg', 'width': 4160}]",ChIJvxtQYuKUaC4R4HLWR2Y4_3M,4.4,"['tourist_attraction', 'museum', 'point_of_interest', 'establishment']",539.0,-7.1162434,107.6061541
"Dangdeur No.21, Margahurip, Kec. Banjaran, Kabupaten Bandung, Jawa Barat 40377, Indonesia",KAMPUNG RAMADHAN BUNUT (KRB),"[{'height': 3120, 'html_attributions': ['<a href=""https://maps.google.com/maps/contrib/105202914569115723144"">A Google User</a>'], 'photo_reference': 'AUGGfZmePZkhpiEUrgk0ootR3AzTznYBWvwCp2sDmhyhVVRdC8aKc0Q9h83u8biKRF0fhjchaqYcSd1JzhLkgErQKMJfyubRgPlaj7nU99ufeTOhuAWFy-9KHoU7HKKAysTwKONwE0bo9TThVRARwpVooQmfKdIX3qRk1OCFaXpJzMl2M1OF', 'width': 4160}]",ChIJJ446ikDtaC4RZ3-1XzxcalI,5.0,"['tourist_attraction', 'point_of_interest', 'establishment']",15.0,-7.055150500000001,107.5617253
"Jl. Kiara Payung No.32, Banjaran Wetan, Kec. Banjaran, Kabupaten Bandung, Jawa Barat 40377, Indonesia",Saung Ma Neng,"[{'height': 3120, 'html_attributions': ['<a href=""https://maps.google.com/maps/contrib/105480205945039971362"">A Google User</a>'], 'photo_reference': 'AUGGfZmOIwGo9MYnU6tZY_8fF1fWmecczscWrhocWte60z1I_RymXF8gxYmSeZEoaF7LWtDjQAAwvf8T84EZ3VzKDs1Xsw2NBRe0YYEpf7xGw08ZW6oKNXknk0i1if_07AqimMIG14Era9_iNzjGXq-2et3KOZJdAxBLxNMDZ52x-jo80tpA', 'width': 4160}]",ChIJ9WuQvojraC4RyTvsQZIlNoo,4.9,"['tourist_attraction', 'point_of_interest', 'establishment']",9.0,-7.0675192,107.6046212
"WHP5+W43, Margahurip, Banjaran, Bandung Regency, West Java 40238, Indonesia",Dewi hurip astaraja,"[{'height': 3968, 'html_attributions': ['<a href=""https://maps.google.com/maps/contrib/111008082790985606725"">Yayan Mulyana</a>'], 'photo_reference': 'AUGGfZlsNy1nmCDLvI4aKI4POk1qP5kY01bU4aUZKh1nVJLn0OD9sv8tWrDyG0x542DnwqBNTOrT2olQvIfESyhu4ujDRNtXBv0jPj5pu_zeUDIUSZCAG9UOYU2DcRM5DSjyoWdDFvxDfC5MuCH0-tQymz0HhPEcJK71y3kvHKL1nRVj0hcf', 'width': 2976}]",ChIJzTq9TtPtaC4R2jplvfJ2aiw,4.0,"['tourist_attraction', 'point_of_interest', 'establishment']",2.0,-7.062732700000001,107.5578073
"Jl. Raya Pangalengan, kp. Astaraja, Margahurip, Kec. Banjaran, Kabupaten Bandung, Jawa Barat 40238, Indonesia",Kampung pangulinan Astaraja 13,"[{'height': 4608, 'html_attributions': ['<a href=""https://maps.google.com/maps/contrib/102934389790247643070"">euis wahidah</a>'], 'photo_reference': 'AUGGfZmjq5Uf7ONc1ETY4wvooyOnoyoguZCD158Dy3hgxtZJEzcSTo-Vo9DTsX9orM_tZRrvvZQTJqrv1AnXS7LQdWm37YedAnExU5gpvinlTnEma-fKH8KoJ9ebHzB21d_hunUreYCJEZg4Y1kOFavJNf-DfmH3pBamS64hWCTyHR86JjZS', 'width': 3456}]",ChIJd44XwYXtaC4RYGzpUKZ0itk,4.0,"['tourist_attraction', 'point_of_interest', 'establishment']",6.0,-7.1545457,107.5556897
"Jl. Astaraja, Margahurip, Kec. Banjaran, Kabupaten Bandung, Jawa Barat 40377, Indonesia",Bandung Ludologi Garden,"[{'height': 2084, 'html_attributions': ['<a href=""https://maps.google.com/maps/contrib/111692415200709430407"">A Google User</a>'], 'photo_reference': 'AUGGfZmKP0_jXcyqhlhQ-n8b4Hof9r6Nv_G4Lkm3CfTGqTC68VDHuZtNzvHmxYJEdPZGxJKt-01aYRF0bO82zcIcufF-TPWXHi-aK72FlN5x6C11kr722CVhYaJHRY6bWgIhETVjjmYBpqWd9CQ3c5SMTtayqKJMXJo5lANVvlQx2juPqvHJ', 'width': 4624}]",ChIJI-TuFs7taC4RDJ7FSwLY8Eo,4.9,"['tourist_attraction', 'point_of_interest', 'establishment']",7.0,-7.0638858,107.5581628
"Unnamed Road, Mekarjaya, Kec. Banjaran, Kabupaten Bandung, Jawa Barat 40377, Indonesia",BUMI NA LINTANG,"[{'height': 4608, 'html_attributions': ['<a href=""https://maps.google.com/maps/contrib/114373309277647698709"">A Google User</a>'], 'photo_reference': 'AUGGfZkJG5uXAC_KL1bhhZfKTJGBV2QxOB1wt6m09hqcsdpHQ3_SH-eOcUGVPFwTdiAOVJavorXnd-0I_NjV3xuAicClqDbZgc3Y_Us6qzhWpMzlyQ8-NZSuskmui4dsrOJTHFPinPwNsPuiIreORlIq71LHnwl2ov_vmveJRN2Y0nXWPl80', 'width': 2184}]",ChIJN9o3AY_raC4RUZAKdXN-bm0,4.3,"['tourist_attraction', 'point_of_interest', 'establishment']",9.0,-7.0885944,107.6005118
"Jl.anggrek no.012, Jl. Margahurip Indah No.Komplek, RT.03/RW.10, Kabupaten Bandung, Jawa Barat 40377, Indonesia",SABAN travel,,ChIJLUw_XAbtaC4RutFzDZUJXzQ,0.0,"['tourist_attraction', 'point_of_interest', 'establishment']",0.0,-7.0659144,107.5653929
"Jl. Empang, Ciapus, Kec. Banjaran, Kabupaten Bandung, Jawa Barat 40377, Indonesia",tanitani farm,"[{'height': 3456, 'html_attributions': ['<a href=""https://maps.google.com/maps/contrib/108826185230702413230"">A Google User</a>'], 'photo_reference': 'AUGGfZlwGsEzIU5Sd208tzNbao0AV2TKt3z71T_iQ0tQv6x67uQJn8lsqK9mX2s-PRGr8TXEC8OImrDdFpKwHcJx7cpmr2l-eJ_Gsbfunag4aiw0tBTCxwU502eBC9TvzgCVeuTPZHrsX8pHtY97ebNMwK0wM3-ANy7QyAVYAnp5xpR2NKNg', 'width': 4608}]",ChIJs1cZCdrraC4RITD4lKBjG8I,0.0,"['tourist_attraction', 'point_of_interest', 'establishment']",0.0,-7.0649728,107.5882825
"WHMV+P3X, Ciapus, Banjaran, Bandung Regency, West Java 40377, Indonesia",Desa wisata pasir peti,,ChIJIQCe65zraC4RG515KDkpT44,5.0,"['tourist_attraction', 'point_of_interest', 'establishment']",1.0,-7.0656356,107.5927199
"Kiangroke, Banjaran, Bandung Regency, West Java 40377, Indonesia",Irigasi Ciherang,"[{'height': 3264, 'html_attributions': ['<a href=""https://maps.google.com/maps/contrib/110923661471367642033"">A Google User</a>'], 'photo_reference': 'AUGGfZn0VNA0B3MdIIrnVkqhl3JyXG-1f5RDb_8vI7gBddJ8mi-UTsBWRDq874ZXqkybnOqjwOlil_4DPd7a3URnvs2tBluuO2I9DN7rdZoBEnQg_GL8zb1o3Ly9aUAvvP5qc6asGZFBJJpnUlQoQLXWlvQuBhTx85qskQ_MM7i3aGqhtX6_', 'width': 2448}]",ChIJj4-i23rsaC4RRK-qcU593Oc,4.3,"['tourist_attraction', 'point_of_interest', 'establishment']",179.0,-7.045499,107.5633638
"Rw 12 r t O4 Panyindangan, Mekarjaya, Kec. Banjaran, Indonesia",Sagara fishing family,"[{'height': 1840, 'html_attributions': ['<a href=""https://maps.google.com/maps/contrib/101286264757639107966"">Sanosuke jiraya</a>'], 'photo_reference': 'AUGGfZn-h3FqO-wxxosAmREUkyHzzUwrds84GSQBMJsCX9McHMjihCCVSqjpahy96hb_ffetZN6L4kF1nqM6a6CQMk--VfOe86DhtVaM3Vg94q-54Lh85tPy7qZivRyRNXmoa1mEWGw-A533YLPb6dIY0bOIwReqhkZfpqixJrhJLsPP7ZZ7', 'width': 4000}]",ChIJD9N1isvraC4RkAs1tgEDtGc,4.6,"['tourist_attraction', 'point_of_interest', 'establishment']",5.0,-7.077469,107.5849482
"WJ24+GVH, Mekarjaya, Banjaran, Bandung Regency, West Java 40377, Indonesia",Wana Wisata Kampung Wangu Pasir Mulya,,ChIJbXw-AgCVaC4R3nsKm_PUiUg,0.0,"['tourist_attraction', 'point_of_interest', 'establishment']",0.0,-7.098679799999999,107.607239
"Jl. Pahlawan No.10, Kiangroke, Kec. Banjaran, Kabupaten Bandung, Jawa Barat 40377, Indonesia",Waterboom Cahaya Abadi,"[{'height': 3120, 'html_attributions': ['<a href=""https://maps.google.com/maps/contrib/106071750032718526140"">Firman Ardiansyah</a>'], 'photo_reference': 'AUGGfZkMW-lAmHY2d8JKAC573dV3cnLqfZGz14ymny7I8-EoJNi3qtv_ld7Kvk46RybSFBA9P6pPi31AAC8ROyeerwQkM8JuhPJkw7o1C087PULCaMPzOPg0FxYnDKEmg9hh3OMgIDK6ffNZjlTrpi5L7yg3qH5Emj57BL8i1keQRBATcdqG', 'width': 4160}]",ChIJ67iOZzrmaC4R0zHpxwntYSA,4.1,"['amusement_park', 'tourist_attraction', 'point_of_interest', 'establishment']",1303.0,-7.053862000000001,107.565403
"WHJV+X8P, Jl. Ciapus, Ciapus, Kec. Banjaran, Kabupaten Bandung, Jawa Barat 40377, Indonesia",Pemancingan AW,"[{'height': 1440, 'html_attributions': ['<a href=""https://maps.google.com/maps/contrib/110227885208431388284"">A Google User</a>'], 'photo_reference': 'AUGGfZnmHGR1X3dDVKNIy4OBB_qL6MyLHg-op3Wwx4lju_8RH7cdyrtKApj0SZ0X3Jeri_HVR7MsaTNJmQ9FZtV1dHjm9bEVB2ErGaG6M5BnoGshWdCA77stMy6j0sb2Rxe9pDmyxyHeUTxf_zlXk7HMbEnQm0DUTu4mcjkgSrt4EdXM_nxu', 'width': 2560}]",ChIJk5m3f0jraC4RxAY_9hMmfIA,5.0,"['tourist_attraction', 'point_of_interest', 'establishment']",1.0,-7.0675408,107.5933251
"2J6R+9V2, Bojongsoang, Bandung Regency, West Java 40288, Indonesia",Kalapa Galau,"[{'height': 3088, 'html_attributions': ['<a href=""https://maps.google.com/maps/contrib/110360757563565922099"">A Google User</a>'], 'photo_reference': 'AUGGfZlvqJo8MDgeSGSnjQvMnzDo_Wv7gA3kVUC3BtUPAhGKgeYikajK3hfbsJcn1OKoFEl_a1ekIeiOQBBLtjBkGr-bGw0pL83jgGffruKxJkJzLgXwMRQAgd5PHz1xWYxUPaiDDSJ-0rYPFCdGX-pBkBgwKelUGoUWIOyWBoHrFpXNNE2I', 'width': 3088}]",ChIJufwGmNLpaC4RzPmH8ZV5LjM,5.0,"['tourist_attraction', 'point_of_interest', 'establishment']",4.0,-6.989122,107.642155
"2M22+V23, Jl. Lembang Kuntit, Bojongsoang, Kec. Bojongsoang, Kabupaten Bandung, Jawa Barat 40288, Indonesia",Teras Ranca Kujang,"[{'height': 1908, 'html_attributions': ['<a href=""https://maps.google.com/maps/contrib/111148298302353812710"">A Google User</a>'], 'photo_reference': 'AUGGfZmoNukw5P_IsGpboppuJYfGxlr33dOluL8uNXBE8JVDTwZTZooxoszn-O1O7l-ih8tLe1-guvFRWNM_aUHN_asanjuuvtEEJ6iunLVYCvhMJECrpL_fU35YB-SX1WkFZm6OKP3r6Jnc6oQIguNMvT3kCcHIXd34M0kbe2oYRhsnkvse', 'width': 4128}]",ChIJZ7zzvJTpaC4R7BbPyWrFzlA,5.0,"['tourist_attraction', 'point_of_interest', 'establishment']",3.0,-6.9978659,107.6500588
"2M43+FWW, Jl. Lembang Kuntit, Bojongsoang, Kec. Bojongsoang, Kabupaten Bandung, Jawa Barat 40288, Indonesia",Danau PDAM cikoneng,"[{'height': 1200, 'html_attributions': ['<a href=""https://maps.google.com/maps/contrib/115383403179913977344"">A Google User</a>'], 'photo_reference': 'AUGGfZkUm-4oIdEzmpUIii1nBoliI5be_YLjMz7iGo4F78Mlb-xsVVa_Lz_CruDILjIcR7NzTGxywpuAvhOhq6XxB17aEmmXCz-_2H6gZuQzaH4Xz9Uz-O_NYCTJ5_Kyr1d_vdhLOo4F-TjGG6BXLx_AulEZ0zGH-zpEOkHKgssqiEC4M8K0', 'width': 1600}]",ChIJh9_dRrDpaC4RuljgM2w7P_o,4.2,"['tourist_attraction', 'point_of_interest', 'establishment']",19.0,-6.9937743,107.6548372
"Tegalluar, Bojongsoang, Bandung Regency, West Java 49297, Indonesia",KAMPUNG BEDAS AGROWISATA&CAMPING GROUND,"[{'height': 3000, 'html_attributions': ['<a href=""https://maps.google.com/maps/contrib/100312865182976346080"">A Google User</a>'], 'photo_reference': 'AUGGfZkhdXK3uXETuN5q0KKDjDqr5EHIXqoO4o-w0It70s1ysHHlCneLsBn6tIaFJcDVoziOBrC9ZPd1JFJHvPHLeg80hQBWU2wtcJpeG_iMipRDnHnx7BMPdxNeYqiXyXrFM04oac6no8y2h1a_lMVrF2IOg0KCXWgxlqO0ioZhHn6skBCq', 'width': 3000}]",ChIJM89ak6vDaC4RwyzDrIZbb8Q,4.0,"['tourist_attraction', 'point_of_interest', 'establishment']",1.0,-6.987537499999999,107.7017265
"2JCP+4FM, Lengkong, Bojongsoang, Bandung Regency, West Java, Indonesia",DE CLOWNELY,,ChIJzYk2EADpaC4Rp983IHOH3ls,5.0,"['tourist_attraction', 'point_of_interest', 'establishment']",1.0,-6.9755848,107.6480817
"Jl. Cijeruk No.B7/18, Bojongsoang, Kec. Bojongsoang, Kabupaten Bandung, Jawa Barat 40288, Indonesia",Situ Krinamapalla,,ChIJZV0XQQDpaC4RRj6DEnU9LQA,0.0,"['tourist_attraction', 'point_of_interest', 'establishment']",0.0,-6.9894868,107.6445046
"kode, Jl. Ciganitri No.25 rt.01/07, Cipagalo, Kec. Bojongsoang, Kabupaten Bandung, Jawa Barat 40287, Indonesia",Galapung Ciganitri,"[{'height': 1080, 'html_attributions': ['<a href=""https://maps.google.com/maps/contrib/116358098541015976627"">Ihfan Saez suso</a>'], 'photo_reference': 'AUGGfZnY4K_49mmHytLtls9ceica77nOCPFP7cUloKnXDYPg0h_IuwCdoboe0cJfXqnybF5waq09sq_sEAdFRzIm1X1M7FjGUl0lSCfu_6GUCVV6GzA1bbhGDXLaOnHuKLxefjNPbqaBfxluuwBFcZH-FBIwNoDTfSUybln0iVR-f2nzI9TJ', 'width': 1920}]",ChIJjdL4HVnpaC4RBqh5PIOqdIE,4.6,"['tourist_attraction', 'point_of_interest', 'establishment']",14.0,-6.97197,107.6498579
"Bojongsari, Bojongsoang, Bandung Regency, West Java 40288, Indonesia",PDAM Tirta Wening,"[{'height': 2268, 'html_attributions': ['<a href=""https://maps.google.com/maps/contrib/117250999191106491305"">Tri Brotoharsono</a>'], 'photo_reference': 'AUGGfZlsYd-AMwuhw4CD4ghDWa0ylbZu_Cec2ISGblN9aSDJ2bWnD2KvEjSRsmAUKi2nQi86XOYaAbFE7kS2G2ibCu59D9zxz3gb7RUQlm2oL_E74ehRaHvApS6DjqiYubD3-EA0EzbMf5QMe5p5huFRcii1So1HuGNO_eRH8EtFrAOn62kW', 'width': 4032}]",ChIJLcNWBdHpaC4RSAN9fBcEFSY,4.7,"['tourist_attraction', 'point_of_interest', 'establishment']",32.0,-7.0027634,107.6531521
"2M33+J9C, Jl. Lembang Kuntit, Bojongsoang, Kec. Bojongsoang, Kabupaten Bandung, Jawa Barat 40288, Indonesia",Danau bentar,"[{'height': 2448, 'html_attributions': ['<a href=""https://maps.google.com/maps/contrib/117776774315063400872"">Henry Indratmoko</a>'], 'photo_reference': 'AUGGfZkzE_vID2kqhar0sw5aevgYFElMGwW5wAk4Td0cdjGIN8X21psgaK81xKBjFLnvyXljWU0_55mw4GyDJLfhPkWiePgIrqrZ9QS0bC6uo8AVhqOSRcVf420sdiuSiPO8lQBoRHTDsTQAYtyGF4c97xbkkug8hOvbHQ8OYpgUhhP17U4j', 'width': 3264}]",ChIJP_ioj8_paC4R5dqNCiKthJo,5.0,"['tourist_attraction', 'point_of_interest', 'establishment']",2.0,-6.9959437,107.6533791
"2M6X+RHH, Jl. Raya Sapan, Tegalluar, Kec. Bojongsoang, Kabupaten Bandung, Jawa Barat 40381, Indonesia",FAMILY FISHING & GARDEN,"[{'height': 2592, 'html_attributions': ['<a href=""https://maps.google.com/maps/contrib/103898642085526452580"">Walluh Siyem</a>'], 'photo_reference': 'AUGGfZlgu5FcyqW-jXOW7NBU6fwSw1CfzFF3nUPZM-V6xG2Ar1QSHmbh_Z_9w6IYh_qXcgqalNhWF3WIBjTDjK7eC04vgrMmZsIqzsGh7QCKEd-72dRPvBPqpEotA8Itinv9TQK87pxqLW-9Dn72dF32Yp19tDCUtA77pZB2BVykZLbniSc9', 'width': 1944}]",ChIJRyEeAADDaC4R2o2JEOcaTQI,5.0,"['tourist_attraction', 'point_of_interest', 'establishment']",2.0,-6.988493999999999,107.698935
"2MH3+QQ3, Blk. C3 - C4, Cipagalo, Kec. Bojongsoang, Kabupaten Bandung, Jawa Barat 40287, Indonesia",Remoyz,,ChIJlV5gNgDpaC4RsO-yJQbkm_Y,0.0,"['tourist_attraction', 'point_of_interest', 'establishment']",0.0,-6.9706172,107.6544113
"2J7V+GRH, Bojongsoang, Bandung Regency, West Java 40288, Indonesia",Situ Prajunata,,ChIJVZMPFADpaC4RJjpAgj3C-M0,0.0,"['tourist_attraction', 'point_of_interest', 'establishment']",0.0,-6.9864261,107.6450213
"2MG8+3CF, Buahbatu, Bojongsoang, Bandung Regency, West Java 40287, Indonesia",Pemancingan galapung,"[{'height': 1920, 'html_attributions': ['<a href=""https://maps.google.com/maps/contrib/110751358195802121765"">sandal sepatu bandung</a>'], 'photo_reference': 'AUGGfZnAINiXwV_nFSCCtqztmUX-qqj8Ambi0xAW1N14YVfJHxiRxA53QMvolMmz34JU4ujW9C6NO8cNR70PcYcYQJpFNlLjV2shbn28O2F7LmKSuQpitfmsUmVBHbsUuNB8W5mxcnwdKRkqWDU6O8VvsWJeAchshJPE7GTomeBUK7W0r0Y', 'width': 1080}]",ChIJ0wMpLNTpaC4RKcCzhkgm5Tw,4.7,"['tourist_attraction', 'point_of_interest', 'establishment']",6.0,-6.9748204,107.6660619
"2MC3+W4V, Lengkong, Bojongsoang, Bandung Regency, West Java 40287, Indonesia",Kolam pancing Artha Tirta,"[{'height': 952, 'html_attributions': ['<a href=""https://maps.google.com/maps/contrib/116454185144737144901"">Ivan wiratirana</a>'], 'photo_reference': 'AUGGfZmwasj5AbLdWlkzbSm2XVG9eALdBzi-PXjJzfwHsQw9fBtX2LeeXAc6tCsJuSZwqFDitAI_H8igylRUl3K77aoou4ouQ8wNa3aOiuWAjrf6H8B_H9DZJF4-16rzyLYmwYbVHhE_fhEsBzZ9UcTDM0c1dE-GNn837avJDZUiv38z0tE_', 'width': 1290}]",ChIJR1RmX_rpaC4RJDc1qvsXF60,5.0,"['tourist_attraction', 'point_of_interest', 'establishment']",3.0,-6.977814599999999,107.6526913
"2MH5+7JW, Jalan Gandasari, Cipagalo, Kec. Bojongsoang, Kabupaten Bandung, Jawa Barat 40287, Indonesia",Pemancingan mang ade gawir,"[{'height': 3968, 'html_attributions': ['<a href=""https://maps.google.com/maps/contrib/102970812010910927440"">A Google User</a>'], 'photo_reference': 'AUGGfZl9kpqUlv8grXuflDpX6PNq5ujso821usCfZqUd9KU1u7JKoVezQ6ZVoaJuooScMPqqARpQ0z6HHl7a7TN_rtKK8_EvcGBHI3EWEma1UU3A5HJ1yoS6MKPJYnnZYOY_JCIZpuqEtYSb1lpX8ZURCmFuA1B76Y8I34IpKxFjeg_Ortfs', 'width': 2976}]",ChIJ76KhTWrpaC4RFA_xLZcEZfo,5.0,"['tourist_attraction', 'point_of_interest', 'establishment']",1.0,-6.971788,107.659352
"Jl. Cijagra No.25, Bojongsoang, Kec. Bojongsoang, Kabupaten Bandung, Jawa Barat 40288, Indonesia",Situ Cideunis Tjisari,,ChIJN8FLCwDpaC4R6m6WliJJudY,0.0,"['tourist_attraction', 'point_of_interest', 'establishment']",0.0,-6.992087799999999,107.634214
"Griya bandung Asri 2 ( GBA ), Jl. Flamboyan No.5, Cipagalo, Kec. Bojongsoang, Kota Bandung, Jawa Barat 40287, Indonesia",Rumah Haidar,,ChIJS4Jbl4vpaC4RFpnrnVHQCFg,0.0,"['tourist_attraction', 'point_of_interest', 'establishment']",0.0,-6.9706265,107.6565763
"XJWW+R9J, Jl. Lembang Dua, Bojongsari, Kec. Bojongsoang, Kabupaten Bandung, Jawa Barat 40288, Indonesia",Situ Yahumanimuamua,,ChIJRwxyGQDpaC4Rw1uP2GcBScg,0.0,"['tourist_attraction', 'point_of_interest', 'establishment']",0.0,-7.0030569,107.6461817
"Jl. Batu Alam VIII No.29, Buahbatu, Kec. Bojongsoang, Kabupaten Bandung, Jawa Barat 40287, Indonesia",Pemancingan team kadal,"[{'height': 4128, 'html_attributions': ['<a href=""https://maps.google.com/maps/contrib/112126976240305152690"">intel seleron</a>'], 'photo_reference': 'AUGGfZm8T2JU_0iI6Ry86SC8N1uXnQB5oUbMO-_BLS7afc90c9ih8cFwgqeefLoEUvL-2NGNBN1ky-20XAUapiWzUz5u-iYBpK4ANkDLcZSyZVo5_VZh9hFsy1UaFTceq84VeYVPElVru1CUV9kGibckAPiaqr2WxG09cy27FEvIhypQfI8R', 'width': 3096}]",ChIJRyYTl4LDaC4R5dcQyoxW2GQ,5.0,"['tourist_attraction', 'point_of_interest', 'establishment']",2.0,-6.974472,107.671295
"2M25+5Q3, Bojongsari, Bojongsoang, Bandung Regency, West Java 40288, Indonesia",Pemancingan Mahkota Cibisoro,"[{'height': 4000, 'html_attributions': ['<a href=""https://maps.google.com/maps/contrib/106820364062012145494"">tracer Maklon</a>'], 'photo_reference': 'AUGGfZmQTlt0ed-IqA0Oj1Guycj-PxBJmeRg6yllArv35iN_0JW9JiRdRBKt_BIMM2wcghtMzXLkx9DkTsBKYqW8CbVIfpU2oxKDxnJRK7tHfF4oo4hkxf_R_Ku3AAiU6teRjpCodHRUPRV1QupdwmZhcbHT9MZn-jAR7JziOh17Xm79Exb9', 'width': 2250}]",ChIJC7MLvTTpaC4RSVVQXoU04_I,4.0,"['tourist_attraction', 'point_of_interest', 'establishment']",2.0,-6.9996066,107.6594201
"2J6V+QWG, Jl. Cijeruk, Bojongsari, Kec. Bojongsoang, Kabupaten Bandung, Jawa Barat 40288, Indonesia",Situ Bojon,,ChIJ2y-sWwDpaC4R2wYnyYCXXUY,0.0,"['tourist_attraction', 'point_of_interest', 'establishment']",0.0,-6.988054099999999,107.6448154
"WGPV+49G, Nagrak, Cangkuang, Bandung Regency, West Java 40238, Indonesia",Balong Pancing Sodong,"[{'height': 8160, 'html_attributions': ['<a href=""https://maps.google.com/maps/contrib/106445561133920522527"">A Google User</a>'], 'photo_reference': 'AUGGfZkrawr9oSOsVzPWA16HyHhFN-hQJzVVtg0RU0pPrSXAb7OusToOitxrmM_QgyXfgrL6Jhmy22veXNQdtun-6gi34w3780npkdTlMLSLF61szkprnauehg7bbj1YhLCVqEt1eWriXRo43qS9NhoCLxpZij5c_sVvvWSS-Rn6mxMcmjAl', 'width': 6120}]",ChIJsc5Cv6btaC4RdyykHywqlgE,0.0,"['tourist_attraction', 'point_of_interest', 'establishment']",0.0,-7.064727899999999,107.5429545
"Jl. Gading Tutuka Residence Blk. M3 No.16, Ciluncat, Kec. Cangkuang, Kabupaten Bandung, Jawa Barat 40238, Indonesia",Mars,,ChIJH9u4LF_taC4RFVvtDwj8y7A,0.0,"['tourist_attraction', 'point_of_interest', 'establishment']",0.0,-7.048231599999999,107.5442906
"Jatisari, Cangkuang, Bandung Regency, West Java 40238, Indonesia",LA Wangun,"[{'height': 3120, 'html_attributions': ['<a href=""https://maps.google.com/maps/contrib/105751059550190578581"">Aulia Dani</a>'], 'photo_reference': 'AUGGfZknbeepEFmgHP6SrmmqzaJ2lY-VX0wKbqCniUBSM6tV5B8PSC3ckO9v4DgJUbx0lBjZaktqY_Iu_Z4RAT1Q18ymrp8G0IwwDyez6uw4UjzOzlmV09vAH3PBcfXAaaPTBWVKU0_a8-iUcjVzeVAHPUt619t-L39vrAIZqzNEA728Rs4X', 'width': 4160}]",ChIJw-mBeALtaC4RE1kSV-HwEJw,4.3,"['tourist_attraction', 'point_of_interest', 'establishment']",188.0,-7.0745437,107.5393396
"Jl. Singkur No.15, RT.002/rw006, Jatisari, Kec. Cangkuang, Kabupaten Bandung, Jawa Barat 40238, Indonesia",WARUNG nyingkur HANTAP,"[{'height': 1080, 'html_attributions': ['<a href=""https://maps.google.com/maps/contrib/100348287156959790046"">A Google User</a>'], 'photo_reference': 'AUGGfZn3JkhSpohR0jruBlF1PEBOrkcAcdKpKlckgF3Z-vsh0aHYPW2r7kW77P6hkoVfH_YcTumdFUtu_Tmonc2950BcT3geo76YG83cw6ZCry0GnfwS4kLQjoCyDyKej6motJNhYg4sNzst1q1ftMlhkV5DL8M0dcFqywzJRmOs8wE1RlaU', 'width': 1920}]",ChIJNcykoYntaC4R0PN-bXJ2Y5s,3.0,"['tourist_attraction', 'point_of_interest', 'establishment']",2.0,-7.0621792,107.5551529
"WGRR+XMQ, Nagrak, Cangkuang, Bandung Regency, West Java 40238, Indonesia",Desa wisata Saribumi,,ChIJ3dHEN17taC4R8zjenk-CV_c,0.0,"['tourist_attraction', 'point_of_interest', 'establishment']",0.0,-7.0575467,107.5417386
"WHM2+9HM, Kp. Salamanjah, RT.02/RW.01, Jatisari, Kec. Cangkuang, Kabupaten Bandung, Jawa Barat, Indonesia",Imah si dayat,,ChIJa03KmQHtaC4Rh7ISrha3hmI,0.0,"['tourist_attraction', 'point_of_interest', 'establishment']",0.0,-7.066542,107.5514325
"Cisalak No.01, Jatisari, Kec. Cangkuang, Kabupaten Bandung, Jawa Barat 40238, Indonesia",Desa Wisata Jatisari Masagi,"[{'height': 1600, 'html_attributions': ['<a href=""https://maps.google.com/maps/contrib/106905960271647872034"">A Google User</a>'], 'photo_reference': 'AUGGfZmn0ouX7AVMlcgzltmrnLe9mZVFqt9ChhrfvUMqol6XceCCUGLmlkOXHhpbC8Hz3o97kOVtCG6r3Kbha3xm5f0CRodCTX3xIM12rqtlyfRpkFqDsKOLwKRTiQyN6tdcIhWQu1FgmNLAY5rHP20cnv7GYvbIP8hgekEvcuOD7G8W9lFu', 'width': 1204}]",ChIJ7zt897TtaC4RlcYbwAdEYEg,0.0,"['tourist_attraction', 'point_of_interest', 'establishment']",0.0,-7.067403799999999,107.5470479
"WHP4+99F, Jl. Singkur, Jatisari, Kec. Cangkuang, Kabupaten Bandung, Jawa Barat 40238, Indonesia",HANTAP SAWARGI,"[{'height': 1872, 'html_attributions': ['<a href=""https://maps.google.com/maps/contrib/103800092528111361830"">A Google User</a>'], 'photo_reference': 'AUGGfZnkmWB-iWVWovNss_5RYUSkjOUSy5NYgo-OLn0iu5tNSKeRI7UhgnOfLMWbAAuHReiPdkQ_SgUfhD0ztzW5yxtBq_x1Uvc3wjp0CRmfd4zmRFI2MaQpjn96xpfrH2ejZu5DSYMNzGfgAAWTPXLYZE3MnCG9w2I_HSv0QWE5DR4KsZ34', 'width': 4160}]",ChIJr7uhzU3taC4RE-_7tEMFi5g,4.3,"['tourist_attraction', 'point_of_interest', 'establishment']",19.0,-7.0640611,107.5559354
"Jl, Nagrak, Kec. Cangkuang, Kabupaten Bandung, Jawa Barat, Indonesia",Kebun Infanteri,"[{'height': 2296, 'html_attributions': ['<a href=""https://maps.google.com/maps/contrib/116180978249665741859"">A Google User</a>'], 'photo_reference': 'AUGGfZmC9kgmtBB2O6VuwqMdFKSz74XXxq4fXipYsxWaSqV0wL3wjmR4RlttgY2kMGN2LOmOFejbBnMXsz4m6-Wj7kqlNBAVe80E_gEXacr8ko_YymWY72aq8IQ_9HSwffhtqd4pXBMOJ6C4K7EQ_dsG7TFlLrMPD-PtMLounto451tgbLbu', 'width': 4080}]",ChIJ9a7OZN7taC4RY-xyr8eC9vQ,5.0,"['tourist_attraction', 'point_of_interest', 'establishment']",2.0,-7.066965499999999,107.5295192
"Kp ciletik RW 10 RT 05, Pananjung, Kec. Cangkuang, Indonesia",Curug ciletik,,ChIJ68dwsG7taC4R5qaAQP8VFV4,0.0,"['tourist_attraction', 'point_of_interest', 'establishment']",0.0,-7.051195799999999,107.5283263
"WGHP+PWH, Nagrak, Cangkuang, Bandung Regency, West Java, Indonesia",OKEMDUA GTT SOREANG,"[{'height': 3840, 'html_attributions': ['<a href=""https://maps.google.com/maps/contrib/115623427489842332836"">A Google User</a>'], 'photo_reference': 'AUGGfZnKQlTawUjPWwPKV8hw6ZJzAAc0ZmSfEzq7Opf37sJxR8aaA106lGuOOcR2mqDkpnFXIyVc6Yh6z7t37T14Kya-BMNAngLA-GbWGB3o01xhBG9bU7vfgQEmlo-_cl5KReR_XAFyYK8jb_POpZbZIexhWZaIfU9PQVpfUvEsgKsOFYtR', 'width': 2160}]",ChIJdS8R8jftaC4RvynpN_srycU,5.0,"['tourist_attraction', 'point_of_interest', 'establishment']",2.0,-7.0706875,107.5373125
"Cisalak, Jatisari, Kec. Cangkuang, Kabupaten Bandung, Jawa Barat 40238, Indonesia",Bukit panyaungan,"[{'height': 2084, 'html_attributions': ['<a href=""https://maps.google.com/maps/contrib/112270634554584927333"">erpi suwandi</a>'], 'photo_reference': 'AUGGfZl1LwVQf_wb_CPDHRIB0cCBFbnDNdGonsojBlgqO7387wkGhAJ93ge4W4dLPrzxeuR1czenZ_DsrSQGlx6Y8ssQ2c8O2M5LsKBB1nTu0uBWa1evILkjx4MPSL0MbciEVxlZ8XXoVtaWIFDQrVCsY9G05U35ubRrxYCSSCUjTXAKGL3z', 'width': 4624}]",ChIJHxBLHW_taC4RkG720VqNzfQ,4.7,"['tourist_attraction', 'point_of_interest', 'establishment']",15.0,-7.070437,107.537575
"WGWW+XH5, Nagrak, Cangkuang, Bandung Regency, West Java 40238, Indonesia",Kebun Anggur Parahyangan,"[{'height': 699, 'html_attributions': ['<a href=""https://maps.google.com/maps/contrib/106509652954119435801"">A Google User</a>'], 'photo_reference': 'AUGGfZlqc4pcic0uluL-m_6HEo7JJB0Ili2XltKZWcHN1LA10HDi8XCW-w-Q8Bg163Ge8VqSs1ajjNL9CzHcWs_p6bhAz2irSjyLf5oplHLBXxA8iqErxhaTYN3yeNSkqzbRUUEYMKwPbUxyH2ntsB3ryAo3Y4hakMg4asmK-lmzzhHoDoBD', 'width': 1242}]",ChIJcVCisEvtaC4Rqndc0YroYk0,5.0,"['tourist_attraction', 'point_of_interest', 'establishment']",13.0,-7.0525616,107.5462596
"Jl. Terusan Al Fathu No.9, Sarilamping, Soreang, Kec. Soreang, Kabupaten Bandung, Jawa Barat 40911, Indonesia",Caringin Peundeuy,"[{'height': 4160, 'html_attributions': ['<a href=""https://maps.google.com/maps/contrib/113478799798385717460"">Randy Experience</a>'], 'photo_reference': 'AUGGfZmik3Y8bjSJ0TRzlebeK7ipnQEd52JTjlWI94JNZdGs4SxstXTw1dfrMdeHLLc50DF1f4KmSBWqpJ7MZh5fHI8ik6XmMPDyG9D3wlAoEvNnYnWnDBHsDv1soQ-tGehtHk3PzqkPinWGeJvLMjWtC1bdxNSHZH2szYwaEfntBy2LoOh3', 'width': 2352}]",ChIJB0TkSxDtaC4Rbokso2eyT5g,0.0,"['tourist_attraction', 'point_of_interest', 'establishment']",0.0,-7.0328293,107.5286912
"WGPF+95G, Sindang Sari Puncak Jaya No.14, Pananjung, Kec. Cangkuang, Kabupaten Bandung, Jawa Barat 40238, Indonesia",Villa puncak jaya,"[{'height': 1844, 'html_attributions': ['<a href=""https://maps.google.com/maps/contrib/114456172121006743016"">Ira Siti Rahayu</a>'], 'photo_reference': 'AUGGfZk2KsscRDN29JGRyAd2VUfyOLSOVZZF9uuraS6Ec466cpA-QkMND-rKMPs8KU_Js37TRSpGWYe8rUw01nghkshG2P21BSSTC_M4ZASM0T8CUrEDeRHaRS4VomKn2kAkyUeWlmFj1ToS3WkObf53CGIBq8_OzBbU8-znEcoVW1lqaoAp', 'width': 4000}]",ChIJwQtpGvztaC4RdMcKhaZ1TCY,4.8,"['tourist_attraction', 'point_of_interest', 'establishment']",8.0,-7.063661499999999,107.5225456
"Babakan cianjur rt 02 re 03 malasari, Jagabaya, Kec. Cimaung, Kabupaten Bandung, Indonesia",Jembatan jaga baya cangkuang,"[{'height': 3376, 'html_attributions': ['<a href=""https://maps.google.com/maps/contrib/104098780247065314024"">A Google User</a>'], 'photo_reference': 'AUGGfZmku2lTWS8g0BSg6jNoQWlE0Axt7zWe5Soe_T6sI7AJydnNxpCXI6QHZQVXrjTZ-Ug9AxP77yheGAVdVlA07wO3cTZIO0J97A1ATIRI5Um761H3Sl0xShLALRimIcEcmLIlu_KQgrGVE4EggG3_q4CYIL8EimkW31NBjanV8x8X2ZUv', 'width': 6000}]",ChIJHTFFWgDtaC4RlnS_TtpiSJk,5.0,"['tourist_attraction', 'point_of_interest', 'establishment']",2.0,-7.078404,107.5483019
"Jl. Murai 8 no.1 Komp. BPK Blok A14 Rt 03 RW 13, Ds. Nagrak Kec. Cangkuang, Kec. Soreang, Kabupaten Bandung, Indonesia",Galeri Seni Rumah Aldo,"[{'height': 3024, 'html_attributions': ['<a href=""https://maps.google.com/maps/contrib/109655930233290280918"">A Google User</a>'], 'photo_reference': 'AUGGfZkEkZNzPnb1OIB7OzQ5cMWVgUuex4W-bpIzF6LoUHivyBRnoxxIFORtYCLlpQjKLZjRAo4MQMgmSTuDIR1FYJzLnreZEKK15kWx3HtvczpULc_1Shk-4ScPNMtAcnVtTCcaD1pWjlJfIvuhl72U-EQJKIM7HfpEQOK1ALlmAGJgW0Sj', 'width': 4032}]",ChIJRZmsVTntaC4RJH3--G-OJCg,4.4,"['tourist_attraction', 'point_of_interest', 'establishment']",7.0,-7.0613331,107.5417462
"WHP4+65Q, Kp, Jl. Singkur, Jatisari, Kec. Cangkuang, Kabupaten Bandung, Jawa Barat 40238, Indonesia",SAUNG ABAH HANTAP,"[{'height': 540, 'html_attributions': ['<a href=""https://maps.google.com/maps/contrib/114030208899778405835"">A Google User</a>'], 'photo_reference': 'AUGGfZnRdUUjEa-NeT0w3pEjeJFQ_nJoczwEXKmTUGUaijUxKfZIob7o9fevQkhN8hJVyjRCvW9Qvq0xQ1sC-uB9vTh1-dFCOI6v61peC6Fy34D8ScWrvDNbAXPESsvGgRpcAM_8VZdEVoxMszJwhZpkp9NLNn4QfmOokaGmR04JBhCo6zAr', 'width': 720}]",ChIJIQub36XtaC4RB5aX45lE31I,5.0,"['tourist_attraction', 'point_of_interest', 'establishment']",4.0,-7.0644206,107.5554876
"XGFG+W97, Soreang, Bandung Regency, West Java, Indonesia",wahana wisata victory,,ChIJ0YmbVQDtaC4R4tg569DAgM4,0.0,"['tourist_attraction', 'point_of_interest', 'establishment']",0.0,-7.0252104,107.5258851
"WGFX+J99, Cangkuang Cikalong, Malasari, Kec. Cimaung, Kabupaten Bandung, Jawa Barat 40374, Indonesia",HAZA Farm & House,"[{'height': 4624, 'html_attributions': ['<a href=""https://maps.google.com/maps/contrib/108194060070279781555"">Asep Kayudin</a>'], 'photo_reference': 'AUGGfZnluiFuhY2mEebZ_qd4edhXTDNcHOCnjc0HUiMgOxL3LVkGpO4KaAn8I0vXvEtB5pJJqDV8z8Pl3p_kYv4xjceQguL62o4s6eL18jz7DyE3g4yk9GQp4QUr5ydKZ6PSbcTt_rvLgg9iruGDer0TugMKzJcYmcV8zHJKUeMpoVmzTbwG', 'width': 3472}]",ChIJs_98CQDtaC4RZ8GPMcwFo5o,5.0,"['tourist_attraction', 'point_of_interest', 'establishment']",1.0,-7.075917899999999,107.5484618
"XGMX+72V, Jl. Raya Soreang Kopo, Cingcin, Kec. Katapang, Kabupaten Bandung, Jawa Barat 40921, Indonesia",Tugu Strawberry,"[{'height': 1500, 'html_attributions': ['<a href=""https://maps.google.com/maps/contrib/113624376440512494237"">Angga Lesmana</a>'], 'photo_reference': 'AUGGfZmWWnKgWFva1WvuLoGPu_zYl-pGpqWxbWiNdbo4CoTE47UXtjXnyGgRUKc5iKpdgYVbGlX9RlLMl1fXvA8PSd8Pg2dfzDe4V45sEZFmHfKKBpNt17kr6olIQTG4fnJBshACW2mT7S-vRtwLlqM32YVJ8yEM-SNmsziSaIvNgxidam4', 'width': 2666}]",ChIJHUsTYZ_uaC4RFs7jhiDB5kk,4.5,"['tourist_attraction', 'point_of_interest', 'establishment']",1484.0,-7.016764999999999,107.5475516
"Cijengkol Selarwi, Sadu, Kec. Soreang, Kabupaten Bandung, Jawa Barat 40913, Indonesia",Love Soreang Park,"[{'height': 2304, 'html_attributions': ['<a href=""https://maps.google.com/maps/contrib/113262651368433199637"">fery xtrada 6</a>'], 'photo_reference': 'AUGGfZk2sveyglJxn_bsUkJaFNu3eDpbN-5iMleVCBnCF8ORrGZy2C9Hu0xZzL9V5DIZZsxKFRzmUxj1qzV08JV2mue_T-s9xXRHWQ3HafX0bty6ZENYmeXC898-d2cVnrmC5Pi1GHOviSzj9PkPHBQQU2HwSjlemRK9Dmx3sm-hedvUPVii', 'width': 4608}]",ChIJBUW2Wr3taC4RHSWxQw75mmM,4.1,"['restaurant', 'tourist_attraction', 'cafe', 'food', 'point_of_interest', 'establishment']",3581.0,-7.0449031,107.5039119
"Cukang Genteng No.1, Cukanggenteng, Kec. Pasirjambu, Kabupaten Bandung, Jawa Barat 40972, Indonesia",Driam Riverside-Wisata Alam,"[{'height': 2250, 'html_attributions': ['<a href=""https://maps.google.com/maps/contrib/111960611120786631630"">111960611120786631630</a>'], 'photo_reference': 'AUGGfZnyQbHIVWaL0ARp1uIa20Et8uo-ZyIh3g15URDSPEP5K-3xp3CH0u_YqctPyKUHEX5JIVnkUcTIdWsFhIz7f67q2QGpk-o4VWdk-L_HWNmCTxzpa3tTK5B7rrnQZsVSi-qoGNV7Oj3w-ppL5N0_EW9Bq1To-KScgiLl0z3V1ha694Yq', 'width': 4000}]",ChIJG8JQuYrtaC4Rm8gKotWJPPU,4.5,"['tourist_attraction', 'point_of_interest', 'establishment']",165.0,-7.067855700000001,107.4906257
"XG5H+FC9, Kampung Legok Jeunjing Desa Panyirapan, Jl. Terusan Cibako, Panyirapan, Kec. Soreang, Kabupaten Bandung, Jawa Barat 40915, Indonesia",Pesona Nirwana Waterpark,"[{'height': 768, 'html_attributions': ['<a href=""https://maps.google.com/maps/contrib/116944669258474210618"">Sabrina Tono</a>'], 'photo_reference': 'AUGGfZlIzRt-RbzXZQxNU3cpPXkrTCc5FxKC-ZvLS5TQrN1fReDJKCGYp2p6ap-uD_wgNkgnxwYBkFY7zGfkWIvKJCB0gB8rX_RScpVydY-asX5-mTXS9Y8Aft5JSRvB_dm6Sr2ZzwUypuxY3zdfdULdWlKZnU3eqMQ6hWgZjH0LWqtWaZa9', 'width': 1280}]",ChIJ_xWz4FHsaC4RcSL8vAov3L0,4.2,"['tourist_attraction', 'amusement_park', 'point_of_interest', 'establishment']",2149.0,-7.040915399999999,107.5269156
"XG9G+GXG, Jl. Al-Fathu, Panyirapan, Kec. Soreang, Kabupaten Bandung, Jawa Barat 40911, Indonesia",Lapang perkutut Soreang,"[{'height': 2448, 'html_attributions': ['<a href=""https://maps.google.com/maps/contrib/108243630917367003451"">A Google User</a>'], 'photo_reference': 'AUGGfZmcaJz5B0pECxrf_2QF9NvIQpsMU1tMQFThfNj59NMkuxhDiGVFSQkAT4jv7X2C2rjXU-ljh0VIJvIj6knUX0x54ijmZs5A0CwGAcgZpMGmsqo6eXiRw7vC7dcMgepqr1OWcBdCqwxYsn7Zn_KuX-7Kw44RR-Kv5mlwQpBhZznFF3tW', 'width': 3264}]",ChIJg5afVxvtaC4RT0SAM_nbLzk,4.8,"['tourist_attraction', 'point_of_interest', 'establishment']",4.0,-7.0311875,107.5274654
"Kp cogreg, Malasari, Kec. Cimaung, Kabupaten Bandung, Jawa Barat 40377, Indonesia",Gazebo agro wisata pisang,"[{'height': 3120, 'html_attributions': ['<a href=""https://maps.google.com/maps/contrib/106984057441417534715"">Hadi Firman</a>'], 'photo_reference': 'AUGGfZlUym1ZzjejXy03stEJdh1RPes3tUxJO2rTIVKhhhz9hXIkWZfsod6ObgyyfFNyr7zCrR8J9eKWCpFWVW9r52REbl1ogA7bHNG35S3LXNEW6E58LTxOFSBCT47Wlsi8HVW217OAWWYs7CqkqlTmMZ1H0O5kfHuDQV4arb7mb6mY5BhP', 'width': 4160}]",ChIJAxUVVRHtaC4RmQrDh_KQca4,5.0,"['tourist_attraction', 'point_of_interest', 'establishment']",9.0,-7.084859,107.5427438
"Kampung Ciburuy, Sukamaju, Kec. Cimaung, Kabupaten Bandung, Jawa Barat 40374, Indonesia",Camping ground Om dal,"[{'height': 3120, 'html_attributions': ['<a href=""https://maps.google.com/maps/contrib/102235342558297313486"">A Google User</a>'], 'photo_reference': 'AUGGfZn4GAjobmmu2kY1tUeHfWKrelZEXxtovjhM82YSprvehj-m8XCHsCNh9ZBRlUlHyTWGhUIAn_cK-8Eq8Kqqy9_9xPkeO2q1_HEfrnM6QmqpqY0Pgjg30giCLGLIJ7-YrvYs_AQc0YwtXmHUDwVqxL9b4vbVCCjxCfDqskLi6ORJrzU', 'width': 4208}]",ChIJa3u16g7taC4R5ye1NLqmB4g,5.0,"['tourist_attraction', 'point_of_interest', 'establishment']",7.0,-7.086850699999999,107.5630511
"2FGJ+7MH, Dengkeng, Kidangpananjung, Cililin, West Bandung Regency, West Java 40562, Indonesia",Wisata Pinus Pananjung,"[{'height': 2250, 'html_attributions': ['<a href=""https://maps.google.com/maps/contrib/103780459843422506685"">A Google User</a>'], 'photo_reference': 'AUGGfZnPOYutC1TVbPRm7G44_RBuGfikJStFGLlTac0FM_KroRRkZmau7deZnKYD0GR0ByeSG7XvbP4oj6L4oX8u2iOe0eTW4dUXQ6tmJ3jqA3P9v8fyQLD-2HqGwzcrdUwKarXG1Hj3W1jVnRslPkZ9EbW0qYXyQUH_W-NigYRYjwYy9lb3', 'width': 4000}]",ChIJf1yq0iruaC4RiOdG1gntoOU,4.4,"['tourist_attraction', 'point_of_interest', 'establishment']",166.0,-6.9743149,107.4817428
"Cilame, Kutawaringin, Bandung Regency, West Java 40911, Indonesia",Andes Campground,"[{'height': 4000, 'html_attributions': ['<a href=""https://maps.google.com/maps/contrib/106835976427648493082"">Chaerry Kyu</a>'], 'photo_reference': 'AUGGfZlKtV52C0d3e2URJeDtI_MIGHnFO6KYy147uQVXFxj3eHsIpOetIyeEw3SwuP5JCg3gaxZ5Ap2RhM4LZpfrf4Q-NNVZxt-vrLHJsFm_e-WRjj-l02oQpO-oLXmx9juaG5zHY17kDqnCoO09hav70Ct3V1ZbmYf4kBq6gkP2b_N1F54z', 'width': 2250}]",ChIJyUvX2fTtaC4R2kF5hTfBlE4,4.4,"['tourist_attraction', 'point_of_interest', 'establishment']",262.0,-7.0355123,107.4827031
"Jl PPTK Jl. Gambung, Cibodas, Kec. Pasirjambu, Kabupaten Bandung, Jawa Barat 14972, Indonesia",Palalangon Park,"[{'height': 3000, 'html_attributions': ['<a href=""https://maps.google.com/maps/contrib/117557710521867052649"">Slay Malakian</a>'], 'photo_reference': 'AUGGfZnmiGmKfOEcdWilQnYo0pfW-DNZmbOcUotda2Z9D2twenl33NSIHeiHCWH_GChmM5aUw2HqVsfXv29F7Nmj0Xb54r0aB5kyKbrCZetSeVbqv-W1PFvK_O5L7gJ2fBlta-bZUdQC44WqDB9YclvFBoM12QNsAOZj7Hr5RLrLUCqu-bxW', 'width': 4000}]",ChIJ0yTCHpCTaC4RTuG34A2lAxI,4.4,"['tourist_attraction', 'point_of_interest', 'establishment']",1578.0,-7.1107269,107.495585
"2HGQ+XWM, 2HGQ+XWMCangkuang, KulonKec, Kec. Dayeuhkolot, Kabupaten Bandung, Jawa Barat, Indonesia",Wisata Pertigaan Cibaduyut Sukamenak,,ChIJhzqoJgDpaC4RqfvgAc-spaE,5.0,"['tourist_attraction', 'point_of_interest', 'establishment']",1.0,-6.9724948,107.5898094
"Jl. Camp Ranca Upas, Patengan, Kec. Rancabali, Kabupaten Bandung, Jawa Barat 40973, Indonesia",Ranca Upas Ciwidey,"[{'height': 2456, 'html_attributions': ['<a href=""https://maps.google.com/maps/contrib/113627008247865492426"">budhi darma</a>'], 'photo_reference': 'AUGGfZlAt-Bc2lHpm9lCwVDvoc83_NG7Z-IDWnwrR98LStnzH8x2S16hSCKhXdqsev9zRQS84xLhFBlqj-JfFhQK4N7eyrZuz71gN4-DkwZrqY_W2ecbD9ms9DvuynoQ2FKMALsMjCR7wnvvNJWhG0Q1jqsqAiJEbcgy2r7BbL41ajki4bMB', 'width': 3680}]",ChIJsd2qQbGNaC4Rrz24GOGYKGw,4.7,"['tourist_attraction', 'campground', 'lodging', 'park', 'point_of_interest', 'establishment']",1217.0,-7.138488799999999,107.3917416
"XG43+4WC, Unnamed Road, Karamatmulya, Kec. Soreang, Kabupaten Bandung, Jawa Barat 40914, Indonesia",Taman cinta ( love ),"[{'height': 1080, 'html_attributions': ['<a href=""https://maps.google.com/maps/contrib/110131808258124109127"">Arnold fus</a>'], 'photo_reference': 'AUGGfZlagTsinA35iaXsV3u_pt5Fy8BHj4NasBZabsZKtgsrdserUKi7SNJCNaREPdquujMBS6rg98aw5ss0yoKkWphY1nFjt9W7oMatwPU70Too1nEE57fmhfiGIHuUnDHcMl96zUHnpmg9YY3HEcR0OLclbfIqjiqVMfFBjnfokwMkb8dL', 'width': 1920}]",ChIJPVH-r-vtaC4RxgqjlWGm-ts,3.8,"['tourist_attraction', 'point_of_interest', 'establishment']",9.0,-7.044656799999999,107.5047689
"XGGR+WXW, Cingcin, Soreang, Bandung Regency, West Java 40921, Indonesia",DENA Farm Soreang,"[{'height': 720, 'html_attributions': ['<a href=""https://maps.google.com/maps/contrib/107050747177008054717"">A Google User</a>'], 'photo_reference': 'AUGGfZn-pb37fi7eFzozOF4EADu6tzlNVM89cfC9FMz1agkuWqQthLbAYKmBP5b7uOfy9rt7l4X6vEaJolzMqoZRnwO12GHN9Zx6JzYUlj8Q-I9W6uZGs0R6ZgAx36OLCpK1aycjFaBjNy6OBLaYhFQngAnNttqQgqHvX9TyVHmVbtk423W5', 'width': 1280}]",ChIJe_sLYt3taC4RoVOiatqdXEs,0.0,"['tourist_attraction', 'point_of_interest', 'establishment']",0.0,-7.0225341,107.542457
"XHH8+3MG, Bojongkunci, Pameungpeuk, Bandung Regency, West Java 40376, Indonesia",Jembatan cinta,"[{'height': 1920, 'html_attributions': ['<a href=""https://maps.google.com/maps/contrib/115418964833279037272"">A Google User</a>'], 'photo_reference': 'AUGGfZmx8VspM14AhemStZ1IcFwdO4xollVUFyGh-foJ95AByP0he7VE7h48uXc8KBdCPkZT-9z0TomfsoZXKvtYR1vupdT2c6yOoM_xsonXaMEDBv2p1CcWr9_EsJrzbyi6M-8v0FmN0atYZFoHpeJy9jBiW4adXFkIG4jM_N3AFg6HEjL6', 'width': 1080}]",ChIJwwA-PsTtaC4R5gnFreGX59g,4.8,"['tourist_attraction', 'point_of_interest', 'establishment']",8.0,-7.0223185,107.5667169
"XG88+25Q, Jl. Lkr. Baru, Karamatmulya, Kec. Soreang, Kabupaten Bandung, Jawa Barat, Indonesia",Waterboom Ciputih Park,"[{'height': 1920, 'html_attributions': ['<a href=""https://maps.google.com/maps/contrib/108405212228101841677"">Didin Makmuridin</a>'], 'photo_reference': 'AUGGfZme9TKS2X6DPDqX8N5LWr4w3qPeSJtZANXzPIMc5REHJLXP3fB1QNRgUcwgKg4Ck32HrEtHzWUkL6BZjZEIUDS-UGeR1TycryC4ARXVx9Rpl4d7OxNJktjE2zdPAWpPPF-3NKSomCSmvrC7lX-laUMygEvdVCr23d2y-ifCl2gsnIQk', 'width': 1080}]",ChIJI8Ej-5HtaC4Rnah1wpe3USQ,0.0,"['tourist_attraction', 'point_of_interest', 'establishment']",0.0,-7.0349186,107.5154797
"XHM7+C8W, Bojongkunci, Pameungpeuk, Bandung Regency, West Java 40376, Indonesia",BALE USAHA BERSAMA RAGA MULYA BAROKAH,"[{'height': 1836, 'html_attributions': ['<a href=""https://maps.google.com/maps/contrib/101060679773560864703"">ilyas dzulkifli</a>'], 'photo_reference': 'AUGGfZly1oGajSrGAedN9lIPgn_7yO7Vcs8R_yCoWq1zq0xmNQfWrW0ElpGU0mSJiRQ-WcGXRhoqovR578Yaj5fRFowWqqd0wP0bIRjD-jvt3eMHWF3rsoO1geP-SWPYzJZPr2e1mRGNxTnqiWR5KVh1ivKi3Uy39R5HuckeNWd6GmqJN3ee', 'width': 3264}]",ChIJ_V5ccdvtaC4RKWh890HWYEM,5.0,"['tourist_attraction', 'point_of_interest', 'establishment']",1.0,-7.0163875,107.5633281
"Pasir Lanjung No.111, Jagabaya, Kec. Cimaung, Kabupaten Bandung, Jawa Barat 40374, Indonesia",Pemancingan Jagabaya,"[{'height': 4000, 'html_attributions': ['<a href=""https://maps.google.com/maps/contrib/103587143750809537375"">A Google User</a>'], 'photo_reference': 'AUGGfZkJbou0GuSpc83O6pC2PcqklgPL3B2nhh9f0DXSC2qycmUjpMEutLoilCVQW4wGukAvLF_oqoGKsZUxN07ylKkvd8OHdbFCuI5RGrtghZFECgIck3zpWwQwDzTEkVKN8cTihq6v5-hcl3d8l2EfPIRHkRJn75M1pNUpY4ybuhwFli-W', 'width': 3000}]",ChIJO_M2zVftaC4RVcbkQQbsT80,5.0,"['tourist_attraction', 'point_of_interest', 'establishment']",4.0,-7.0740536,107.5656079
"Jl. Raya Pangalengan No.Km. 22, Jagabaya, Kec. Cimaung, Kabupaten Bandung, Jawa Barat 40374, Indonesia",Pamidangan cimenteng indah,"[{'height': 3000, 'html_attributions': ['<a href=""https://maps.google.com/maps/contrib/118298512812395767146"">hadi nurhadi</a>'], 'photo_reference': 'AUGGfZk6b9mIzG5kESVRecsYCMeJuUqCnm1OlEbYrLROqWYfQauuHF3rKFmL18-b3Ygpqn8LhZZvj265idZ7bo7be3fbt7drMdwpdwR7e6w7cQt3U8-Zjq8c7xmejVGkbt_2S-wUlPR8OgLuLU1Y55oZki8RW6U2uYUNLSdG5vpib58bzwhc', 'width': 4000}]",ChIJ0US_64TtaC4RZAj_Wp9MqCY,4.9,"['tourist_attraction', 'point_of_interest', 'establishment']",8.0,-7.0732754,107.5628046
"Kp. garduh, Jagabaya, Kec. Cimaung, Kabupaten Bandung, Jawa Barat 40374, Indonesia",Bule Borokok,,ChIJ_doJCfrtaC4RvwxPOhzCpec,0.0,"['tourist_attraction', 'point_of_interest', 'establishment']",0.0,-7.0713178,107.564433
"Jl. Raya Pangalengan, Jagabaya, Kec. Cimaung, Kabupaten Bandung, Jawa Barat 40374, Indonesia",LEGOK LEWANG,"[{'height': 764, 'html_attributions': ['<a href=""https://maps.google.com/maps/contrib/110977519778426262673"">A Google User</a>'], 'photo_reference': 'AUGGfZmXscpLOG0Q5iypNhYyTEKZIrWYIpf8ToZPcGSbAJk8UXLfa4YEzCyQNUExFYJUyXLzIUK-gmTLkKmk7bBO1zKk7QZ_OrmCKufmMbqp9oIKwwN65PQDjhViiJa4Qtpvxu5imoGfz9fnU2kuUhOpKsVJwb1adloapHy64yp3Xo1UJejM', 'width': 1080}]",ChIJ8XiPwLDtaC4RD23f6QJrPhY,4.3,"['tourist_attraction', 'point_of_interest', 'establishment']",24.0,-7.081582099999999,107.5629427
"2G27+PWW, Bojong Laja, RT./RW:/RW.02/17, Kutawaringin, Kec. Kutawaringin, Kabupaten Bandung, Jawa Barat 40951, Indonesia",kutawaringinhade,"[{'height': 2610, 'html_attributions': ['<a href=""https://maps.google.com/maps/contrib/107384780456855283965"">edu</a>'], 'photo_reference': 'AUGGfZkxqsJMV3EvmIJbX2IjxDUQ3f88UrPPr9fXVKR3GEhRF-v6eVQxTrjtJdIaK0gchsZnaxkQZ4e8j6Y_J3h_Ofqrw85FQ2r30SAcnxPQbzJ4KncRjuMnGRjvXu1z0_orDrFF1rkMVedeh0VGe2nVRIHMmI69dQvmb7_qNzeGdclFSP7P', 'width': 4640}]",ChIJ9XVo3OjlaC4RwtTkJ6obXdA,5.0,"['tourist_attraction', 'point_of_interest', 'establishment']",6.0,-6.9981369,107.5148207
"WG6R+QM2, Tjogreg 1817, Malasari, Kec. Cimaung, Kabupaten Bandung, Jawa Barat, Indonesia",LEMBAH KOETA SVII,,ChIJk5byFc3taC4R1O6q-WUoMHU,0.0,"['tourist_attraction', 'point_of_interest', 'establishment']",0.0,-7.0881123,107.5416395
"XHQC+2QP, Sukamukti, Katapang, Bandung Regency, West Java, Indonesia",PEMANCINGAN RW13,"[{'height': 2340, 'html_attributions': ['<a href=""https://maps.google.com/maps/contrib/100668024194084396300"">Tata Sumarna</a>'], 'photo_reference': 'AUGGfZnUv0_wNq9hXdn-BF48xzUahyGhqZ5I_uUt2iEZTEYlj5B3SBzu-NGmxgWtu7165dRsYH9L_2lO2ZXk766wCeUzpvhWyO-sDXZiScOKz8yMBMDrcKW6oQ1zOuP6CId9hGVpBQRlH0aGhTXT3LZZLaMs_3ht1Hzz5DARGLXQhoRevXpL', 'width': 4160}]",ChIJ_4bUXADtaC4RDN71R_fcxeo,0.0,"['tourist_attraction', 'point_of_interest', 'establishment']",0.0,-7.0124189,107.5719516
"WH9C+XJX, Jl. Pasir Panjang, Jagabaya, Kec. Cimaung, Kabupaten Bandung, Jawa Barat 40374, Indonesia",sungai kenangan,,ChIJ1Rw79OrtaC4RmiITbAloWyc,0.0,"['tourist_attraction', 'point_of_interest', 'establishment']",0.0,-7.0798716,107.5722526
"Lamajang, Pangalengan, Bandung Regency, West Java 40378, Indonesia",Rumah Adat Cikondang,"[{'height': 2160, 'html_attributions': ['<a href=""https://maps.google.com/maps/contrib/101680599814545378198"">Fans Game</a>'], 'photo_reference': 'AUGGfZm9LLeIHAXPACBKMQxtg9HfgPdt4nUuquG7EWvDc3BBxciVWuE5EZVlcXHJg-BJpGd7yOjqXdHa97cwK8h9dIaPZB5iB9UiwiRCSGXSGiRbWQTg8p7vlBGcAx6EDJ14JZ6n6Gp26neZyUw-r3261mALuTjU3AC3MBBE8kDmt7cofKpH', 'width': 3840}]",ChIJY5zKz3KTaC4RMRJI3ToxmOc,4.4,"['tourist_attraction', 'point_of_interest', 'establishment']",653.0,-7.128345599999999,107.5510779
"WG6R+QM2, Kampung Babakan Cianjur, RT.2 rw3, Malasari, Cimaung, Bandung Regency, West Java, Indonesia",Jembatan jagabaya cimaung,"[{'height': 1970, 'html_attributions': ['<a href=""https://maps.google.com/maps/contrib/105534960382144095173"">Muhidi Atmajaya</a>'], 'photo_reference': 'AUGGfZl0wPbdOhkJTpCNLcqIRv8I2P0ZoAb3uvrX3cTJrwIvwAAiQvONGUY6KeCTrwWXI8LlSLQvPBnoQQUusmma9JiXtqaLO045ypliERyED2vNnyxWcpnNMY0REkFg7yghpcFM2ITps6RYwGXyKNglBVLf_PKqZsXOaH6HfAvLuzXxridY', 'width': 4160}]",ChIJAUduAgDtaC4RbLpFHKfGk4o,1.0,"['tourist_attraction', 'point_of_interest', 'establishment']",1.0,-7.0881123,107.5416395
"VGWR+88R, Sukamaju, Cimaung, Bandung Regency, West Java 40374, Indonesia",jalur masuk puncak sagara,,ChIJnZt70miTaC4RuH1FO8UBdjg,0.0,"['tourist_attraction', 'point_of_interest', 'establishment']",0.0,-7.1041254,107.540757
"Tanjungwangi, Cicalengka, Bandung Regency, West Java 40395, Indonesia",Cicalengka Dreamland,"[{'height': 3000, 'html_attributions': ['<a href=""https://maps.google.com/maps/contrib/103066637323025743797"">nurfah zahara</a>'], 'photo_reference': 'AUGGfZnhia_fheFJaxXQwa1P0nXPVeN2VOy68T-7_MKFJtSFZ3o2cp0SAwdbvMccCmumHFcsodf8vn2clHJcUxiZ6hR28LMk2KylGxLQbsx5arNIq5OfF1WZKd7E6QtDUlYuSYOakxiKzg6KzTfEAT9IzWQVsGtXUKVsHoajPzBECAtBR7OP', 'width': 4000}]",ChIJKRu4VcvPaC4RLwRHWB98sa4,4.5,"['tourist_attraction', 'point_of_interest', 'establishment']",2736.0,-6.9686051,107.8855249
"Jl. Cicalengka Sindang Wangi No.km.07, Tanjungwangi, Kec. Cicalengka, Kabupaten Bandung, Jawa Barat 40395, Indonesia",Cinulang Waterfall,"[{'height': 2322, 'html_attributions': ['<a href=""https://maps.google.com/maps/contrib/105309332873422884515"">skay dankel</a>'], 'photo_reference': 'AUGGfZnvmfUgHvNcmqzyDvIhkCAACP5n3OEiX5gLTiRNxo43-jc7TDzZi6uZ3yc6l-vrd1iyuP539V9y9zv1zicU5a338lKtEVOoa_jWefylTttEZChLwKuC9zAajdHMuhY6shg6rAYt0QBThmE82HzsmPCUZnlBp6kqD0qYUyuX1cuWSZqh', 'width': 4128}]",ChIJDbM48vTPaC4RacUQQPXUjsc,4.3,"['tourist_attraction', 'point_of_interest', 'establishment']",2290.0,-6.962860699999999,107.8815424
"2R8M+CQV, Cicalengka, Bandung Regency, West Java 40395, Indonesia",Spot Hunting Favorit,"[{'height': 589, 'html_attributions': ['<a href=""https://maps.google.com/maps/contrib/100198346155808712214"">A Google User</a>'], 'photo_reference': 'AUGGfZmBzxHmaVrFFbWUARfMPbwyiugGbcNrxZXjt00ljlUWcztf9pETnSyrwknGwdpUEkJZJRT1UsZk9G28Bgbw2twjMXdqaHxxfQeauuaKq67NZUNAHO0RaSl_2mzR7RVgszDtdob-Ea8rkecfwAHPXCUp4xv2JENKhtcWDSg8CDAm7d2N', 'width': 836}]",ChIJ4arxbgDFaC4RJ0rCUATp4tA,5.0,"['tourist_attraction', 'point_of_interest', 'establishment']",1.0,-6.9838846,107.8344228
"2R6R+XXR, Cicalengka Kulon, Cicalengka, Bandung Regency, West Java 40395, Indonesia",LAPAK BARAYA CIAYUNAN,"[{'height': 2340, 'html_attributions': ['<a href=""https://maps.google.com/maps/contrib/115904777436323661901"">Wildan Sutiansyah</a>'], 'photo_reference': 'AUGGfZnOOmwkr43K6WyBvlbLS4WDoKazhppcaIdwFP__L1QbzataGwUVYhOivZV1x-l-2iw1liR4ERHazOS_Aln86Mlgm_HmU3wz3wvVM-figSzb1APQa09Ck7sSSMmRuEfFb4WHG8zOu2nTRdP4vroVtdJiZYeccrHWj40A5ufSrUyW-T0C', 'width': 4160}]",ChIJX3eVvlfFaC4RSYLByk2B4zY,5.0,"['tourist_attraction', 'point_of_interest', 'establishment']",1.0,-6.9875533,107.8424027
"Cimulu, Tanjungwangi, Kec. Cicalengka, Kabupaten Bandung, Jawa Barat 40395, Indonesia",Wisata Kareumbi,"[{'height': 1472, 'html_attributions': ['<a href=""https://maps.google.com/maps/contrib/102401677797370630396"">A Google User</a>'], 'photo_reference': 'AUGGfZmjupWBU57lDXU_vxUNPhW99BRdQkA6SGZyu07mp3Zs3hkaCoPFg2C2ydqjfnG-5ACLMOOc0SEY5gRdRfNgf5s3ZcSQmoljMtbohokSwIqyNGNPfyt1F1Ui6FdKMRKYd1gXfp8WjDELhVKR-zhBPxPHnsdTKN2pE-OAkaAXIlbbIqJY', 'width': 828}]",ChIJw03q6STPaC4RhXadafNJy8Q,4.2,"['tourist_attraction', 'point_of_interest', 'establishment']",17.0,-6.9547547,107.9116681
"2RGR+WQ4, Dampit, Cicalengka, Bandung Regency, West Java 40395, Indonesia",Candi Cicalengka,"[{'height': 1800, 'html_attributions': ['<a href=""https://maps.google.com/maps/contrib/107498655562614445996"">Deris Bebas</a>'], 'photo_reference': 'AUGGfZnTBP-dZsVlMRs-ykTPrQDV21fYZs3DQagpNO3Rss3HzNDX60NB6WXtEYO3nZXR6UArM6eT84EK7s7TfGlfdBV8J6Jo5-6Tx-QUI4a88ce8EpruNHjQmjSESFCjK0e-f3_bBZ8jWHhhG-Y9rnljCKGqh2kSCZ9-LT_saXF2xK4hDpn3', 'width': 4000}]",ChIJXw1uuJ3FaC4R8SVI6In1xsk,4.5,"['tourist_attraction', 'point_of_interest', 'establishment']",30.0,-6.9727497,107.8419628
"2VH2+FFX, Dampit, Cicalengka, Bandung Regency, West Java 40395, Indonesia",Saung Apa El,"[{'height': 4160, 'html_attributions': ['<a href=""https://maps.google.com/maps/contrib/116233449950702625187"">Diana Ami</a>'], 'photo_reference': 'AUGGfZm-6C0oAM5blqQagSLxkFidkmB5JBVIuWOZPAoftSeJE-O0rGidce2uNMf7Ux9w9ka5MofIqzm0mdhjhVeVtaheXoV_I9TIrxkC_pwtVYNsNZEIu_jSlDaKoJHrNhGVKjDfbwNRCodwJl9SHTSeKSUAk9gQ8i0DZ0k-nukd-3agWGsB', 'width': 3120}]",ChIJzdZeMQDFaC4RIY1VwMMsrlQ,5.0,"['tourist_attraction', 'point_of_interest', 'establishment']",2.0,-6.971214,107.8512409
"2RGV+H9M, Jl. Curug Cinulang, Dampit, Kec. Cicalengka, Kabupaten Bandung, Jawa Barat 40395, Indonesia",Mountain View,"[{'height': 3472, 'html_attributions': ['<a href=""https://maps.google.com/maps/contrib/101747433941624065233"">Benny Herlambang</a>'], 'photo_reference': 'AUGGfZkuHXe0xmpXtX7H4xQzfiXjnl1gu6fJH5WuHypHxPZzTUBjFWZhxiqtyIMolGeix6bV6GT_pvN_9ZENPICAYAwyH6riiTUGWrj4aojBu-zeg9TI-1gVrWukXuxzxxMRqOXljMdn3aqj3KqamrqgPDq8Gz2wQk-jSBsEiqzZ-DFELkfG', 'width': 4640}]",ChIJb1Au5qvFaC4RGUvwLbDHBP8,5.0,"['tourist_attraction', 'point_of_interest', 'establishment']",3.0,-6.9735295,107.8434273
"XRJR+QXW, Kp. Garogol, RW.06, Margaasih, Cicalengka, Bandung Regency, West Java 40395, Indonesia",Kampung Pot Pampers,"[{'height': 3024, 'html_attributions': ['<a href=""https://maps.google.com/maps/contrib/107181597337169586611"">A Google User</a>'], 'photo_reference': 'AUGGfZkKCiarSt8V1MXgTNKLovGEWPDS_bogk_U9lG_Id0j_d2yNPsrGuQlpVYTQT8BehLLT7f4yEo_2TWXzVV1mgt4wUGg-7_29zTeZNfYkvZS6BbhofURscrQY-kv-in6ofb006APanIy3kagnr__a0v4l6BK03GV5zhQdhWIGyeV1YT3S', 'width': 4032}]",ChIJQZYDsvjHaC4R3dNyOTxPRYs,5.0,"['tourist_attraction', 'point_of_interest', 'establishment']",1.0,-7.0180225,107.8424624
"2V66+GQF, Jl. Puncak Suji, Babakan Peuteuy, Kec. Cicalengka, Kabupaten Bandung, Jawa Barat 40395, Indonesia",Balingka,,ChIJlTCHsrXPaC4RaOvI7WDmE34,0.0,"['tourist_attraction', 'point_of_interest', 'establishment']",0.0,-6.988683399999999,107.8619276
"2R6M+FWW, Waluya, Cicalengka, Bandung Regency, West Java 40395, Indonesia",Mveh bonsai,"[{'height': 3000, 'html_attributions': ['<a href=""https://maps.google.com/maps/contrib/112477832585066998260"">A Google User</a>'], 'photo_reference': 'AUGGfZkG6B7ksE3mPU9Lb3ZlIB-gZzF1SXI3zD8omtJGLLSF9_Wm5LENPMm4SU1Dzdg2iC53BnMBSQaBxM7mHOwmsqJdUrOYKIXhKB223rITi7Bsv7Efr2QWNGNyBhsnKoJXufD1zNSVyXRyCWvtFrfJYmvc54Kti5pp4TvinA2Kaxvt5GRU', 'width': 4000}]",ChIJ-2pr1uHFaC4RacD6PWliG80,3.5,"['tourist_attraction', 'point_of_interest', 'establishment']",2.0,-6.9887526,107.8348392
"2WH2+R24, Tanjungwangi, Cicalengka, Bandung Regency, West Java 40395, Indonesia",Greenhouse Bamboo (CV. Budi Agro Perdana),"[{'height': 1536, 'html_attributions': ['<a href=""https://maps.google.com/maps/contrib/110582247023274900530"">buddy syah</a>'], 'photo_reference': 'AUGGfZmQcWVykn-AtBmBKMYhOTSu8aeIFiGWkk6zEDsw7Ouwl2y_uH6gPr7RdZtmIjk97PvmRO9CZYms6qSv-Uw1LG1sO_vWdWTQ2XWPWqfWDzA3krV3rClxXX6KegyFMvtw-B0_xfd_IwZxRkNCJ9l4hA7--OzQ6O7dGJWYEomvPAjmCTpT', 'width': 1536}]",ChIJcS4sgxzPaC4RjSk8TZTwK_0,4.3,"['tourist_attraction', 'point_of_interest', 'establishment']",23.0,-6.9704767,107.9000749
"2VJ4+H9M, Jl. Curug Cinulang, Dampit, Kec. Cicalengka, Kabupaten Bandung, Jawa Barat 40395, Indonesia",JALU UJAL,,ChIJCas09rnFaC4RbvN63MutPkM,4.0,"['tourist_attraction', 'point_of_interest', 'establishment']",1.0,-6.9685461,107.8559189
"2VH2+5M3, Dampit, Cicalengka, Bandung Regency, West Java 40395, Indonesia",Saung Abah Ata,"[{'height': 1600, 'html_attributions': ['<a href=""https://maps.google.com/maps/contrib/105013405314382553544"">A Google User</a>'], 'photo_reference': 'AUGGfZlTHUqRoh2N-IzZ01PqZFeKU4cYSLuH4-jzfJm07SOOBWyhFjB6KrJSeUJgDObdxFFE0MKtxjIW1EtbalDDe41ilkZqym6Kb6Cs191dgqfyPiVhrB7g163DF-_RHP_aIySp24TAmZ1p2eI6LDZSR6zFYUy0nhQJFAdKTCpwnA9z9pxP', 'width': 1200}]",ChIJUVA2ZOLFaC4R8rPAryGy4Z0,5.0,"['tourist_attraction', 'point_of_interest', 'establishment']",1.0,-6.9716967,107.8516334
"2V29+3XG, Jl. Desa Nagrog, Nagrog, Kec. Cicalengka, Kabupaten Bandung, Jawa Barat 40395, Indonesia",Kolam kebun,"[{'height': 1504, 'html_attributions': ['<a href=""https://maps.google.com/maps/contrib/107397071659800231629"">A Google User</a>'], 'photo_reference': 'AUGGfZnLu-feYQdUDuM_MqX_X44eG4H5bt99oqiuwndXYcyVRkHLlDrcnDQvDXjmSqdqzsr-WxHWcsl2NMWo-iJKwzUWHXoDaJedtfyjSVDm-AuroMbwK73W3kx1NIGqLtkJh7F3FqQ-Epyb7Stz-FBcauXRMO6yltRIZ5qdgipLz2j1iEcG', 'width': 3264}]",ChIJcYXykEHPaC4Ro_FbKvOBi3Q,5.0,"['tourist_attraction', 'point_of_interest', 'establishment']",1.0,-7.0004055,107.8727635
"2VC4+356, Pasir pogor, Babakan Peuteuy, Kec. Cicalengka, Kabupaten Bandung, Jawa Barat 40395, Indonesia",Saung Sincan,"[{'height': 4160, 'html_attributions': ['<a href=""https://maps.google.com/maps/contrib/112806545547119043043"">A Google User</a>'], 'photo_reference': 'AUGGfZm_WKRfGgNyJb8pPrmyOVT086jV3AphxHekkD6w0qMcA3xJl3Jb8SoNRHmCbLqJG3awqNHvvaPCBlFCHpCGwATmFrvHNomlaDuhj3G489hcB0c8YE7PnAaHS6Bks-VQar2v4np4gEqUeIS6aghKhBFFaJZqvhFd_HLAqmNn6SnY7c2z', 'width': 3120}]",ChIJRY4VBQDFaC4RB7nC8UlCDn4,5.0,"['tourist_attraction', 'point_of_interest', 'establishment']",1.0,-6.979835599999999,107.8554031
"2R2P+GXR, Waluya, Cicalengka, Bandung Regency, West Java 40395, Indonesia",Cibentang Waterboom,,ChIJQ3gh6KLFaC4RgtNMxUPO6cU,5.0,"['tourist_attraction', 'point_of_interest', 'establishment']",1.0,-6.9988689,107.8376656
"2WW7+WR3, Cimulu, Sindulang, Kec. Cicalengka, Kabupaten Bandung, Jawa Barat 40395, Indonesia",Kareumbi Gate,"[{'height': 404, 'html_attributions': ['<a href=""https://maps.google.com/maps/contrib/115427779398118782102"">Septiani Adnan</a>'], 'photo_reference': 'AUGGfZlUQBGEbVooCx95CE9CzdJERKH7J3GbeJdgRdENp017S2xpLsaE_8Q-FnxzzHtWAo6iB4XzFH-JDaO4ULv9iYjDWK71EDRbc-iWmmHNpj6qPMUJA4v1Y1HFyH1Bg7b4L-g9v7sZLa3Cu_fy-X3Q8IENe1OHVdrrXucRsOzwVhIVsFIl', 'width': 720}]",ChIJAzKj1VbOaC4R_wJh-AVFWrM,4.3,"['tourist_attraction', 'point_of_interest', 'establishment']",59.0,-6.9527316,107.9145615
