formatted_address,name,photos,place_id,rating,types,user_ratings_total,lat,lng
"95XM+XG, Wailiti, Alok Barat, Sikka Regency, East Nusa Tenggara, Indonesia",Kali Dagar,"[{'height': 2560, 'html_attributions': ['<a href=""https://maps.google.com/maps/contrib/100928803969943121693"">A Google User</a>'], 'photo_reference': 'AUGGfZl04hrAEBhgAzXv3pNc_v7l0pOJarhQ_VxWtoHKJXBznEunW-4I9g_NYuMArSPirxr3w_Z1xVEL-NWEYS4xYijcC8f65X2MLG8VJaFukqIGjI_rK08G8MC2xBrihbFIw153ldyXyMWGkTfXOdI4nk2T8sF7MOfeF6Cd56v-tpEjuhdU', 'width': 1440}]",ChIJDeqYImgbrS0R9_1nG6o1Arc,0.0,"['tourist_attraction', 'point_of_interest', 'establishment']",0.0,-8.600007,122.183752
"95X9+HH3, Wailiti, Alok Barat, Sikka Regency, East Nusa Tenggara, Indonesia",Pantai B_LanK,,ChIJ2UYQawARrS0RR1r7Px0s4ec,0.0,"['tourist_attraction', 'point_of_interest', 'establishment']",0.0,-8.6011188,122.1689284
"C5J9+C4H, Nangahure Lorong Mbola so, Hewuli, Kec. Alok Bar., Kabupaten Sikka, Nusa Tenggara Tim., Indonesia",Sanggar Mbola so,,ChIJkxOwVQARrS0RjwcgpiwFGSg,0.0,"['tourist_attraction', 'point_of_interest', 'establishment']",0.0,-8.5689367,122.1678551
"C4XV+894, Wuring, Alok Barat, Sikka Regency, East Nusa Tenggara, Indonesia",patisomba,,ChIJ6yBvh1EPrS0ReBkoL_SppHI,4.0,"['tourist_attraction', 'point_of_interest', 'establishment']",2.0,-8.551742599999999,122.1434614
"C59J+MVJ, Wailiti, Alok Barat, Sikka Regency, East Nusa Tenggara, Indonesia",B_Lank Beach,,ChIJu7U5OwAbrS0RonZbaccizm0,0.0,"['tourist_attraction', 'point_of_interest', 'establishment']",0.0,-8.580788499999999,122.1821332
"C623+242, Jl. Bengkunis, Wolomarang, Kec. Alok Bar., Kabupaten Sikka, Nusa Tenggara Tim., Indonesia",Wuring,"[{'height': 4032, 'html_attributions': ['<a href=""https://maps.google.com/maps/contrib/103880317300518867989"">Fitrah Aditya</a>'], 'photo_reference': 'AUGGfZmvNB_nAOkxbCZbT2RM_ZtxGOK3S9pT80Z7Nk7D4Rj-BYeAsuMgR_vvW2xYV1SDOacKqNcIuHqoLa8qIPed7tFJpSkqvpUSN3GVei-o-40_AGweZ7kNXXsItnVThGV2ZhpyhMMVmsXHccIONj3E-DTi-NJmCrOtxPsyzizkyqG6TLp5', 'width': 3024}]",ChIJUZyospobrS0R69t4pNIwnUU,4.2,"['tourist_attraction', 'point_of_interest', 'establishment']",48.0,-8.5999805,122.2027536
"96G7+5VG, Madawat, Alok, Sikka Regency, East Nusa Tenggara, Indonesia",Shelter MARTHASPRING,,ChIJE1IbIgAbrS0Rb7g3nX4-oJc,0.0,"['tourist_attraction', 'point_of_interest', 'establishment']",0.0,-8.624551499999999,122.2146964
"Jl. Raya Maumere - Magepanda, Wailiti, Kec. Alok Bar., Kabupaten Sikka, Nusa Tenggara Tim., Indonesia",Taka mbo minang,"[{'height': 2592, 'html_attributions': ['<a href=""https://maps.google.com/maps/contrib/112100131239608064164"">A Google User</a>'], 'photo_reference': 'AUGGfZkl0ZJKPfwzK76XSR0S10uE-_4H_8BpsIeAwfSmPXi5NtKAJGGUCdZ30EiApBYLhjlC73S6_NWt48d14a6QSfS8qaGeHR1UDfpxqGJc3z_WJFt05DKcoKxGF9daSMwLDmsVaZGCS_N8PWHHZIBuY_KzjdVz_E97TklWmXAYNfy0AOr1', 'width': 4608}]",ChIJV9o4GrYbrS0RUzp-raJPJpE,3.0,"['tourist_attraction', 'point_of_interest', 'establishment']",2.0,-8.572296099999999,122.1952619
"9569+W4G, Wuliwutik, Nita, Sikka Regency, East Nusa Tenggara, Indonesia",Taman Doa Maria Bunda Segala Bangsa,"[{'height': 3472, 'html_attributions': ['<a href=""https://maps.google.com/maps/contrib/101963883597907418702"">Ama Lebu</a>'], 'photo_reference': 'AUGGfZnLeaSNJNPlicHwKP8kfazKxHRLOKqiNaCSvo8ofbZoSs6DJ5XAeW7SyOGv-6fflGAq7VYkg8sWMA0CHvhTUlFRtXIH1UD7HnuhjQlwnvFgmsmwyBImN2X9IZpCFgcnsC8AgLWCwegV2jKKlf_KjoF1lckshfMhWI8LFmcPnuUJG_0H', 'width': 4640}]",ChIJBTr6mlMXrS0RGvIUh7J_VrQ,4.6,"['tourist_attraction', 'place_of_worship', 'point_of_interest', 'establishment']",105.0,-8.6376849,122.1678276
"C537+FJ6, Wailiti, Alok Barat, Sikka Regency, East Nusa Tenggara, Indonesia",Air Terjun Aimitat,"[{'height': 957, 'html_attributions': ['<a href=""https://maps.google.com/maps/contrib/110867180862049665896"">A Google User</a>'], 'photo_reference': 'AUGGfZkm3y9UsI_8uNS2uHRwsRjcl8kbsMXysmZkMIjEpjTjQdPv_moPpqDbSNBF8qVQQmbCGsKfBfl8H64QClDWy-qSgk62piHbh9H3gPB9itB_klZMOAT7aMu-84LlE_f2GyAmUj5xMMPmk80ZXV6zV1dptW4Xhct7H_ew05aVhb9VujF5', 'width': 1280}]",ChIJ29CUiIgQrS0R9eKfBAKPrI0,4.5,"['tourist_attraction', 'point_of_interest', 'establishment']",4.0,-8.5963323,122.1640259
"C5W5+5C, Wuring, Alok Barat, Sikka Regency, East Nusa Tenggara, Indonesia",Pantai Nangahure,"[{'height': 1600, 'html_attributions': ['<a href=""https://maps.google.com/maps/contrib/101690334284635489333"">A Google User</a>'], 'photo_reference': 'AUGGfZmD55HsXcdubQfFHCSWIKANH27ny5gxN7ATKWXadiEk36cowNZO9bLPin9bmYvrh5IEzSqyf1qb0x0lkAOuLXRuecxw5xj1vvmawsmToXF5G1LgiME4uZY8Y0GOhWgwbxEiPp-VgqH62ImxoqHkzi2FNNKRoUVOfKtg4g1rVPtCiBQi', 'width': 1200}]",ChIJF3v3DPgPrS0RhD18tWtftno,4.5,"['tourist_attraction', 'point_of_interest', 'establishment']",2.0,-8.5546102,122.1585207
"C5MC+PG, Hewuli, Sikka Regency, East Nusa Tenggara, Indonesia",Pelabuhan dobo,,ChIJBxMuwo4RrS0RaFa0DgLG1L4,0.0,"['tourist_attraction', 'point_of_interest', 'establishment']",0.0,-8.5656313,122.1712571
"Jl. Raya Maumere - Magepanda, Hewuli, Kec. Alok Bar., Kabupaten Sikka, Nusa Tenggara Tim., Indonesia",Pintar Asia Beach,"[{'height': 2268, 'html_attributions': ['<a href=""https://maps.google.com/maps/contrib/105244314827196352336"">novel yushar yahya</a>'], 'photo_reference': 'AUGGfZnOJ4hQ1SUgS6K6KN7dOb9SdzD9JL2qZ-7cfuzrmvEUUFuKOAC6iCYOyY3fcmzbcou6Jga6Zg4bDgorZ9YgoWDWtohuDw9JUGhEaslnWtbZLMSIXyYPUzL2Jrc3VL2o8sJCFQYfhitlbkMgt_dqW6VuLWJPq2QpgH15EfX-PWy4ocV1', 'width': 4032}]",ChIJre_U_y8RrS0RQH-IIbshzD4,4.3,"['tourist_attraction', 'point_of_interest', 'establishment']",143.0,-8.573624299999999,122.1737474
"F44J+JCM, Kolisia B, Magepanda, Sikka Regency, East Nusa Tenggara, Indonesia",Pantai Waturia,"[{'height': 2268, 'html_attributions': ['<a href=""https://maps.google.com/maps/contrib/105244314827196352336"">novel yushar yahya</a>'], 'photo_reference': 'AUGGfZlC8UfC7G-_NKg58m2Ne6z6DVCHw_8i1z4cxHFS2DEKa0qRQX0pInoUKj3p3oy-zDIG9xC09T7_uX13GyYIzD-rJlICX78j2JAQguW4YBNcwEmREMKwXdNcxJKffRg2H4EItdVFSPeNKk_B7iV9pCT-1c9iYLudayI4YAW8HvCcZvt-', 'width': 4032}]",ChIJSyU4I34PrS0RDc0XBSm8a-U,4.2,"['tourist_attraction', 'point_of_interest', 'establishment']",26.0,-8.543410399999999,122.1310525
"C4R8+R9, Kolisia B, Magepanda, Sikka Regency, East Nusa Tenggara, Indonesia",BUKIT SUNSET NANGARASONG,"[{'height': 3072, 'html_attributions': ['<a href=""https://maps.google.com/maps/contrib/114857041387048809231"">A Google User</a>'], 'photo_reference': 'AUGGfZlzbDq_wyrVuKaVHZmgdRyXNxQBblYNmGzXVDfCKXNn3eelyzJFiv0HlWmlruNCAFwwpPw4jB71zhs4L3_8n3HYW2QJzyYZcBA3cj6Svj8rs7oWL0QfTbDcNf-5TktV5M-14x6eEytTSwW5CYkGKco2BpZB3y8gqMtV8tflagrTCdu6', 'width': 4080}]",ChIJdai6zq4PrS0RfzzoVgsW080,5.0,"['tourist_attraction', 'point_of_interest', 'establishment']",1.0,-8.5579482,122.1158994
"F57G+4Q, Wuring, Kabupaten Sikka, Nusa Tenggara Tim., Indonesia",Timpusu uwa Jabal Baco,,ChIJzYPP53wFrS0RRnXcBhvmI5s,0.0,"['tourist_attraction', 'point_of_interest', 'establishment']",0.0,-8.537189,122.176993
"85H7+WMC, Nitakloang, Nita, Sikka Regency, East Nusa Tenggara, Indonesia",Wolon bekor,,ChIJ-aXmBwQXrS0R3D8b4bQ4-jM,5.0,"['tourist_attraction', 'point_of_interest', 'establishment']",1.0,-8.6701952,122.164138
"96GG+FH2, Wairotang, Alok Timur, Sikka Regency, East Nusa Tenggara, Indonesia",Wailiti,,ChIJMaw03_obrS0RQZRe8x1KGTg,0.0,"['tourist_attraction', 'point_of_interest', 'establishment']",0.0,-8.623885699999999,122.2263757
"946G+W4R, Riit, Nita, Sikka Regency, East Nusa Tenggara, Indonesia",Spot Foto Negri Di Awan Puncak KIMBUL,"[{'height': 1536, 'html_attributions': ['<a href=""https://maps.google.com/maps/contrib/106585376953318662895"">oswaldbl oswald</a>'], 'photo_reference': 'AUGGfZkjhMlJe6bVXUHdv1Y-6CzfZO4k-W68m5QCFAglcYlrLpaM_vssOVGuQFzJAhnSx6nWl6uPIjt01hcGXTPlQQIsHiJTNr5idlfmOADE5qo6EIwr86IbhXvkUieHppSHK1s8FivaVqU4VRW4O5uaxl5m2yhMZGImnRVEyquQhNqcaaYA', 'width': 2048}]",ChIJvfl_uToRrS0Rkpndx3BTscA,4.4,"['tourist_attraction', 'point_of_interest', 'establishment']",5.0,-8.6376369,122.125275
"C5FH+4VP, Hewuli, Alok Barat, Sikka Regency, East Nusa Tenggara, Indonesia",Pantai Kita,"[{'height': 2736, 'html_attributions': ['<a href=""https://maps.google.com/maps/contrib/110654841252109229592"">A Google User</a>'], 'photo_reference': 'AUGGfZnh5sdGa_kQg3QXM3CgYbsOF62HSL_I3b3QyleFSJDy4jgA5Z_ogZt-zW8sTe6u9_4Qagty0nFTi6gzB4SqvhlxG4uRTByc10n9ytGoSXspvjXZnFe8997GWYEDw_PnTlJurwS37WT0-9IRKPReewvlD2L31qj6Jw3fTYQhwDsacq1D', 'width': 3648}]",ChIJMT_mroAbrS0RreLjppnZb4U,4.3,"['tourist_attraction', 'point_of_interest', 'establishment']",39.0,-8.5771503,122.1797118
"F3CQ+V8Q, Kolisia, Magepanda, Sikka Regency, East Nusa Tenggara, Indonesia",Nusa Kutu,"[{'height': 3120, 'html_attributions': ['<a href=""https://maps.google.com/maps/contrib/107520391607991049890"">Vale Rius</a>'], 'photo_reference': 'AUGGfZny1M0VaZt_FB7gCbBpiymQ1-IhvVgrvq8G6nzS1czjYubZpW6ZzQpH0OzhS8VpzQS2Wa8OaQVDB5GRwy5xYb5P9e3NW2_rwgOijgMgFlh7nHrrbwk312ly8g1attKdzLPNfzaZuO-HS0EsSVzdvkt5leQpyB8TklkoqzebLOq4UX3M', 'width': 4160}]",ChIJUxkhGn4OrS0RrOeUMUwNTAs,4.4,"['tourist_attraction', 'point_of_interest', 'establishment']",30.0,-8.527795,122.0883729
"86P5+HF, Nelle Urung, Nelle, Sikka Regency, East Nusa Tenggara, Indonesia",Tanah Bpk aliando,"[{'height': 1537, 'html_attributions': ['<a href=""https://maps.google.com/maps/contrib/106084351298907184391"">A Google User</a>'], 'photo_reference': 'AUGGfZmFS2C0kVJPU-rT50Q6uscMg8FGIBQxEY1JIRU144cFtnYClYh5XVw1OPZkExZvpBIxmS8Huq9I0kxs9G8OrcDZ6qYsizZ3DtJVI4bf72J5_1SfgBiQgdoOqptFaBkG10ZcysDQI2Ilh6jxVqF3BIOJ4GPAB7-cb_J8wdaA8xL6yDzB', 'width': 1011}]",ChIJHfa-NgAZrS0RlIC9aKmz_7Y,0.0,"['tourist_attraction', 'point_of_interest', 'establishment']",0.0,-8.663507,122.20866
"8569+RMM, Tebuk, Nita, Sikka Regency, East Nusa Tenggara, Indonesia",Sanggar Budaya Rudun Blutuk,"[{'height': 2160, 'html_attributions': ['<a href=""https://maps.google.com/maps/contrib/101337480086639633065"">benarivo tp</a>'], 'photo_reference': 'AUGGfZk23v8Y2-Sw4z0piRAszg83gGiXFWkBOaAttK2PDN_3cI91yc2TZT3n_enVqtL4e94wgHstkc6TpVsvBytkCU9krpVAoA-hRmZ6FI_E_7sF1g5tTnkpnZFmbr_5Z5Sec6ch0y2ZUHBf0MBYdV6ZKLu5ohmPVJPV9FTCv9qzkHFv3SIa', 'width': 3840}]",ChIJM13EBLUXrS0RF6GHqaMkSps,5.0,"['tourist_attraction', 'point_of_interest', 'establishment']",2.0,-8.6879098,122.1691708
"Langir, Kangae, Sikka Regency, East Nusa Tenggara 86181, Indonesia",Wisata desa kolidogon hills,"[{'height': 720, 'html_attributions': ['<a href=""https://maps.google.com/maps/contrib/110026580704086999509"">A Google User</a>'], 'photo_reference': 'AUGGfZkwD9RIbC1RrFxtxWOM5XD2RNZ_sDUiGSSqWbCV9nus7IwXWBpWZANk00v173reNqL9nPtX85hqvr2wFZHScrVN8f51j42V38JNfEYI40eUkcEcZyKRo_mdTlv1K14hLH4ImKPTHlTyzrf_aieuXidVUO7yFNYV-2IdzofAsWTSHSM', 'width': 1600}]",ChIJ6WzTDysZrS0RoBmCBgPyXf8,0.0,"['tourist_attraction', 'point_of_interest', 'establishment']",0.0,-8.6551817,122.2445843
"56, mil utara, Indonesia",Taka Layar,,ChIJS7n1NAAbrS0RRB4u_JUkDUw,0.0,"['tourist_attraction', 'point_of_interest', 'establishment']",0.0,-8.624551499999999,122.2146964
"86HR+56, Tekaiku, Kangae, Sikka Regency, East Nusa Tenggara, Indonesia",KOLIDOGON HILLS,"[{'height': 3060, 'html_attributions': ['<a href=""https://maps.google.com/maps/contrib/110334224184491311589"">A Google User</a>'], 'photo_reference': 'AUGGfZl_6btNHAdDbH06eKAPpGL5hHtuNfPThbmTHjscfPbplU-e9LHtXqeHiGRYjk0RbgDQhb_VcDYkLFuJDQGQLLRdzLk1QgvYF8gnU-4njQFlxfJHqiG41GvbyHL5s1hJG5Nme9rmDAHhgBj0byoMIZ-uMhtZSekg0f9f3eSmcMZQEpIN', 'width': 4080}]",ChIJ86p6MwAZrS0R6UhKB8LT710,5.0,"['tourist_attraction', 'point_of_interest', 'establishment']",1.0,-8.6720153,122.2405916
"F3GC+7GH, Jalan Raya, Magepanda, Sikka Regency, East Nusa Tenggara, Indonesia",Kajuwulu Beach,"[{'height': 3120, 'html_attributions': ['<a href=""https://maps.google.com/maps/contrib/100441058539914282634"">Wedjo Vincent</a>'], 'photo_reference': 'AUGGfZkjsy6FEPLKnonYjePrvXTlXXW-1b5dBNDlKt13RvW51wq7crg6Av8dyV_jrbIuYcJ3PRyQzAjjFlMedEN-WVXGnLjO7uPFo9XrLrrfPOjeVdrHFb1UDxObTkjUvKVxRnF9fw-gYVUYXz01umF9V4g8NYW4ap0cn7oZz36R7wh9iIzT', 'width': 4160}]",ChIJaz3XDDIMrS0RWiZHzlrnEZ0,4.5,"['tourist_attraction', 'point_of_interest', 'establishment']",133.0,-8.5243053,122.0713724
"96F2+93M, Jl. Litbang, Kota Uneng, Kec. Alok, Kabupaten Sikka, Nusa Tenggara Tim., Indonesia",Biara Karmel,"[{'height': 4000, 'html_attributions': ['<a href=""https://maps.google.com/maps/contrib/113867048381321213756"">nicolashartono halim</a>'], 'photo_reference': 'AUGGfZk1D6u8wyY41xQOYBzPlkyqHZIRkF3dCSNKeqBTYj-Str_buTIRws74sfu_qN61R_L_MtPRCuc3W23qdGA3AKDVzxOB0S_CjC6pxASnaOL85-bu9gJxARQFDWnJOS5ByOoDLssHfO6lenD5euqtY3SK-KBYaygnknykfQT0MabBVEF7', 'width': 3000}]",ChIJ4WaZsDoarS0Ra5vTFry09N0,4.5,"['church', 'tourist_attraction', 'place_of_worship', 'point_of_interest', 'establishment']",70.0,-8.6265336,122.2001717
"96M9+PGF, Uneng City, Alok, Sikka Regency, East Nusa Tenggara, Indonesia",Pelabuhan maumere,"[{'height': 4000, 'html_attributions': ['<a href=""https://maps.google.com/maps/contrib/102468606166217012552"">Lukman Mukti Wibowo</a>'], 'photo_reference': 'AUGGfZnCX7Q6vBsOiUKVz5N3F4VZlBdPcm9iK2SCYUDshdqEK7poP8uk5pPs4M4GrEEsS-Y4F6D3OYEcXnPqHiGCsCkM-3u-1NZ_NMYjhiD9ula4_0OG8M7YtX_uGPD5tWwhrF4yvik9P2P8wP6v6FYa0Y9sUrmbWzulVFkOkgUGidSIV8Wu', 'width': 1844}]",ChIJ08BJYnsbrS0R-QWo3fCKbRQ,4.1,"['tourist_attraction', 'point_of_interest', 'establishment']",105.0,-8.615693,122.2188003
"93FX+QM7, Nirangkliung, Nita, Sikka Regency, East Nusa Tenggara, Indonesia",Soru Sao Air Terjun,"[{'height': 960, 'html_attributions': ['<a href=""https://maps.google.com/maps/contrib/106200011088322766971"">eliseus mitan</a>'], 'photo_reference': 'AUGGfZk8DKrVEKuibCBM-yhyvVCzd-fePtDENrHcK8z8W6NHF1k2B2Xx63jp74I_zPEUWaeRrN7S1Wb8IZO9g1NY8Jq6txwYCNJgX2dCiNN5A8f7nXCs8RHbmM5jZ6Mn3r8iawbYpQsG0mE5DJPfC2CpOVFEcGRvzyXKcIma5JBdke-FX3Ky', 'width': 640}]",ChIJrwyn5akRrS0RanrfCA0H-sc,5.0,"['tourist_attraction', 'point_of_interest', 'establishment']",2.0,-8.6255816,122.0991596
"F34W+G8W, Kolisia, Magepanda, Sikka Regency, East Nusa Tenggara, Indonesia",Bukit Bintang Kolisia,"[{'height': 1920, 'html_attributions': ['<a href=""https://maps.google.com/maps/contrib/103547635402736146273"">A Google User</a>'], 'photo_reference': 'AUGGfZm1UJIPLXNoIJZw6Y-9DQ9OoV5vsTAVrFhxnz5Xq0Z-MTPDYh-agPnqZI8rwinnQTgRxnjWHlHJuSTuEbJjgP_HbdyJY6g3OllyOcelOEhnBLJGtcgPSx2E-OGY3IZitt1zLyHjjdv8A5NtU0W11vz_5NPAvbsrdvj4uXxzS8VLCe1D', 'width': 2560}]",ChIJowJyEX4PrS0RSCPs4MPw4zM,4.5,"['tourist_attraction', 'point_of_interest', 'establishment']",12.0,-8.5436389,122.0958344
"Jl. Soverdi No.Kav 1-15, Nita, Kec. Nita, Kabupaten Sikka, Nusa Tenggara Tim., Indonesia",Tenun Ikat Lepo Lorun,"[{'height': 3024, 'html_attributions': ['<a href=""https://maps.google.com/maps/contrib/118281181627014897959"">Agung Susprihadi</a>'], 'photo_reference': 'AUGGfZlKngqCZ7ZzfeE3TTDC4NH7t3y4HImA_N14jeaO65bpcUO400aa71QIS9mVOWsIjN8opFsOyXStB9tWJrGdVNKyO1omw-nVjjpKIn8myvrXmQFbxYDymgm8MUkq6Tdv0JHI2I5fVNHodOnAPA0YPgQI0b4MdGJjb2Pm3GCxmlcvPfpA', 'width': 4032}]",ChIJ0yZKDIEXrS0RVuaaummT_OQ,4.6,"['store', 'tourist_attraction', 'point_of_interest', 'establishment']",158.0,-8.6756628,122.1706708
"96H9+FMC, Kota Baru, Alok Timur, Sikka Regency, East Nusa Tenggara, Indonesia",Taman Kota Maumere,"[{'height': 1216, 'html_attributions': ['<a href=""https://maps.google.com/maps/contrib/112205317779176915825"">Kakang Paijo</a>'], 'photo_reference': 'AUGGfZkqTg5mBVCXvwMODlEBOXjY2i3I_jcP-dgk9OOWsU9kPSDOwnYS7U6f4jiq6jaWJeF-4pSgQ5S6m-JNcuy4T3gqozdVln5js96upA5vNqdC_qzqUPoMPwK6KQRiJzFCP-ZvQB_Lv_262GFUDBa6YUM7u3_M0ZORxtexW0tWh7GKapv6', 'width': 2176}]",ChIJD_6PRi0arS0RvmgwnGGa3Go,4.1,"['park', 'tourist_attraction', 'point_of_interest', 'establishment']",699.0,-8.621300399999999,122.2191305
"F3FH+93R, Jl. Raya Maumere - Magepanda, Kota Uneng, Alok, Kabupaten Sikka, Nusa Tenggara Tim., Indonesia",Watu Gogo,"[{'height': 2268, 'html_attributions': ['<a href=""https://maps.google.com/maps/contrib/105244314827196352336"">novel yushar yahya</a>'], 'photo_reference': 'AUGGfZkUDNtPtPF6heui_YDxi8YADA4jkQ77dSntETkxIsCJ4dZGdpQM6p4SSttBZr-F3hg-i4QikgDenNSOBfRO76jH78YF02l7m7E-l3MEPadoJWJYkcG2bvDqS56-lvBSwMZqWojKka6epum0BBCFooras5hVOuG73jrwtOZlWILYTnFs', 'width': 4032}]",ChIJMytXunANrS0RJiKBYfdPmFg,4.0,"['tourist_attraction', 'point_of_interest', 'establishment']",5.0,-8.526508999999999,122.077633
"966C+3J7, Lkr. Luar Maumere, Beru, Kec. Alok Tim., Kabupaten Sikka, Nusa Tenggara Tim., Indonesia",Air panas boto,,ChIJhwSktwQZrS0R0TD-8ZrhLXI,0.0,"['tourist_attraction', 'point_of_interest', 'establishment']",0.0,-8.6389982,122.2217102
"F44H+5H4, Jl. Raya Maumere - Magepanda, Kolisia B, Kec. Magepanda, Kabupaten Sikka, Nusa Tenggara Tim., Indonesia",Pantai Wairii,"[{'height': 2268, 'html_attributions': ['<a href=""https://maps.google.com/maps/contrib/105244314827196352336"">novel yushar yahya</a>'], 'photo_reference': 'AUGGfZltit-RFTg4PuoOI6EkHdhH8mc-NaAHd3iwhveYwriLrnyYo2m5tDY_tSP5fkiLK4Af7r7EQPWArtOhoQ3RUZnxA2s8zdG-cBXEYsdzmS_GjeSq2Cntzvqt7BMYPOip_9-VRlK3oHx5M3n_8sntNZVT91iSEDWbxcL1r5Cr0lq5PKil', 'width': 4032}]",ChIJ7xC5AVQPrS0RB6sBkeX-rEA,4.1,"['tourist_attraction', 'point_of_interest', 'establishment']",9.0,-8.5446134,122.1289381
"F3F7+VX2, Magepanda, Sikka Regency, East Nusa Tenggara, Indonesia",Bukit Tanjung Kolisia Ntt,"[{'height': 3120, 'html_attributions': ['<a href=""https://maps.google.com/maps/contrib/100918226843896171947"">Elisabeth Nona Ani</a>'], 'photo_reference': 'AUGGfZmeJRjoTIbgYDA53j674tWCco-yShYPYCsXDr1g7jn81z0n5SXHA9rBFX52LOUuqarYply5ICB74fgZQPNzsIFISJOyzA26wH-OCwArrNbDKiHUbIrxp1u9yUsTViSb5BFQLRqoGewp27Rd4o2uFcN7pc8YcnJlshhn8GNtzS2EiWk1', 'width': 4160}]",ChIJ0VhhOzQMrS0RA0hYtyEkJIA,4.7,"['tourist_attraction', 'point_of_interest', 'establishment']",74.0,-8.525351299999999,122.0649058
"77X4+HX, Mekendetung, Kangae, Sikka Regency, East Nusa Tenggara, Indonesia",Istana Raja Kangae,"[{'height': 4160, 'html_attributions': ['<a href=""https://maps.google.com/maps/contrib/101965752424862717879"">A Google User</a>'], 'photo_reference': 'AUGGfZmsHjNo_23ars9-exyQ7ABcvkJuW1i422ypYLMwW7EV-Yx2p6GB5QrH-WHSv1DinoIq37bdZ75kzPWkHEEX-Etr7bw908Gsakpl6SyE4KjB7tBbO4nqEfyLx7GXGs2GhCQ0DivSD935JisLfdsRiqSPb0xKk6wNlpqQ2XZKlspiZi0Y', 'width': 3120}]",ChIJCYS4U6EZrS0RYkyc92rfYrg,4.8,"['tourist_attraction', 'point_of_interest', 'establishment']",6.0,-8.7011293,122.257424
"9472+MX8, Nirangkliung, Nita, Sikka Regency, East Nusa Tenggara, Indonesia",Danau Rano,"[{'height': 1728, 'html_attributions': ['<a href=""https://maps.google.com/maps/contrib/106585376953318662895"">oswaldbl oswald</a>'], 'photo_reference': 'AUGGfZl_wn4GVvvTFD9qz5GSrtJEb0RAg0trP-TMXQwn_G-s0xS5TGrozKyHxvQtOsoyksyDrgSJQeSvWKuHmxxkhmvlkUYSmFKS_9b9oo7_BAc9wm3NaHzZlkorR3xwDvNHjld8bc2bB3B55SWiMPTUs6VdPssqpCB-FXFMbZ4_hXOXlBg0', 'width': 2592}]",ChIJj-QCIu0RrS0R4JFgkyVsmQc,5.0,"['tourist_attraction', 'point_of_interest', 'establishment']",1.0,-8.6358493,122.1024544
"75RJ+3CG, Lela, Sikka Regency, East Nusa Tenggara, Indonesia",Batik Wair,"[{'height': 3456, 'html_attributions': ['<a href=""https://maps.google.com/maps/contrib/106585376953318662895"">oswaldbl oswald</a>'], 'photo_reference': 'AUGGfZnKRs7U1EKhu2qIk9-Mv-i_H4ICsCvnWQKlynn1LekfDznSYJmTt0gN_PShJeOwSLQYOgdveYbxuDolsTq2PUYNciTt62iirIIC8CEs_fVZv4nU8awwzEQDPy43hwbA6iSCdrvdixX_hrv5mw9Fa7uyvnb1k7XuuTYDZ2pUkNJWPJ1o', 'width': 5184}]",ChIJWeC5diAZrS0RiStJJm0jX4E,4.9,"['tourist_attraction', 'point_of_interest', 'establishment']",7.0,-8.709823499999999,122.1810639
"85MM+9QC, jln raya maumere - ende, STFK Ledalero, Desa Takaplager, Kecamatan Nita, Nita, Flores, Sikka Regency, East Nusa Tenggara, Indonesia",Museum Bikon Blewut,"[{'height': 3000, 'html_attributions': ['<a href=""https://maps.google.com/maps/contrib/113902589363574360856"">A Google User</a>'], 'photo_reference': 'AUGGfZnjVLbtUp5L5FV2QI8h7XMb3NS69pTDPQ_6r2oDIZxMHHdAtpvyoJ3-vKZeClLNPpKqbnyHakzl1pIBPAkJn1h9BZTsgDIkhPjLYoSumcLlTwBU2lIPNXUdlKhBlh_2sJewiq_FQlGEdrU4LNcS0KY0Rab-sNIQ3kds9coFcfTR5GnD', 'width': 4000}]",ChIJmUS_TC0arS0R5kRq3Wd8XoY,4.1,"['museum', 'tourist_attraction', 'point_of_interest', 'establishment']",91.0,-8.6665543,122.1844025
"Rejo, Wolorega, Paga, Sikka Regency, East Nusa Tenggara 86153, Indonesia",Taman Nira Sikka,"[{'height': 534, 'html_attributions': ['<a href=""https://maps.google.com/maps/contrib/106592806468108339763"">A Google User</a>'], 'photo_reference': 'AUGGfZngS_UFab4cR5AuajMNB3QzSa8B0h69MEZN94NTqZlYbgdzirTZscz5si1WnSheE4rrGhiHH7oLrNzyFYr_k5AgxIHDc6ragzap7l6lkfaF-rzU3vtWSIXPcgD3fjnYMdSIibvTHD6Q80aQM8rvMhCDTMC_O7ak_h4K3FMPM_ij1ZfL', 'width': 720}]",ChIJ3a104kkVrS0RAWwTX4vqEB0,0.0,"['tourist_attraction', 'point_of_interest', 'establishment']",0.0,-8.6950497,122.0175419
"Jl. Brai, Watugong, Kec. Alok Tim., Kabupaten Sikka, Nusa Tenggara Tim., Indonesia",Maumere,,ChIJlYdyGwAZrS0RT4KuueOR_J4,0.0,"['tourist_attraction', 'point_of_interest', 'establishment']",0.0,-8.667296,122.2288163
"83F6+QF3, Gera, Mego, Sikka Regency, East Nusa Tenggara, Indonesia",Air terjun Lianiki,"[{'height': 8000, 'html_attributions': ['<a href=""https://maps.google.com/maps/contrib/103889777972609568447"">TReXID</a>'], 'photo_reference': 'AUGGfZmT5zhe7hKVfTf7RbKyUE8LIt95pGx95z1_nkjMzdNOOcqi26oD5_pTpaVaYT2Ovy-Ldlh7_i0BVsRWJ2GogBW7Np-ktNLdQHRzr7p3yit9YKsx_TAiuTOxml7z15X1coC8lzQo3_HTapWG62RXUHnEs4bC6_O7Y2bhNwUlzERJ5T2w', 'width': 6000}]",ChIJLco4hxUVrS0RlM6pn-fkDBI,5.0,"['tourist_attraction', 'point_of_interest', 'establishment']",2.0,-8.675618799999999,122.06116
"F2FX+5Q8, Magepanda, Sikka Regency, East Nusa Tenggara, Indonesia",Muara Mangrove,"[{'height': 720, 'html_attributions': ['<a href=""https://maps.google.com/maps/contrib/106585376953318662895"">oswaldbl oswald</a>'], 'photo_reference': 'AUGGfZk-KFvuH5oH3g7VVzmn-NI8p_hY2mI_E9M6_9ocywjGMaQznqk4KbxlrP6Y1bFRJMiZFvqC4QQjkqZdsywqiJiX7Vm_rlGWbRqD9Kw15wxX_8AzBB7XU4mj5nSuoCzpmbgazHv_CYbjsyhzwRlnHNuijCSGF2_nA-XKTUV8OUYhic7A', 'width': 960}]",ChIJgyqyslQNrS0RVJJAf5iZDlA,0.0,"['tourist_attraction', 'point_of_interest', 'establishment']",0.0,-8.5270782,122.0494385
"9247+49, Tuwa, Tana Wawo, Sikka Regency, East Nusa Tenggara, Indonesia",Tiwu Pereposa,"[{'height': 3264, 'html_attributions': ['<a href=""https://maps.google.com/maps/contrib/106613594900403053689"">A Google User</a>'], 'photo_reference': 'AUGGfZkgaTCYWiEd6jOQFsMZy8R0bBH1tCPMGsFH8b4eVAlaB6LwBR9BOEZhHKInQBaOzQEIdz5zTH4mLzH1fncz3T1R6s_J0bRQL2gLlFIEzA_Bb6EZ4MlKsxdkoNe8YJ3BCEjtoWnWY_A78LvhZl8tdArgzDLHplDV9gcsCR1LCWcTG1tw', 'width': 1836}]",ChIJxTXhbwATrS0R3SbfTE9VTg4,1.0,"['tourist_attraction', 'point_of_interest', 'establishment']",1.0,-8.6446752,122.0134651
"C23J+HCX, Done, Magepanda, Sikka Regency, East Nusa Tenggara, Indonesia",Air terjun Muruwawe,"[{'height': 1440, 'html_attributions': ['<a href=""https://maps.google.com/maps/contrib/115052119679557396432"">Irwan Prasetyo</a>'], 'photo_reference': 'AUGGfZm8xOQjE_yZnfQFT3K757CJkdlwlptj59NTDDVr-RMyXqRVVBfn-LaIhTjSiss2yiKs932t_cAMigUAcXEUYAwgmyXBenN2mi6AvyJ64xFKcRPXyTPuvsXBZPmuO2csn4YORBcrclPsUrOSsbaj2X3lJf4jdB172S2hVEmxo46U3Ad9', 'width': 1440}]",ChIJL5pdLq0TrS0R5zocGVs396U,5.0,"['tourist_attraction', 'point_of_interest', 'establishment']",1.0,-8.5960202,122.0311064
"F2CW+2WM, Magepanda, Sikka Regency, East Nusa Tenggara, Indonesia",Nanga Bega Magepanda,"[{'height': 1568, 'html_attributions': ['<a href=""https://maps.google.com/maps/contrib/106585376953318662895"">oswaldbl oswald</a>'], 'photo_reference': 'AUGGfZly2sdo_mnbmTWW_vhpdFBTgbY_IUBkh-sbwfq9VqJaeIttZU3GOXHdlA5QCCJkgvx7ubtwyudT4v_g8-lZj4OVzybrBUTw-ZRikZGIUtDdGf2rNscCnOZ4AnS6koyLmecpB1-DoyVNNLDI_Q0dpoV0z9H3udoWgg02Wa463ubXw9jx', 'width': 3140}]",ChIJF99nbKkNrS0RkfnExjBw6Ds,4.7,"['tourist_attraction', 'point_of_interest', 'establishment']",3.0,-8.5299076,122.0473094
"72W4+JH, Tuwa, Kec. Paga, Kabupaten Sikka, Nusa Tenggara Tim., Indonesia",Air Terjun Murugai,,ChIJT8yBaKQVrS0RcI6qV8ZwidU,3.0,"['tourist_attraction', 'point_of_interest', 'establishment']",1.0,-8.7034375,122.0064375
"jln poros, Jl. Raya Maumere - Magepanda No.km 20, Indonesia",Maumere - tanjung kajuwulu,"[{'height': 3120, 'html_attributions': ['<a href=""https://maps.google.com/maps/contrib/103529803939247934956"">Ismal Mubaroq</a>'], 'photo_reference': 'AUGGfZmMbb0WqIOtIsHqaw9kVo3mZFntQhtgTELdfT94T66-oLFWknyOaniIzWoKM9XkZQ_A7VWEfMBJkipBWy1tckhlbS_XTd-JaejgkOgB7KOyUOBuIxYmsB9xZnGMbX4eCAdnd1Y1TX6_QHK6sjIjJe8-hbOxOX9ijqB0EBkjAYIifZ5o', 'width': 4160}]",ChIJm460aDQNrS0RR7HDOQVqMiQ,4.5,"['tourist_attraction', 'point_of_interest', 'establishment']",17.0,-8.5222871,122.0659295
"G93W+FVV, Kojadoi, Alok Timur, Sikka Regency, East Nusa Tenggara, Indonesia",Batu Purba,"[{'height': 3472, 'html_attributions': ['<a href=""https://maps.google.com/maps/contrib/111580401772193155109"">Christoper Tambanua</a>'], 'photo_reference': 'AUGGfZnuCR9arQ0O0WOWtJ6KKYWVoBkCIah91eLbO03ow67oZyw0LPA6hm3GgCtCDw0D5ZjDxEvbxMI2JuMzhHLx9XVVrPixi60QN-36OCv3783ryINYEPI-dWYnkVbP3F_aiQ1UxDnS8cjsXV_WqeKvWgGMSA5lLZnuaG3Xbm3uaO3idsmx', 'width': 4624}]",ChIJM7LvaHb9rC0RIlNCeDatHGA,4.3,"['tourist_attraction', 'point_of_interest', 'establishment']",3.0,-8.4962573,122.3971799
"G89X+79, Kojadoi, Alok Timur, Sikka Regency, East Nusa Tenggara, Indonesia",Dusun Le Bantour,,ChIJX8ZELgADrS0Rk8ttQuSk6Uk,0.0,"['tourist_attraction', 'point_of_interest', 'establishment']",0.0,-8.481767,122.348441
"G93X+CMW, Jl. Kodim, Kojadoi, Kec. Alok Tim., Kabupaten Sikka, Nusa Tenggara Tim., Indonesia",Pulau Koja Doi,"[{'height': 2304, 'html_attributions': ['<a href=""https://maps.google.com/maps/contrib/106621301046221522224"">AGUS TOLIQ</a>'], 'photo_reference': 'AUGGfZnxJxihve-H0uNn2javLOlBOXCFdmsmm12BtdFfVngxFXF5KIgMAid3JPIC_lBwp2ZnVinsW1fbRaJLIxBNSw7KyU8UtGR8IK6cZLf5x9awCObswhYfElOc-hWx30VMPVdt95H73FBgfOEABo9zW1OB0vBIS7tih1DiWmkwZsgNEAXu', 'width': 4096}]",ChIJx2gEQ6v9rC0Rlm8MDz5K-8s,4.7,"['tourist_attraction', 'point_of_interest', 'establishment']",19.0,-8.496383,122.3992031
"GCHX+5P, Parumaan, Alok Timur, Sikka Regency, East Nusa Tenggara, Indonesia",Pangabatang,,ChIJhzFJJAD7rC0RhPCDyqMdGxA,0.0,"['tourist_attraction', 'point_of_interest', 'establishment']",0.0,-8.472085,122.449331
"G9G8+RXF, Kojadoi, Alok Timur, Sikka Regency, East Nusa Tenggara, Indonesia",Coral Translantasi,,ChIJrWfOLAD9rC0RwWO5VD1_k-4,0.0,"['tourist_attraction', 'point_of_interest', 'establishment']",0.0,-8.4729337,122.367428
"7695+3XH, Sikka, Lela, Sikka Regency, East Nusa Tenggara, Indonesia",Hira hotak,"[{'height': 3456, 'html_attributions': ['<a href=""https://maps.google.com/maps/contrib/108560631857034242362"">alexius marselino lory</a>'], 'photo_reference': 'AUGGfZkbfCZrso_3DBgYt5bG5sc0acm3w5ofKrPwdAvEVp7YT_xi-PQbVPK6SbPSvy-io1UT5zQ7kQXoyZ1ds7DiMe6lUZ_MnreuCqL59919Ww03utbydBkyGQxJqRltV1KNNphHt6heRhgtwryFb49QvLf_BpVOzoRhNxQ6mqCYLM8DMpVd', 'width': 5184}]",ChIJ9djx4rQjrS0RjfCnVgs3ouc,4.8,"['tourist_attraction', 'point_of_interest', 'establishment']",4.0,-8.7323238,122.2099742
"GFF5+3G4, Parumaan, Alok Timur, Sikka Regency, East Nusa Tenggara, Indonesia",Kampung Nelayan Pangabatang,"[{'height': 1333, 'html_attributions': ['<a href=""https://maps.google.com/maps/contrib/111453949056374991629"">Benny Vicenso</a>'], 'photo_reference': 'AUGGfZlPtcYpu2ZNPleyT1JPhjfqqHc0L2Jqgbn6Igs08g8Aq21kCydZMPzondDC4iw14BjzbK2Yf9DmxDgjdFxIledXdYiGTlbdfeEK-DhKbvQ_Acy_W-P_allZH7kucPNyyA78Vl05m70Zm-QfzAlN3s_e9YPfuChcGWxHKzkpX1CCT1hb', 'width': 2000}]",ChIJd1JXbbH7rC0RnhsYU0Vx2xI,4.4,"['tourist_attraction', 'point_of_interest', 'establishment']",5.0,-8.4773601,122.4588226
"G9PG+X6V, Pulau Besar, Kec. Alok Tim., Kabupaten Sikka, Nusa Tenggara Tim., Indonesia",Pulau Besar,"[{'height': 4608, 'html_attributions': ['<a href=""https://maps.google.com/maps/contrib/110643111605755962337"">Rahman Anggara</a>'], 'photo_reference': 'AUGGfZnlRk9w3pnq3d457Zg9cwacUlYAiwPl6EDYvsCSPXS_wihPDoGPQ3qTelVh2kpm--lvNsWQPEykleeh2W-ggEaf2HAWENjHBKcOCqbc7qyfZTnj56WbgDmO4FR7_PD908LftuLC_Z8aVHdYqNgazx1G1rLTSQsINWH4GOjyLrzWMMEC', 'width': 2592}]",ChIJG437CJr_rC0RXlGNsGlzfhw,5.0,"['tourist_attraction', 'point_of_interest', 'establishment']",1.0,-8.4625,122.3755556
"764M+4R3, Hokor, Bola, Sikka Regency, East Nusa Tenggara, Indonesia",Watu Melur,"[{'height': 3456, 'html_attributions': ['<a href=""https://maps.google.com/maps/contrib/108984167709964897374"">A Google User</a>'], 'photo_reference': 'AUGGfZmouHJdS2e4bpvimwJGQqDMC0JjtbF2GgPHA82a225CY-HOhFbhhnjmVeUuW1lralZweuXX4GlCETe7K7Y-HfGyNSebp2EuZ7d-bxGKsDjFCufNjMHFGuawguhtoGxNPeR8Ohpgt12EbEapqL7qRDEti41Ej0NWl_6_vLIvfmGCEHtd', 'width': 5184}]",ChIJo9pNyrMjrS0R3-pklP1cSy0,5.0,"['tourist_attraction', 'point_of_interest', 'establishment']",2.0,-8.7447266,122.2345576
"Umauta, Bola, Sikka Regency, East Nusa Tenggara, Indonesia",Sanggar Doka Tawa Tana - Desa Wisata Umauta,"[{'height': 4160, 'html_attributions': ['<a href=""https://maps.google.com/maps/contrib/107453429248440706200"">sinyo delta</a>'], 'photo_reference': 'AUGGfZlSJHt9MZSa8KuAJLn8ZMK7e4aY64O2fzUJcGU_nbcp3egw4wOdYAPkUzJorU1pTiWigB7BcylkA0y0eJNjmhvPLOD1dGC62fmwS7DXJh0p4ASOD7z74wiFC9zZ8VkdTRVVX4q1ComYI5y-iXkeMEr3cr6qwjHM_zB7VTntX9Ywlc3f', 'width': 3120}]",ChIJHUa9mQ0hrS0RxWe_MgYBq_Q,4.5,"['tourist_attraction', 'point_of_interest', 'establishment']",18.0,-8.7143687,122.3092659
"977C+6JC, Tanaduen, Kangae, Sikka Regency, East Nusa Tenggara, Indonesia",Pantai Galilea Bolawolon,"[{'height': 4160, 'html_attributions': ['<a href=""https://maps.google.com/maps/contrib/116418529643484863242"">A Google User</a>'], 'photo_reference': 'AUGGfZk6RriP1ruyj-Bom4Bq20wua7JpYgO482_HO7BR_SrPEEE2ChpzO1Jc31w3fNtjjcgWDGc17Dg1srG4PzHWsY9PW-CmrJxzAq_axUw8uxKWX5J6KC5YxJoCLZ0g_92kDAnfRjuMdz0T35XVvWrAXXTOzGbXjBbmtqtRptLs2Ts7XS0', 'width': 2352}]",ChIJ7_rQZ_QfrS0RkkTT7rP9r7Y,4.8,"['tourist_attraction', 'point_of_interest', 'establishment']",4.0,-8.636936700000001,122.2715211
"Belok persimpangan pospol nebe, Wailamung, Kec. Talibura, Nusa Tenggara Tim. 11345, Indonesia",Wailamung beach,"[{'height': 2252, 'html_attributions': ['<a href=""https://maps.google.com/maps/contrib/102724233805191906980"">Lucky Kartasasmita</a>'], 'photo_reference': 'AUGGfZnCK27ElOyoDnQjLnzqGp8Q-FSt5jD1xxI6GIxAs7wVZDH0nTuTEZpuG3xbcknQvjsxIdBeCi5FrhqeE2zgWMc7wBmKf3VTKR19dcuDA2qabQPYy8W8FEDlX2mRo_o5pXJg24m2xAS7938UjTbom5DBDhLy2XMelZgcOO3950JKIEJH', 'width': 4000}]",ChIJU5fRdAj3rC0RwiPxhgh7gMc,5.0,"['tourist_attraction', 'point_of_interest', 'establishment']",1.0,-8.425898,122.5903287
"GFCF+FH3, Unnamed Road, Darat Pantai, Kec. Talibura, Kabupaten Sikka, Nusa Tenggara Tim., Indonesia",Taman Wisata Alam Laut Teluk Maumere,"[{'height': 960, 'html_attributions': ['<a href=""https://maps.google.com/maps/contrib/107319215225289737218"">A Google User</a>'], 'photo_reference': 'AUGGfZle6jZx1fWO2r5v5hbYdx93bHBpz7te1sNQaPuNm2CAOS9g1HC4lXFiJqZwjAnW0iJLOkg-V0t8i7t7s01Xl1r7vqQy3otY6oFF8rjz7qZFw94C50hpEIP5reEo0mmOpF3wvLTRIQcO-J0P_r66RyFEKEsIVSyK7RCgvL8i71eq_Z4J', 'width': 1280}]",ChIJk0cBqRr7rC0Rm9bJcevl2Zc,5.0,"['tourist_attraction', 'point_of_interest', 'establishment']",3.0,-8.4788632,122.473926
"7626+4WH, Sikka, Lela, Sikka Regency, East Nusa Tenggara, Indonesia",Jembatan Alam Wukur,"[{'height': 3456, 'html_attributions': ['<a href=""https://maps.google.com/maps/contrib/106585376953318662895"">oswaldbl oswald</a>'], 'photo_reference': 'AUGGfZkgQiWWrZTdeaUQm5JYAVZ797gPl3AuNVN24GA5nQVe9uZtptn17nRuUxKr4uoHQwvQ_lkt9-qVj2crqQae9Jw_-mzh355cLsU6ZOWeuaSXM73ei2ialf3dluIS3dulLLdhyn5Wl_oAQKjdDvPJ4-P4kVm7R0VXNnfUJE8EiEFQPuMK', 'width': 5184}]",ChIJ6zOr_p8jrS0RMpDbiNJyrOg,4.4,"['tourist_attraction', 'point_of_interest', 'establishment']",7.0,-8.749678,122.2123631
"GGH3+RJ, Darat Pantai, Talibura, Sikka Regency, East Nusa Tenggara, Indonesia",WISATA LOPO DARAT PANTAI,"[{'height': 4624, 'html_attributions': ['<a href=""https://maps.google.com/maps/contrib/117404651418255788080"">A Google User</a>'], 'photo_reference': 'AUGGfZkZt3rdlmVqAJRjTbYzA3WuqFnrvnhMG8DF7b8iMqxRpXPOXiRXu4ti5gNgckINe4g9a1xBcZZGSKIZiidlsjtJLf-J8QYVB2WioJJPKH9cQ-WAfKgsyYJsbTamAdAeoO8HV0GX1sBEXffvtHeq9DXpaJ1QiE5POBXFMuCt0L-qIuoF', 'width': 3472}]",ChIJRZ_vErX7rC0Rw4vwyRbYZU0,4.0,"['tourist_attraction', 'point_of_interest', 'establishment']",5.0,-8.4704505,122.5040521
"8CXP+H98, Nangatobong, Waigete, Sikka Regency, East Nusa Tenggara, Indonesia",Air Panas Blidit,"[{'height': 1350, 'html_attributions': ['<a href=""https://maps.google.com/maps/contrib/101493642014070603491"">A Google User</a>'], 'photo_reference': 'AUGGfZntvwueSW0ep8CzckHj98M4jAuWTnA7vzFpBBLZuaj11CFmvegW4nbRE1812Il2mZsfaeG-hECzkLVl8Jmj7N35A1D-kOYj-3fTB6BxsP4NyMd6b6SHFVH3WCrc_aeQkVMCrHZkW_auxKfyi2deT-UujHM23Y9aRMQLfd8Q__HsAXWm', 'width': 1080}]",ChIJ-5BYHr_hrC0RKeLf_TMAsMg,3.9,"['tourist_attraction', 'point_of_interest', 'establishment']",17.0,-8.6510824,122.4359663
"7899+CJR, Ipir, Bola, Sikka Regency, East Nusa Tenggara, Indonesia",Dusun Krado - Mahe Lepo Tana Puan,,ChIJAYN3IwAhrS0RbXAIaEs8y-s,0.0,"['tourist_attraction', 'point_of_interest', 'establishment']",0.0,-8.7313878,122.3190285
"759J+J4X, Ililewa, Watutedang, Kec. Lela, Kabupaten Sikka, Nusa Tenggara Tim., Indonesia",Watu tedang,,ChIJ15MrOgAjrS0RpEHyxt3PnOw,0.0,"['tourist_attraction', 'point_of_interest', 'establishment']",0.0,-8.7308846,122.1803562
"88JP+R7V, Pogon, Waigete, Sikka Regency, East Nusa Tenggara, Indonesia",Siku pauwolot,,ChIJuzC9Oe8frS0RGQEeSrn3ctk,0.0,"['tourist_attraction', 'point_of_interest', 'establishment']",0.0,-8.6678923,122.3356708
"88HW+9HW, Aibura, Waigete, Sikka Regency, East Nusa Tenggara, Indonesia",Kampung igot,,ChIJmUTpcMgfrS0RNU6D75F8f68,0.0,"['tourist_attraction', 'point_of_interest', 'establishment']",0.0,-8.6715277,122.3471232
"973X+MWJ, Namangkewa, Kewapante, Sikka Regency, East Nusa Tenggara, Indonesia",Lahan Petani Cb,,ChIJI56ccAAfrS0Rt3XKRGRms8Q,0.0,"['tourist_attraction', 'point_of_interest', 'establishment']",0.0,-8.645788699999999,122.2997589
"98HG+JW6, Wairbleler, Waigete, Sikka Regency, East Nusa Tenggara, Indonesia",Wairita Mieke colson,,ChIJBTOYpb0frS0R9EurhjyisLM,0.0,"['tourist_attraction', 'point_of_interest', 'establishment']",0.0,-8.6209733,122.3272725
"CFCW+34, Runut, Sikka Regency, East Nusa Tenggara, Indonesia",Pantai patiahu,"[{'height': 3072, 'html_attributions': ['<a href=""https://maps.google.com/maps/contrib/111911553114436553069"">A Google User</a>'], 'photo_reference': 'AUGGfZlghHg95EWhhmM7aGNEyWHlcZPz1OntiJ0oc3qJ7Ke3rgbWfo8kRl_1gCA4-FGbhx89ETjOkvfG55M3QbMj6Tcw2O67IYsyRidBOPlNqlljpz3qR3KoeaE8PNvOkUr6zPKKiWsUaVU1_iAt8bPI1Svu9CoZ5ROgcZDymeTQaHXDFNlg', 'width': 4080}]",ChIJBVpd7tjlrC0RuzAjJNotFV4,4.3,"['tourist_attraction', 'point_of_interest', 'establishment']",3.0,-8.5798407,122.4952549
"77MX+FWV, Rohe, Umauta, Kec. Bola, Kabupaten Sikka, Nusa Tenggara Tim., Indonesia",Sanggar Budaya Pesa Lin Tahi Puhen,,ChIJ8ZVvFQAhrS0Rq6bJyiReCBI,0.0,"['tourist_attraction', 'point_of_interest', 'establishment']",0.0,-8.7163618,122.2998607
"757P+F48, DU, Lela, Sikka Regency, East Nusa Tenggara, Indonesia",Pantai sikka,"[{'height': 2128, 'html_attributions': ['<a href=""https://maps.google.com/maps/contrib/102109727063406767504"">A Google User</a>'], 'photo_reference': 'AUGGfZkEb3obIty3DYHiNW18OdrJJSLghlPMFmbqOrIu5i2q6Yr8OajDDIHmgz3Fu25EVoljwSbu_M3-MXyB90yInM0knd4UfYikRIjyyoDWQe5qxGmKtoCLMy-P3KdA5f0zw29nu_tFMxNBWYxfFgFlRxHt_pZN9MTXvr8casJkok_B8pNl', 'width': 4608}]",ChIJCdYY7wQjrS0Rajdz3dqDiu0,4.7,"['tourist_attraction', 'point_of_interest', 'establishment']",10.0,-8.736334,122.1853314
"7927+3RF, Wolonterang, Doreng, Sikka Regency, East Nusa Tenggara, Indonesia",Tanjung Ogor Paret,"[{'height': 3120, 'html_attributions': ['<a href=""https://maps.google.com/maps/contrib/111956246354779454008"">A Google User</a>'], 'photo_reference': 'AUGGfZkZhQkXkSV5SJtmIdd23R18oXYMASUwekz6dbpKcNQX2wYTqqJBQFy9ISeJuL4rZzpg0tKxEfx7Uf3pbaKw4KCSXWyTXVz-5DewLbg0j_MPsX1RHpft70N6xAeAEfh8lYPuOs23eAJrYwiN8nVTTJLer68JsbbnXActlnMaJLGLGE97', 'width': 4160}]",ChIJPReueGffrC0RKsmDnXfDsR8,4.4,"['tourist_attraction', 'point_of_interest', 'establishment']",22.0,-8.749803199999999,122.3645539
"J7VX+9M5, Unnamed Road, Gn. Sari, Kec. Alok, Kabupaten Sikka, Nusa Tenggara Tim., Indonesia",Pantai Sawengka,"[{'height': 2304, 'html_attributions': ['<a href=""https://maps.google.com/maps/contrib/115241082446951620418"">Evi Grassa</a>'], 'photo_reference': 'AUGGfZkF4GPV92WhOeaY_qtFTMhgN4mDtPfy0WEeCZnPJs9M91cLRKKCNW6ditckjqvjL0uESzievKWBM11kqigJhsZSzegD8aQk7whHPDhX_MMdbmM7Zf1lLpBnOhln53rSoHxrUYXcw7FzayfFRqYyXW8ilkvjwMDeQbLZAMdyFAqYdp3k', 'width': 4096}]",ChIJEzLHwayrrS0RCbxKgU8A4xw,3.1,"['tourist_attraction', 'point_of_interest', 'establishment']",9.0,-8.356611599999999,122.2992397
"99J2+FG, Hoder, Waigete, Sikka Regency, East Nusa Tenggara, Indonesia",Mage sayang,"[{'height': 1080, 'html_attributions': ['<a href=""https://maps.google.com/maps/contrib/115637914498909037018"">A Google User</a>'], 'photo_reference': 'AUGGfZnmCq2skxDqrCXat6fB9qX_ACN1eCHzVHnoRo-FM9J3Mrr-JVBeH0jFmRnFGUwF7MgQv8oloMqUxY9gZZSowcVW55CbQNuUcuTSUXNSGASBYNYMceAChfRPDJ3opwTBJ1q0Drwep0ynQzgg6A9qEUsSo6CUNZLSBy2QuUTUe-eG0f1i', 'width': 1920}]",ChIJ21kC-gIfrS0RGOH4FoIrs1Q,0.0,"['tourist_attraction', 'point_of_interest', 'establishment']",0.0,-8.618846699999999,122.3513617
"8CPR+8RC, Nangatobong, Waigete, Sikka Regency, East Nusa Tenggara, Indonesia",WISATA ALAM EGON,"[{'height': 3456, 'html_attributions': ['<a href=""https://maps.google.com/maps/contrib/106585376953318662895"">oswaldbl oswald</a>'], 'photo_reference': 'AUGGfZlsI0pBcduopFlsAzkz98OXkd-BTwvFjxpkauHtsTt_zvdyYqEu45N7RuZps_NqZmW9YlJfer_-07P_a6YHwovclhfUfa0Xrjzy6eSlBzmPPcOJeOA_fXkQdjR2cOu8KtvWh_Vkce_bP2ZStvO0-tBE_UuGvkJav8TO7vzMaM9CVRhu', 'width': 5184}]",ChIJr7Ngq1zhrC0RjIYShAoqVtU,4.6,"['tourist_attraction', 'point_of_interest', 'establishment']",14.0,-8.6641908,122.4420153
"CV3X+M9V SOMBULOU, Ndikosapu, Kec. Lepembusu Kelisoke, Kabupaten Ende, Nusa Tenggara Tim., Indonesia",Sombulou Lasugolo,"[{'height': 640, 'html_attributions': ['<a href=""https://maps.google.com/maps/contrib/112425292707768186728"">Desa Ndikosapu</a>'], 'photo_reference': 'AUGGfZnaAoiqyF1kMacDafZoiwmjcYUjuU1gS1ZIRi23anmXPBeBun5SNpvLbwn-iS5YSv6LwytI2WeGx_URerctIyLiqPCSJ6ZX-NflEa3tSrXKlGYKxcbgblTCxW6ATcf_fCTGYjnjnqmiNYMe0E5IpPVYnPknmMzXopSLLjgEe-T_hYn8', 'width': 480}]",ChIJyx3-DglurS0RArVq-ZSNxlQ,4.8,"['tourist_attraction', 'point_of_interest', 'establishment']",5.0,-8.5957648,121.8984349
"7X8C+9P, Detubinga, Tana Wawo, Sikka Regency, East Nusa Tenggara, Indonesia",TANANUWA HILL,,ChIJhQSHQQBBrS0RA2FpYWVIJCU,5.0,"['tourist_attraction', 'point_of_interest', 'establishment']",1.0,-8.734036,121.97186
"Jl. Raya Kewapante Ohe, Kajowair, Kec. Hewokloang, Kabupaten Sikka, Nusa Tenggara Tim., Indonesia",Sanggar Budaya Tenun Bliran Sina - Watublapi,"[{'height': 2592, 'html_attributions': ['<a href=""https://maps.google.com/maps/contrib/101844050490016441861"">Asri Wijayanti</a>'], 'photo_reference': 'AUGGfZmMxJ2j71I14MYkmrAKtoMh-bFRKisU5lZdcHMT-xaoZjNzxWcQd7EHVQQKPn6-DY1GvH801pAWIG0lTe5I8kq9pJzsB3cydBJ_x-0wPXL7Zx9na3XFak2NGADpBrTiNjlXSIwDRp-kpWC1q49WDNsp5ijPBb7ColnPYOs0Zg42t87s', 'width': 1944}]",ChIJE55hIpsfrS0RIn2-f__qHcg,4.7,"['tourist_attraction', 'point_of_interest', 'establishment']",69.0,-8.700733,122.3131865
"Tiwusora, Lepembusu Kelisoke, Ende Regency, East Nusa Tenggara, Indonesia",Tiwu Sora Or Lake Sora,"[{'height': 405, 'html_attributions': ['<a href=""https://maps.google.com/maps/contrib/106690833578614258197"">A Google User</a>'], 'photo_reference': 'AUGGfZkIQu0d05OtpV2UYW4GeNGFcyWlhy19mLkENWc8aJIf0BDLj-Z0rv0QsaXWwVyCTxqiIrtmjAVNJipKL1-rbINCQOMN5E6pavLLw_dasRLmV7CvfK-8dDhZCU8qDRAtR7FJX4TjbpHFXQMtKUYlw2t12hOcieEaq0B9hoJ80urpP6Ma', 'width': 720}]",ChIJmYFX1YFsrS0RGQl-FBBeJic,4.0,"['tourist_attraction', 'point_of_interest', 'establishment']",7.0,-8.6549522,121.9501985
"794W+F26, Unnamed Road, Nen Bura, Kec. Doreng, Kabupaten Sikka, Nusa Tenggara Tim., Indonesia",Doreng Beach,"[{'height': 3024, 'html_attributions': ['<a href=""https://maps.google.com/maps/contrib/116820834905309946912"">Syukron Makmun</a>'], 'photo_reference': 'AUGGfZmugFF1eMCrPV81ltEs7FOjqHu_-SehKZ0Ai1KUa_Abes31yYYHHfRcE5eaB-keGFUWDVoDNQdz6ElBdpzdsATixTpoBYQWSVr9JXpI59ywUlWfBVnX_Nnf1iYjOi88dT-T7K9WHsRrOfw3WKMeTwzaHqg0KEy68Zc6WCZgYgob9Cfz', 'width': 4032}]",ChIJE6B9FtbfrC0R_wTAo4IjQBU,4.2,"['tourist_attraction', 'point_of_interest', 'establishment']",5.0,-8.7438257,122.3950017
"627M+GPQ, Mbengu, Paga, Sikka Regency, East Nusa Tenggara, Indonesia",Aewige Beach,"[{'height': 952, 'html_attributions': ['<a href=""https://maps.google.com/maps/contrib/116971922513184087402"">A Google User</a>'], 'photo_reference': 'AUGGfZlZ2szzvd4EQCEn6UPFp547q-3xOQqElGLj0wYKp9wbzgTvijzivVUw5YCT4m7P6-LpRSx6LXQHOX1I5UxniUwfsUruRhQ9bEs_JBt7AvX11CH_sF-zmvGL3AUsBu0G-_349kmYpU1vfpHVk0T79gkrTyKN0lK-gjjGibjNgZDMBFqz', 'width': 720}]",ChIJAbXgxgU_rS0RY8wEkxiJDGI,5.0,"['tourist_attraction', 'point_of_interest', 'establishment']",1.0,-8.786166800000002,122.0343626
"63P7+62F, Paga, Sikka Regency, East Nusa Tenggara, Indonesia",Watu Ngesu,"[{'height': 2268, 'html_attributions': ['<a href=""https://maps.google.com/maps/contrib/105244314827196352336"">novel yushar yahya</a>'], 'photo_reference': 'AUGGfZmNhNO05aA5KnwXpyqfv5vGnTOPfw94p-DQGACiboyHoW67lq3PW_WKeCcJC1XgXjujoWI1oCM59xFfot_li3rqRazCYgR22A12stozHxr0LD7pinDyJwnt62l9VeE8z9lWJj6ZS6BC8OC8Uif-24MZQG-bPXjIvU2gMMp0nL_DgSDO', 'width': 4032}]",ChIJxxENT58_rS0RoNgSpf0oaFQ,4.4,"['tourist_attraction', 'point_of_interest', 'establishment']",7.0,-8.764426499999999,122.0625526
"Jl. Nasional Maumere - Larantuka, Dusun Wodon, Wairterang, Maumere, Kabupaten Sikka, Nusa Tenggara Tim., Indonesia",WODON WONDERLAND,,ChIJ4UdLXQPnrC0RaMsa676y42A,0.0,"['tourist_attraction', 'point_of_interest', 'establishment']",0.0,-8.6099667,122.4702456
"7VRR+2QV, Desa Lisekuru, Kec.Lepembusu Kelisoke, Tanalangi, Flores, Kabupaten Ende, Nusa Tenggara Tim., Indonesia",Mbotulaka Beke,"[{'height': 2352, 'html_attributions': ['<a href=""https://maps.google.com/maps/contrib/116494763492397850202"">A Google User</a>'], 'photo_reference': 'AUGGfZn6wJgYfbJ4CB35NAPHFxXa5AKkZrenYUxzCkNedhzy4pRP0RLGob9nfFq-sqmUf2f7Z4GMtR533yQCnjsq3Ho-qr-w7tzwcixxT5XfgFC3mHpHyie-EJAnxEdsgf2NhZ-0p8PGy3K1fI_p-vW9FQeNmLU42Ue-dnfAGsiD7aBL_FtM', 'width': 4160}]",ChIJPQUAmpFprS0R0vMm7_grefA,4.5,"['tourist_attraction', 'point_of_interest', 'establishment']",2.0,-8.7098821,121.8919135
"Loke, Tana Wawo, Sikka Regency, East Nusa Tenggara, Indonesia",Air Terjun Murusobe,"[{'height': 4624, 'html_attributions': ['<a href=""https://maps.google.com/maps/contrib/115052119679557396432"">Irwan Prasetyo</a>'], 'photo_reference': 'AUGGfZmzcozhEbkpZgYvF1dGslPZ47_sX7C74Zx1ClpDqMGBB7vpns21JVcSucjAEYNZwK7NAaE5JNBx5Tch3zjc_wFXpLEbP8nl-AJaN-ZpDGuBfDdBK2aITox23CBePdfQl_UELxckBdrROjQowz-GWQjlmwkU7K7P6E6i3KxnooWkSRCr', 'width': 3468}]",ChIJQ-7ml3FrrS0RpP5XRwGmEGM,4.5,"['tourist_attraction', 'point_of_interest', 'establishment']",19.0,-8.672367,121.9754934
"52W2+4V, Wolowiro, Paga, Sikka Regency, East Nusa Tenggara, Indonesia",Cave lia,,ChIJoYV_-5Y5rS0R4IHKkOIzw6U,0.0,"['tourist_attraction', 'point_of_interest', 'establishment']",0.0,-8.8046875,122.0021875
"62QG+7V, Wolowona, Paga, Sikka Regency, East Nusa Tenggara, Indonesia",Loka poâ€™o,"[{'height': 415, 'html_attributions': ['<a href=""https://maps.google.com/maps/contrib/114011150307563229557"">A Google User</a>'], 'photo_reference': 'AUGGfZnw_sivKuIW06OjqhHQlFWfrGlncRkDerFgw2_-t5iGdRdvqdpcbFVH22K2v4wr0CTWPhMuP0Jcd2u8PmCzwZ6U-0axNOxPcuieYmi2Wy5aqo7XEJBQqeeaXZKJHbIcduspUoFVKtkIBNjloBbKEEBy_uUn--mnI0Sgm4y-gDhO0Sl5', 'width': 739}]",ChIJyb-z33Y_rS0RCUkaEEuUh8g,3.7,"['tourist_attraction', 'point_of_interest', 'establishment']",3.0,-8.761841,122.0272255
"7X8C+9P, Detubinga, Tana Wawo, Sikka Regency, East Nusa Tenggara, Indonesia",TANANUWA EAST NUSA TENGGARA,,ChIJj6QcPwBBrS0R_LiSMm3JuVE,0.0,"['tourist_attraction', 'point_of_interest', 'establishment']",0.0,-8.734036,121.97186
"62FW+562, Paga, Sikka Regency, East Nusa Tenggara, Indonesia",Watukubi,,ChIJ-zULbwA_rS0R8QsbLo9tJ0Q,0.0,"['tourist_attraction', 'point_of_interest', 'establishment']",0.0,-8.777123999999999,122.0455049
"629Q+5CP, Mbengu, Sikka Regency, East Nusa Tenggara, Indonesia",Mauloo paga,"[{'height': 4080, 'html_attributions': ['<a href=""https://maps.google.com/maps/contrib/114324747683229413645"">A Google User</a>'], 'photo_reference': 'AUGGfZk8Q2mWNZmHf1VHzTegaDHJYvWB3Hrcdt0JB42UZkHf9esRB9kO0buPwmdxCXyT8Gcgt5XSydDrcHHpMXUdyoqy41anRJ27FbG_4zoI_SLFYFEmx5Q7pm0RXRmPzVFQVtv4v2foD4W3816S5IC7aa-DSywA5h0v75rIk3NGbWTSITe4', 'width': 2294}]",ChIJxzbMH8s_rS0Ru4OeeT6wWhc,2.5,"['tourist_attraction', 'point_of_interest', 'establishment']",2.0,-8.7820482,122.0385626
"74CV+C3H, Bangboler, Hepang, Kec. Lela, Kabupaten Sikka, Nusa Tenggara Tim., Indonesia",Pantai bangboler,,ChIJoQpktjs9rS0RU_lBU9jGNYc,4.0,"['tourist_attraction', 'point_of_interest', 'establishment']",1.0,-8.7289417,122.1427417
"7225+RHC, Lenandareta, Paga, Sikka Regency, East Nusa Tenggara, Indonesia",Kubur Batu Nuabari,"[{'height': 3456, 'html_attributions': ['<a href=""https://maps.google.com/maps/contrib/106585376953318662895"">oswaldbl oswald</a>'], 'photo_reference': 'AUGGfZlYECChQcgyR8d3QLz6EbIVE0YsGWk7Naa4UlMaU8KjOVN-UK9BrnX8oU1SH7Jk9wu7X-zNCArH-guvOgXNoIe6nqZsKfLsAuc9R682PkR0tg5bRjyy0VhdjfkrVYRmw2S5__cWqfPnXUr3mQtoy_E5jbJ_kxXj-w2PaZqE71Bx8TYf', 'width': 5184}]",ChIJZeOw0cc_rS0R12SLjubG_4Q,4.0,"['tourist_attraction', 'point_of_interest', 'establishment']",5.0,-8.747927299999999,122.008879
"6XFF+4GQ, Woloaro, Lio Timur, Ende Regency, East Nusa Tenggara, Indonesia",Pu po'o bhoro,"[{'height': 1080, 'html_attributions': ['<a href=""https://maps.google.com/maps/contrib/107295068441200226050"">A Google User</a>'], 'photo_reference': 'AUGGfZlsOsAaNHGO8Qa-4N-2VnorvUXQ43j7kXKueV2t9GVANwD81w_vE5eKRN-8ViKXtHMYAMDXKIfdTAjThlbHdlIqjXBZNEbNkorw1DQLugI2ZTN35ykl6S71Gu6wZGYNvBv9fgzpMEk6fxiar4UO5RRchVsA-vTYz1MW_Tr55NFHqovs', 'width': 1920}]",ChIJrQq8PH9BrS0RqwQOm6xP37M,5.0,"['tourist_attraction', 'point_of_interest', 'establishment']",1.0,-8.7771711,121.9738606
"8VR3+XF2, Jl. Trans Ende, Mukureku, Lepembusu Kelisoke, Ende Regency, East Nusa Tenggara, Indonesia",ALOBEWA TELETUBBIES,"[{'height': 2322, 'html_attributions': ['<a href=""https://maps.google.com/maps/contrib/105109734595354936672"">Dens Jandet</a>'], 'photo_reference': 'AUGGfZnNERZ-AaG0UmCwqwTwvqXU5QBvn5nDR2C5PMMl8aGmfpAo6XGDObo3lnm34Ak4it1ur_FrZ9Zxii2pfvmInVTNymxPVQdxQJnSqEIyCyt3yTikemh_uqUWKovd_pJDHG0N6x0WY4iJrECZDtbp2zs20TSGHsrS6aZ9O1i4Iri8sANp', 'width': 4128}]",ChIJHeFVH4hvrS0RaO-0cmfqj6c,5.0,"['tourist_attraction', 'point_of_interest', 'establishment']",3.0,-8.657612,121.853649
"75CF+G74, Lela, Sikka Regency, East Nusa Tenggara, Indonesia",Pantai,"[{'height': 3264, 'html_attributions': ['<a href=""https://maps.google.com/maps/contrib/111135006692116526794"">A Google User</a>'], 'photo_reference': 'AUGGfZlZ5fzMYBLPNPNboDv_nonvW9QhYmbyjdr_MKkgvMUJkqZYzDeAAzOZGh0YhI0A9MaDYCaVjnrD2LBvCawZisBr5cTHLkZqQEYHCrlzxjP2EzWQ8MBLbxVG8qjExMaR3udWRGEZHiWNucX1iOflEECflGQ4Lfv3jY3V9YdtRWUF91sF', 'width': 2448}]",ChIJTVdJXsc9rS0REahX2NN_54Q,1.0,"['tourist_attraction', 'point_of_interest', 'establishment']",1.0,-8.7287435,122.1732061
"794M+62H, Waihawa, Doreng, Sikka Regency, East Nusa Tenggara, Indonesia",Wisata Pantai Doreng,"[{'height': 3456, 'html_attributions': ['<a href=""https://maps.google.com/maps/contrib/106585376953318662895"">oswaldbl oswald</a>'], 'photo_reference': 'AUGGfZkPga8jcPPzA43pyejPnRKYW9u0_H1pQGcKCe0WANhXt5KQB8WvTT_GsSljdNslJX3I7gD4yVM2dtlsaBTBqL5aFf89S-7LKnbiYb8zeJUIlQPloMtGfQNKJDo4RKMnLLqbzJpjE5d7rAv0canIxO8jHzQ_mXbrWhug_T1ywT0_mf8F', 'width': 5184}]",ChIJT2KimNTfrC0R2CdLwO3tFHQ,3.0,"['tourist_attraction', 'point_of_interest', 'establishment']",3.0,-8.7444297,122.3826066
"792M+Q72 Nen Bura, Kec. Doreng, Kabupaten Sikka, Nusa Tenggara Tim., Indonesia","Pantai pasir putih Doreng, Nen Bura,Kec Doreng","[{'height': 3024, 'html_attributions': ['<a href=""https://maps.google.com/maps/contrib/105244314827196352336"">novel yushar yahya</a>'], 'photo_reference': 'AUGGfZktL1mEhxlJOwtuQy2sd-GnLZCHNUr74NGiuScP-vsghXvryyfzgNC5Z13f0Zc_RGnj3flRQ9rsqNGltpedlbw5Oyc2GIXXWEjil93HiH81uAIc5zBN2YpWsIf-w7G88EfH2JTFQPaTD_UZC0bXGAh0NG15_yq9jQ34DzYQczBtGBJb', 'width': 3024}]",ChIJM--JFULfrC0RIrjfqV-uS6Y,4.5,"['tourist_attraction', 'point_of_interest', 'establishment']",15.0,-8.748121,122.3831474
"9873+5R3, Waiara, Kewapante, Sikka Regency, East Nusa Tenggara, Indonesia",Pantai Betesda,"[{'height': 3024, 'html_attributions': ['<a href=""https://maps.google.com/maps/contrib/101967315324238784563"">Patra Boma</a>'], 'photo_reference': 'AUGGfZnbHLH2FYY43vv9k4WsaAtCPyZVx0Rohgg_S46Kt_XzRqqBN0jIf9omixxU93WdPeXUD-63v04SWGgd2gKNSKUVuCHxfMnhEc9fFFoK9pt1pCIhMcDTJRgmCrwAzc1AgXvStc6XnMEOCShLFHuo8I0FetbfSsxj4EXarRHDFpG1LiCq', 'width': 4032}]",ChIJ6ZVWJB8frS0RSKCsE_IWe4A,4.4,"['tourist_attraction', 'point_of_interest', 'establishment']",11.0,-8.6371068,122.3045381
"8CV9+VWQ, Blidit, Kec. Waigete, Kabupaten Sikka, Nusa Tenggara Tim., Indonesia",Air Terjun Mean Miak,,ChIJfd0X1O7hrC0Rkvqqx8PxC5U,0.0,"['tourist_attraction', 'point_of_interest', 'establishment']",0.0,-8.655289699999999,122.4198543
"78MM+5W6, Baomekot, Doreng, Sikka Regency, East Nusa Tenggara, Indonesia",HABIGELE HA'EN HOLAR,,ChIJlbD8T5chrS0RTPZh9DGvRW8,0.0,"['park', 'point_of_interest', 'establishment']",0.0,-8.7170912,122.3347626
"Kajowair, Hewokloang, Sikka Regency, East Nusa Tenggara, Indonesia",Orinila,"[{'height': 3456, 'html_attributions': ['<a href=""https://maps.google.com/maps/contrib/102108621585626821443"">Orinila</a>'], 'photo_reference': 'AUGGfZn5Woj4ILb_rzA0eBJ9UBdrxDmvAM2H896exU1fgOJn_WmtBDZQECS_uoH0iSS-TYxGocPZX3fTcuMPvpeS1DvK95d4QIWc7nJ_Eq-vUE_RvAaEQPe6Qf8Qag4afbAUR8lsy_MWmXsyCQvNgVTCkhKUWxyc2DbV1ChQLCqQpV7Jzd_3', 'width': 5184}]",ChIJTZs-viogrS0RsxtUovNwsbo,3.7,"['lodging', 'point_of_interest', 'establishment']",15.0,-8.6987617,122.3119957
"Jl. Nai Roa KM. 13, Waiara, Maumere, Waiara, Flores, Kabupaten Sikka, Nusa Tenggara Tim. 86112, Indonesia",Sea World Club Beach Resort,"[{'height': 3024, 'html_attributions': ['<a href=""https://maps.google.com/maps/contrib/115714327274237483369"">A Google User</a>'], 'photo_reference': 'AUGGfZk-byG8l8qPIjaixi7OYVEAevaPxQ5KUJswFzRf_hOgPJChg6qrSTZAjg4BoCRDdTM8R5YGoQL6brn3h0qSj8Kyp_GFbxS6QKo9Pyie094TVvFVr_sYGp-GbaufqEb5u4c_Ye2gXzI-iIMGKgKXx1gxzoP0x6U8qhFdRcw5KaJ0MgiZ', 'width': 4032}]",ChIJne2VSYoerS0RDbb5hwDE9nI,4.3,"['lodging', 'point_of_interest', 'establishment']",398.0,-8.6371805,122.3077107
"Nairoa Waipare Street, Alok, Sikka, Watumilok, Flores, Kabupaten Sikka, Nusa Tenggara Tim. 86181, Indonesia",Capa Resort Maumere,"[{'height': 4150, 'html_attributions': ['<a href=""https://maps.google.com/maps/contrib/108350370956632019760"">Capa Maumere</a>'], 'photo_reference': 'AUGGfZnizu3iLLn-peHOy0qX_9FD4NviJKB7jn3g3Nhf-RSoDYidAn11p1SLX6VrX_SrbCbQI0Ai5EOFjfx0OuVfxVa1kOUfnlBfoEiZ6ImNBXdsaEWFY3_gabLA6EIZUa_IoY3rT4HD2H_VdK5j_aXQLunsiczhV5uC4d3zLZzew8osd6_u', 'width': 6226}]",ChIJFYxhTbIerS0Re44DgLI2fSY,4.4,"['lodging', 'point_of_interest', 'establishment']",1025.0,-8.6394761,122.281575
"98CC+WG8, Jl. Nasional Maumere - Larantuka, Wairbleler, Kec. Waigete, Kabupaten Sikka, Nusa Tenggara Tim., Indonesia",Coconut Garden Beach Resort,"[{'height': 3000, 'html_attributions': ['<a href=""https://maps.google.com/maps/contrib/103049220627114944379"">Adam Birkett</a>'], 'photo_reference': 'AUGGfZn1CUIL-bowBCyRg7Am3Te4v5ttxT3IFDVTmyzMtj4zD-z5FbgjjXpt96NXKw9TI70DOLb1v5iIXZjnW_ABrGDpk9ApTlIGNLjaZG3G0VB1NGquwhoyvBU1ZO8Tn9ZAVb1ChcNTltVgsRJY3Lnq4elILQ1h3hx3hc938dNeXkrYEpJx', 'width': 4000}]",ChIJr7yXhXoerS0R_uKSW4hsopY,4.4,"['lodging', 'point_of_interest', 'establishment']",583.0,-8.6277233,122.3213432
"Jalan Nai Roa Km 16, Wairita, Maumere, Wairbleler, Flores, Kabupaten Sikka, Nusa Tenggara Tim. 86183, Indonesia",Budi Sun Resort,"[{'height': 2268, 'html_attributions': ['<a href=""https://maps.google.com/maps/contrib/108602999502154155670"">Juha</a>'], 'photo_reference': 'AUGGfZkUwasrUghKJh5zAxnAijUaJDX3Sq-i2HlUHyRWALa8AAAw2CyRHJmChjhZ71o2CU3FpcrNqDVpnL09s99ZST3fL8C4pzMN46eydIuis9Y69IOdVqPZ8fYA1EgAwztIzjptEQVlFgKZc-3LB5VI1xaboePrH6-oIZxnnaS3RMKryprJ', 'width': 4032}]",ChIJtbKIiHUerS0Rk5Wlap7b3U4,4.2,"['lodging', 'point_of_interest', 'establishment']",204.0,-8.6255959,122.3246265
"Jl. Wairhubing No.17, Watuliwung, Kec. Kangae, Kabupaten Sikka, Nusa Tenggara Tim., Indonesia",Wairhubing Beach,"[{'height': 1952, 'html_attributions': ['<a href=""https://maps.google.com/maps/contrib/113860613991717608043"">A Google User</a>'], 'photo_reference': 'AUGGfZmQppf3jYi6k_7XnwSbgo91cLc4Yi0_QZG7ipnybx-SPtKcoRb1qLibKKhjzb_ADcJlYN1N_rw1V9tnaEQgj8BY7vaq609U1Xl34qSyb6K6tods3BP0e0HZq4A40vRt-1APOoVLk0nb9twSDSmW3S3_fn8iGYBLeNbOjWSc6lI7lGDS', 'width': 4160}]",ChIJs21cyVEZrS0RNExRX-mCF7I,4.1,"['lodging', 'point_of_interest', 'establishment']",85.0,-8.6340164,122.2586968
"973R+WJ7, Geliting, Kewapante, Sikka Regency, East Nusa Tenggara, Indonesia",Geliting,,ChIJ3eFfY40frS0RHur9p76xsjg,5.0,"['lodging', 'point_of_interest', 'establishment']",3.0,-8.6452022,122.2915537
"976P+325, Wairkoja, Kewapante, Sikka Regency, East Nusa Tenggara, Indonesia",Kewapante,,ChIJAdFcYvkfrS0R_zNSkZu2Nus,3.0,"['lodging', 'point_of_interest', 'establishment']",1.0,-8.639873999999999,122.285103
"74CF+R5, Kolidetung, Lela, Sikka Regency, East Nusa Tenggara, Indonesia",Patimoa Beach,,ChIJwSk67uk9rS0RDqLhshsEe5M,0.0,"['tourist_attraction', 'point_of_interest', 'establishment']",0.0,-8.7279164,122.1229983
"9FGC+VPV, Wairterang, Waigete, Sikka Regency, East Nusa Tenggara, Indonesia",Wairhoret Waterfall,"[{'height': 4160, 'html_attributions': ['<a href=""https://maps.google.com/maps/contrib/108996164072644847431"">A Google User</a>'], 'photo_reference': 'AUGGfZkzAkn6XgYybwiallQsoUj2LdSmaN4fo1a3iAgTE8GixSp-VYSGj5gSrOUNQK_QyNaLX9FqGyQPGk-hvWpIcHbvUqoq4S7_8BSIPUSE2QNMQASI_gmnJxQGnzqtapsxVUE3A-sN0UcOom2y4uuHurTkllSI-LHBUG_jKZn6QGY8a_ok', 'width': 3120}]",ChIJRTxjzCTnrC0RTvHyOmcHqic,4.5,"['tourist_attraction', 'point_of_interest', 'establishment']",2.0,-8.6227577,122.471802
"9F6G+72J, Wairterang, Waigete, Sikka Regency, East Nusa Tenggara, Indonesia",Wairterang,,ChIJCWyjbFDnrC0RFgIiEBxT7iA,0.0,"['tourist_attraction', 'point_of_interest', 'establishment']",0.0,-8.6392969,122.4750292
"8FC3+WG5, Egon Gahar, Mapitara, Sikka Regency, East Nusa Tenggara, Indonesia",KAWAH GUNUNG EGON,"[{'height': 780, 'html_attributions': ['<a href=""https://maps.google.com/maps/contrib/103110354468057022532"">A Google User</a>'], 'photo_reference': 'AUGGfZn2wNn2Z9uPMtIe4x6wV9y4w5Tu4SNyD5lnWVZFdxkrGnkY0Jo6geubK3h5odR5XfLhDeKVGJrBDx_Joj1nNGZdbXR1_03oCwR4OEeAe0zEHFXoC3N3KRDQgpMMEOvTC-2E5tuDtHntbPro_dAMBBxL-a1LEbHSUSgNm8YcvLnA1SD6', 'width': 1040}]",ChIJRWtB35nnrC0R7iIEzVfLnag,5.0,"['tourist_attraction', 'point_of_interest', 'establishment']",1.0,-8.677734,122.453851
"74WV+P9, Tilang, Kec. Lela, Kabupaten Sikka, Nusa Tenggara Tim., Indonesia","Gubeng, pantai patimoa","[{'height': 4160, 'html_attributions': ['<a href=""https://maps.google.com/maps/contrib/112116333494022053265"">A Google User</a>'], 'photo_reference': 'AUGGfZkSV4BOg0x0mLitwSNrMq4nBV4UvbliWrpjIxQVuQu_YMD3rYXC5J0ItSzMKVXeVLck51yPjO2yuQBiEc9AFOJF8WkL6OCqzDJELOOVkz1cMvKo9KY-AkrhVHYc-HLhzizJeiMmfPhVcyxYvNei2JF6FVfmjMPK3khDVYcJzHZbVZcG', 'width': 3120}]",ChIJbcPWHgA9rS0REpUHfHQSi6k,5.0,"['tourist_attraction', 'point_of_interest', 'establishment']",2.0,-8.728947,122.1245287
"8623+6Q2, Koting D, Koting, Sikka Regency, East Nusa Tenggara, Indonesia",Koting D,"[{'height': 1920, 'html_attributions': ['<a href=""https://maps.google.com/maps/contrib/118019048209169310809"">A Google User</a>'], 'photo_reference': 'AUGGfZnZ85gm0HaZiDdaYEpTdvf-FIAExfufeA_dJVpnw_3u6jFt35bRMxkXGYmIQyyumGgNgLb75guSgFsycgQvXFBxZG0oajrisV9QdwgNdTjYyPZyI_T7q3RfF_7QOvfHv8CatW6m4s47yyUjOTGGsbx7rhcinJZOQqp3pdrjgBy8UOxD', 'width': 1080}]",ChIJ5WFjXU0ZrS0Ry0lCJjzKahg,5.0,"['lodging', 'point_of_interest', 'establishment']",1.0,-8.6994835,122.2044019
"853Q+3G3, Koting C, Koting, Sikka Regency, East Nusa Tenggara, Indonesia",Koting C,"[{'height': 720, 'html_attributions': ['<a href=""https://maps.google.com/maps/contrib/109018500822187986376"">A Google User</a>'], 'photo_reference': 'AUGGfZmLwflbZzTX8Cp3xIimzKxpx2iCsipND5_UaCtIhXeQax_RCylfUMVYOgppVE1RVbavQ98OUdb3TaxAHISTm3NnqFG7oB4O7asjSp9n4gQA9Do7ADU7p-j2jC2QgeIjYtinfKY3SestL1tOcBEGU5Und6l8PXW5kY49ojB9l-S771MA', 'width': 540}]",ChIJ20YsE8kZrS0R12ZwQDriB1w,0.0,"['lodging', 'point_of_interest', 'establishment']",0.0,-8.697361299999999,122.188795
"85CV+WQH, Koting A, Koting, Sikka Regency, East Nusa Tenggara, Indonesia",Koting A,"[{'height': 1013, 'html_attributions': ['<a href=""https://maps.google.com/maps/contrib/118435926935612534773"">A Google User</a>'], 'photo_reference': 'AUGGfZmikeTO9C-bRUOf0_Of0MWA2VhE66dAiA-rU-m6PBOkuJQx6ClqlosTCorRPnI90jqCXL4hw1TC5X9O69nrfabC9FcSnFcz3kAEv66sjhO-iR72T2LvqIMSZHviZ0a3vZU4ziY51CsNq3X1Jl6feYYaIWdGg3vyibAJMTucuO8f-6my', 'width': 720}]",ChIJi61CYWoZrS0RNKrTJgF0Qok,3.0,"['lodging', 'point_of_interest', 'establishment']",1.0,-8.6776772,122.1944705
"75FM+86X, Watutedang, Lela, Sikka Regency, East Nusa Tenggara, Indonesia",Koang Roang,,ChIJ9yrKOwAjrS0R1DpYTHMh1js,0.0,"['campground', 'park', 'lodging', 'point_of_interest', 'establishment']",0.0,-8.726634299999999,122.1831192
"75J2+P9P, Lagokagur, Hepang, Kec. Lela, Kabupaten Sikka, Nusa Tenggara Tim., Indonesia",Napung liti,,ChIJ3ez6Ies9rS0R-b6W9frPX2M,0.0,"['campground', 'park', 'lodging', 'point_of_interest', 'establishment']",0.0,-8.7181712,122.1509478
Taiwan,Yangmingshan National Park,"[{'height': 2250, 'html_attributions': ['<a href=""https://maps.google.com/maps/contrib/112874052774177877247"">æŽå˜‰éŠ˜</a>'], 'photo_reference': 'AUGGfZkbzP2CoiCXbopJrbKbWCTYppEwYGQt4u6071LxBmo7CrgEkqKuZ02bJxheqVijW9oBkBrW8juS_RXtLIKpHS-yHHSNDG0jLJ8HPRsPIeL0SfJS3ir5HUMMBKJ1NaA-xjfwR1kjYMT0e9xrdilT0P1q5U5Bp5BJI1s29D8LgYANiJU', 'width': 4000}]",ChIJS8fPJPitQjQRebDDT6PjC1w,4.5,"['tourist_attraction', 'park', 'point_of_interest', 'establishment']",24571.0,25.1942462,121.5609363
"Xiaoya Rd, East District, Chiayi City, Taiwan 600",Lantan Scenic Area,"[{'height': 2250, 'html_attributions': ['<a href=""https://maps.google.com/maps/contrib/104013968043369434223"">Jacky Hsieh</a>'], 'photo_reference': 'AUGGfZl0UpEIGaE1AbmS201yqmhttzRWSWT5sQDNmQsJ3kXy4pZ7LqGXqGjkONBe7Kkt1iBCiGdMzExmRrHqpGuNjpqHP25xwo_2VGAPobhuAwlYv6UXFXHj3huKhlmyMy55cX3MYh4GIn15EZoh2VUoNIItyN8GEmS9QO592a9SYaZbCReD', 'width': 4000}]",ChIJ_2G60lCUbjQRKi0GXA8N2Bc,4.1,"['tourist_attraction', 'point_of_interest', 'establishment']",2685.0,23.4664382,120.4792412
"732, Taiwan, Tainan City, Baihe District",Guanzi Ling Scenic Area,"[{'height': 3000, 'html_attributions': ['<a href=""https://maps.google.com/maps/contrib/101234802805886039824"">è¨±ç´ å¨¥</a>'], 'photo_reference': 'AUGGfZnROa53HdPDBZKhgYgFr2nSjlblsCymH7zajj2kUixwfPgE2eqbPJwHDSl9NjNfCyY4N46VV_QwkKQ_pef0LucjR4M1iQOMS5LSXQ5vnHsLbkmFplYF-JtNJlI_rOk1ZZol_-Q04kTPli6dddOUA7jJ1FpmJ8g7y5s_PdRLfZ9Mbk7X', 'width': 4000}]",ChIJ331OhV2NbjQRikT5l58LVTI,4.2,"['tourist_attraction', 'point_of_interest', 'establishment']",959.0,23.337638,120.505575
"Wenhua Rd, East District, Chiayi City, Taiwan 600",Song of the Forest,"[{'height': 4032, 'html_attributions': ['<a href=""https://maps.google.com/maps/contrib/109116315264253360408"">æž—ä½‘å‹³</a>'], 'photo_reference': 'AUGGfZnPOtobXchr6LQTwA2axf8upDDbFRriochHEDt5hPx9Ux5zOsC_5pRZlCfxiT6FZBJj8HkcaeTKsUt_6j8MwuZcZwZW2SxHSpFPwIOwUu6t3AP0p1p8m8C76Xj23ruvwYVOVpJoSwDREMSnNXp7-JJHfl9CqxnflJ7cuRU5nZGbKF-9', 'width': 3024}]",ChIJY3tuyjKUbjQRykskI4yLiX4,4.2,"['tourist_attraction', 'point_of_interest', 'establishment']",5680.0,23.486649,120.448254
"732, Taiwan, Tainan City, Baihe District",Guanziling Hot Spring,"[{'height': 3024, 'html_attributions': ['<a href=""https://maps.google.com/maps/contrib/108241436288881856782"">A Google User</a>'], 'photo_reference': 'AUGGfZmBe4BAKjHLFrKDzybj1EBdBMdLhqnYjW8VDUPqaTpB3waJ5yEzThhGH6CKfYLNiiUcHfLa-lJxO-63tAKCGZNJ94D89KchNTd49rNSbylQ6phaNeB3wx8QMwz_ZB7ucBnIT1mOrPujK7TBQHgNiVq4fZrXtB3kNPB50TRIgRsTVa9T', 'width': 4032}]",ChIJSfNljJ2NbjQRKpPO1fEKKsk,4.2,"['tourist_attraction', 'point_of_interest', 'establishment']",3631.0,23.3396518,120.50439
"336, Taiwan, Taoyuan City, Fuxing District, 4-6è™Ÿ",Xiaowulai Skywalk,"[{'height': 5304, 'html_attributions': ['<a href=""https://maps.google.com/maps/contrib/107504134103416783471"">é„­HAO HAO</a>'], 'photo_reference': 'AUGGfZnp2pAYUEY2noF6rfh8UitW-nqHZ4bBPsJDDCVo2ghM0adYaPwr7bXTqkzibx4h_dR0BZpcf0-7g4vVkyIgiDr18XCI3-uOyHmg1MNjWyrzaKfqUWFUy8V59UeVHkWch_CmRTEWsfKQV1MAJS6pfZzxeQfZJGmB0qclrpTKdq4CLVS5', 'width': 7952}]",ChIJDz8NPEERaDQRimiQhCRLCG4,4.1,"['tourist_attraction', 'point_of_interest', 'establishment']",10438.0,24.7903264,121.3754843
"605, Taiwan, Chiayi County, Alishan Township, 59è™Ÿ",Alishan National Forest Recreation Area,"[{'height': 3456, 'html_attributions': ['<a href=""https://maps.google.com/maps/contrib/103331819049703137340"">Bernie Chen</a>'], 'photo_reference': 'AUGGfZmhDzw0ijlO7macP5yskYpo6aK3ffg7UiAnRJZvKPK0flcRvzUaGKjUBkjoZjHU5J9DXfey-IZI80YwTZgdBWnAXj6IgguS0SWKSRILf5nAtz3po0VLdm4PQl96pLBCEQIeSDVg8gWiL4B8ZIgYY1-58d5w9a1UG3SCHL7yS97WCA5e', 'width': 4608}]",ChIJOxUmrCDcbjQR1L87oFz49_8,4.6,"['park', 'point_of_interest', 'establishment']",38551.0,23.5109539,120.8034992
"602, Taiwan, Chiayi County, Fanlu Township, é˜¿é‡Œå±±å…¬è·¯27è™Ÿ",Eryanping Trail,"[{'height': 4248, 'html_attributions': ['<a href=""https://maps.google.com/maps/contrib/117999067153121343797"">A Google User</a>'], 'photo_reference': 'AUGGfZkxcWguWbN6GZ1OOHTwcCl19eDNAkHzAfNYs7jBOkKjp3-jgSt6tA_MXPMfo8T-QD8JrxQBYsSI365xGhqBdThA5qGYYqYVOhqpMqAywWtd5Zj1ldD7UOkK5a9mSlogNTk6LTcKknOdPHswplr5_lPlKr3nL0-dGuJXdAAU3FI7mT19', 'width': 5664}]",ChIJ1dho897rbjQRXffAYU9d-SU,4.5,"['tourist_attraction', 'park', 'point_of_interest', 'establishment']",9113.0,23.4175793,120.650847
"No. 42, Gongyuan Rd, Taoyuan District, Taoyuan City, Taiwan 330",Hutoushan Park,"[{'height': 2592, 'html_attributions': ['<a href=""https://maps.google.com/maps/contrib/117207340329191290732"">åŠ‰å®¶éŠ˜</a>'], 'photo_reference': 'AUGGfZmN6d4JOW7XfYKpeYz30vpyb4Z2-0HmhkJklAQuf5v5nUvDcY5Bz7R7567i2xidtYmrM6gjPqoCmKdn4nq2t5gni7FXzm8aGnmDAzuZ0s5j5GAUdFLg4XLC6P-5dDi59qp1ls2aSiEq5sU6VNTA4Ihov3eZDCrGJFsFFTKu9fhGu8tG', 'width': 4608}]",ChIJpWeyD14eaDQRfKFO3bEGa9k,4.4,"['park', 'tourist_attraction', 'point_of_interest', 'establishment']",16724.0,25.0017706,121.3309308
"ä»å®‰é‡Œæ‹±å­æº 60 è™Ÿ, Guanxi Township, Hsinchu County, Taiwan 306",Leofoo Village Theme Park,"[{'height': 2783, 'html_attributions': ['<a href=""https://maps.google.com/maps/contrib/109309667051443875581"">æœ±é€²å±•</a>'], 'photo_reference': 'AUGGfZn_bXf30X6hX6i3u9uDGO-jbFwQ5GKi4SB7FAGaApsDCwDlcXI_xwuemlh8OEBrbA3OdxFgR8VD12YwFcX2l6BOYywYSNfpsRRszoPvUQLuNoRqoNC_HTdYpRfiFwdUUclyzkj0J07ZloAeF-XRefgLME-SHSmy3NqZNt5vr3Q_ORDa', 'width': 4175}]",ChIJV-Ai7AQ8aDQRU-Dpi0F7gUE,4.6,"['amusement_park', 'tourist_attraction', 'point_of_interest', 'establishment']",46252.0,24.8252617,121.1806044
"Beipu St, Beipu Township, Hsinchu County, Taiwan 314",Beipu Old Street,"[{'height': 533, 'html_attributions': ['<a href=""https://maps.google.com/maps/contrib/113538313045642352133"">Nomad YC</a>'], 'photo_reference': 'AUGGfZnCo6gZFwPVCmHPvfOiEll5qiEgae4iQgAWoqlV5NNcaJde0PMThm1BfL6A2CUb1Bqure7B_mJht8daNAV0AGuaAG99lbbO8fP6xJpFNrcxw936kPY_XaSnZXtzdMDi92ODfSROy1E1bZL4UpiQQpoiMoBo6fpI_WXjuMrYf1tTqTVb', 'width': 800}]",ChIJ_____09PaDQR8ZY0EY7i9Os,4.1,"['tourist_attraction', 'point_of_interest', 'establishment']",31581.0,24.6998161,121.0572201
"Zhongzheng Rd, Hengshan Township, Hsinchu County, Taiwan 312",Neiwan Old Street,"[{'height': 3024, 'html_attributions': ['<a href=""https://maps.google.com/maps/contrib/115789556725317963247"">é»ƒç¿ æ–‡</a>'], 'photo_reference': 'AUGGfZmevV_oOXJwHs2-mxWvH6IG50UzKfB5_fjGO80UBUAsHeSss-7_yDDQD6ys6vMSedwjjqO57LbFAcDfjnVl8OyzxwKVua9K7xojMDWQL-qP5pw0PkRb_3_bJf_lJTMGP9nIvVpxmucDxuPAKSEzDKn2jyRUAwEl3lhqZF0cDxeKtNOE', 'width': 4032}]",ChIJ27GoR89AaDQR78D2c-yQhio,4.1,"['tourist_attraction', 'point_of_interest', 'establishment']",39464.0,24.7052146,121.1823397
"314, Taiwan, Hsinchu County, Beipu Township, éš˜å­7é„°20è™Ÿ",Green World Ecological Farm,"[{'height': 3024, 'html_attributions': ['<a href=""https://maps.google.com/maps/contrib/104307778610170858623"">Kidd Blues</a>'], 'photo_reference': 'AUGGfZkXlL6r_Ufr5Ae6mDyRGTLzodxFbMWbUpRBplWyD5FtxDl0Eiel6GKpt7U6Il0CMI-VODfhcTwfAza99Uwodq-s5tLKuP4Fe8nM7gJO1HDayC9De3uKTAPzDfbxuJ_7p9HjFjVR-0huaQOIRLxP9R0U69FuAPKA24wa2tY8Mxi8tlnP', 'width': 4032}]",ChIJE4DOdplIaDQRONNfLcJwi9A,4.5,"['tourist_attraction', 'zoo', 'amusement_park', 'park', 'point_of_interest', 'establishment']",26999.0,24.6988096,121.071096
"No. 46, Gongyuan St, East District, Chiayi City, Taiwan 600",Sun-Shooting Tower,"[{'height': 4208, 'html_attributions': ['<a href=""https://maps.google.com/maps/contrib/110240865537035530288"">Chen Yo Wu</a>'], 'photo_reference': 'AUGGfZn0ffWhWmDPBHo1lma4gCVyO3NDWgCulySQlTbwgn4Xb3cZJWixiVZadlChMAXmNCay6LE-lDGKRA9dgyEVXYaE1J4qmPJEmLAKSzCwI8cDGTc7xGakwKFVVUIHoYyCCYmUB4R-d7Xk_F8Q6vvEq6bDqlyJLrZkHPiF8xqyg_ZbdCk4', 'width': 3120}]",ChIJHx27NU2UbjQRMYjtb-KSE3M,4.1,"['tourist_attraction', 'point_of_interest', 'establishment']",4181.0,23.4812446,120.4690548
"No. 2è™Ÿ, Linsen W Rd, East District, Chiayi City, Taiwan 600",Alishan Forest Railway Garage Park,"[{'height': 4618, 'html_attributions': ['<a href=""https://maps.google.com/maps/contrib/109251041900468412243"">é¾å´Žå“</a>'], 'photo_reference': 'AUGGfZk2roigP3oeT7sIbyXg_5_nlCNTMCbiXgwFFxKKLj6cI3Q2PEgBJvEe5_6PX7fv6PDWjxUEhfy0fitNxirHlAwTGqcRZsf1R1P9j5sLCYj8oezFYocgy17oeLu3CoqR4oTEEpZDzlgN9VQH4KbCiLViuvfKmTfW9JeFUvDbn-WaNP4', 'width': 3464}]",ChIJxQNAhDKUbjQR0rls6oi0wfA,4.2,"['tourist_attraction', 'point_of_interest', 'establishment']",7668.0,23.4863428,120.4512608
"No. 888, Gugong Blvd, Taibao City, Chiayi County, Taiwan 612",Southern Branch of the National Palace Museum,"[{'height': 2268, 'html_attributions': ['<a href=""https://maps.google.com/maps/contrib/104532266444707515433"">li-wen</a>'], 'photo_reference': 'AUGGfZlPvMzqa24SUfSWsxyrG2rPA22PRd91vFaJQVMXHLfOg6jFgSNpONWVLq8HQCjsXgy_7hj7SUSV1AWQYlly-gBrAPbkZpvZsbQD6n8Gu-EDTS3Tq3QPH9OXGpQ8wRA__tKtZDZcEiA-FOz1XXfEQFjW71xrPUS2ylAFSEAWT1pYbTbq', 'width': 4032}]",ChIJe6XdK9SbbjQRy7gVi-RqGWk,4.3,"['tourist_attraction', 'museum', 'point_of_interest', 'establishment']",35360.0,23.4731294,120.2927165
"Hukoulao St, Hukou Township, Hsinchu County, Taiwan 303",Hukou Old Street,"[{'height': 3376, 'html_attributions': ['<a href=""https://maps.google.com/maps/contrib/113468977541817768108"">æ¥Šç‡¦ç‡¡</a>'], 'photo_reference': 'AUGGfZk60qllURyWsN8wf1PhGrkiskblhNHhDELolLTqKvOjQeDSvZIU5TfXemjguqe49YxaSeynVxqMvkVLIpF0krSRn3uypSqESuwjounhX3CSpuqHtaO2c2wfVvL_VOtxSGpKrsxq4EIUSVC36nH2HkGXaEP8QyXw8TaYLcSpEI8twnE1', 'width': 6000}]",ChIJSUkeZlswaDQRtxSJ9cKFHaY,3.9,"['tourist_attraction', 'point_of_interest', 'establishment']",11697.0,24.8770551,121.0569844
"114, Taiwan, Taipei City, Neihu District, ç¢§å±±å·–é–‹æ¼³è–çŽ‹å»Ÿï¼ˆåœè»Šå ´æ—",Baishihu Suspension Bridge,"[{'height': 2604, 'html_attributions': ['<a href=""https://maps.google.com/maps/contrib/117953892104768879277"">è˜‡ç«‹èŠ³</a>'], 'photo_reference': 'AUGGfZmy1poo_ehqD0BLQt7mL4xyHPT33Jl8d8bnuuWfqoB7bCvjnzgRXJMNoM7Wexoni0XGzhDqfCyoSO3AFuhKuaBob78O8Sgeh-_5Z0CXkEtv0A3DWg7gQAeDhOjGu7-YA7TyHW-UvqP2jXR36ul-hNLwJ6aaXmrJzyPWFDWvAFsqqL6r', 'width': 4624}]",ChIJMRbm0_usQjQROwTu4kmhUSI,4.2,"['tourist_attraction', 'point_of_interest', 'establishment']",9256.0,25.099682,121.5873607
"720, Taiwan, Tainan City, Guantian District, å˜‰å—é‡Œ66è™Ÿ",Hatta Yoichi Memorial Park,"[{'height': 3024, 'html_attributions': ['<a href=""https://maps.google.com/maps/contrib/107919774458020136494"">A Google User</a>'], 'photo_reference': 'AUGGfZko01-1H2aGdQ_imFCUqC7JwV3ryjymFZULxHGFFkglOYO-7DeHACAuVoNaHe9MjohVQ_TnR8E4wTwysMbtxtdjlGfqoWjIMkZIjsrR650Q51Uuq1IXiCPpG6vDoUUedKF8yYPxsSNS96oYxBjZsVD1mdcjeAHuQn67oHUS7r0uazlj', 'width': 4032}]",ChIJE_qQOhiIbjQRlSQvA68bCI0,4.2,"['tourist_attraction', 'park', 'point_of_interest', 'establishment']",4307.0,23.2139731,120.3648602
"No. 170, Lane 101, Jingshan Rd, Shilin District, Taipei City, Taiwan 111",Lengshuikeng,"[{'height': 533, 'html_attributions': ['<a href=""https://maps.google.com/maps/contrib/113624776927628456355"">çŽ‹ä¸–ç¦</a>'], 'photo_reference': 'AUGGfZn9Vo1kFQqzMSwC1S53wtGXMW7-vfwAnh2NSdNewuPx60lsSNvw0oOBo-ZC29gLvUwZ2kicytm2CZn8LhbfrfnJjCxmO99NKCNBI3AJwKuqG_EEKfe_6dtPnwcn2Gt9IPCSjAFXwrozTgOktaKVZ20G5ukbF0w_EGHRUrFV6x1weUCe', 'width': 800}]",ChIJB8DlGXWyQjQRTWNmdZHlYFg,4.5,"['tourist_attraction', 'point_of_interest', 'establishment']",6099.0,25.1656277,121.5639515
"No. 31, Section 5, Chenggong Rd, Neihu District, Taipei City, Taiwan 114",Dahu Park,"[{'height': 3000, 'html_attributions': ['<a href=""https://maps.google.com/maps/contrib/103557471534593855037"">æž—ç§‹éŒ¦</a>'], 'photo_reference': 'AUGGfZlKUo2gK8YXCKFLDsqEIrCY3pVjjiRwOie_kNHnWq8sMWXcULqxgeYT-5pNMCUiPoDFlYAJyqI8q_E1pBudJ6ZJf1WETIWEMngsRvdvLrVoqCsVeRAuIQbzY6njIjPQiLSHZpiLPRMuQMnyRb8w78XdeJzyazLsqN8z1EnKko95gQ0k', 'width': 4000}]",ChIJL25qhuqsQjQRjzwIZ7a6UbI,4.5,"['park', 'tourist_attraction', 'point_of_interest', 'establishment']",17628.0,25.0825351,121.603164
"No. 41è™Ÿ, Sishan Rd, Houli District, Taichung City, Taiwan 421",Houli Horse Ranch,"[{'height': 3456, 'html_attributions': ['<a href=""https://maps.google.com/maps/contrib/110972200804088272018"">momoko30302002</a>'], 'photo_reference': 'AUGGfZmmCkJPiVnF2LOsyD14pnrrQv5QT_NR07oO_ElnZ1pSk1IrPALt3ySYiRj4KU7veuJ2l30Vmr27zGbcDIuodTFyD6l5i6qrCZwvQWYiEPbGbDQg0MzHOCafHkChSWjKczpWHzuV5KzrayoSZmSOsce7qliwf-zRESlop-WCx8G1L2Xo', 'width': 4608}]",ChIJJ1gzQHUQaTQRV76ivEDUqoI,4.1,"['tourist_attraction', 'point_of_interest', 'establishment']",13351.0,24.2986374,120.7358219
"No. åº•, Lane 136, Section 1, Huanshan Rd, Neihu District, Taipei City, Taiwan 114",Jinmianshan Trail,"[{'height': 3024, 'html_attributions': ['<a href=""https://maps.google.com/maps/contrib/109271295833756850646"">è‘‰èŠ¸</a>'], 'photo_reference': 'AUGGfZmVCVMsC6s5F8_3EteBLKNWKkfoHcZgj3iaQLwzvXU15eUusVePOmh-GJ39gLEoWiRzpocXK0h-almBBGGfKOiFDiRWMQww1Y9YrfBfkppfVCHpzRUIkdBxxHXKC6I7Tob1GfU0gTFRDtgqIa717DW367hvYRrvMu7CokFAUsuWhZzX', 'width': 4032}]",ChIJp6s0vUWsQjQRLocNbrRbuqA,4.6,"['park', 'tourist_attraction', 'point_of_interest', 'establishment']",5224.0,25.0886636,121.5678841
"No. 19, Lane 267, Wende Rd, Neihu District, Taipei City, Taiwan 114",Guo Ziyi Memorial Hall,"[{'height': 3024, 'html_attributions': ['<a href=""https://maps.google.com/maps/contrib/108167515263965579917"">Jack Liu</a>'], 'photo_reference': 'AUGGfZnU814DZnDOHW7WLlxWyvIaJaRYZU8us1AyQFm3LX_4tqSRvksSHDKzJFHntRTZvgXyfPc1fBGf2CK_SkBThv9Wu7MeRaEpiE7rkt1m4Ti0tDuY-L7m2WhfNnCsqLb40V2lkMbOyAuE-YQ2TlTXo2DmDHuyruDJQqkndN4C-SuOocBp', 'width': 4032}]",ChIJaRw6UWKsQjQRWVJdWRYRQzI,4.3,"['park', 'tourist_attraction', 'point_of_interest', 'establishment']",413.0,25.0796293,121.5865772
"No. 6, Zhong'an St, Zhonghe District, New Taipei City, Taiwan 235",823 Memorial Park,"[{'height': 4032, 'html_attributions': ['<a href=""https://maps.google.com/maps/contrib/104095693201462614123"">é‹é”æ˜Œä¼æ¥­æœ‰é™å…¬å¸</a>'], 'photo_reference': 'AUGGfZmYMojsdTu9DDepch75TnaWcEbmXe1PGoEnzDiBlRXnuw72xtemhGbO5naD3Nx19aE16RhQQwMrOl6MhQTWC6TGc83A2G8_t6DgnTT2_XhfgaURr6k3tp83QSviLE2RYqpazicUv7nzgBtEhniZpjZEZJ7w19IfEP0ogyL8yfosfLFX', 'width': 3024}]",ChIJFYK5h92pQjQR4my-IQwKaaI,4.3,"['park', 'tourist_attraction', 'point_of_interest', 'establishment']",14963.0,25.0022495,121.5139834
"F2CR+X92, Reroroja, Magepanda, Sikka Regency, East Nusa Tenggara, Indonesia",Taman Wisata Mangrove,"[{'height': 3472, 'html_attributions': ['<a href=""https://maps.google.com/maps/contrib/105432342470204594050"">Aga Bluenight</a>'], 'photo_reference': 'AUGGfZlN4TM6zy9MT2Ino8Ve2-PvSNSBeFq7D6hNhYxw0g-9iJM8IboeVV7M96Z8u9-CYvW8gabc9n7njV3Vs9WuRkvAPUj2gv3SPI45KMGkMxrQeom4XbiU5Dpml96G4ExBJTSWVCP7_bwq-h6UProlJh02-0tmLanAcX16s0A5Wt3-hIwY', 'width': 4624}]",ChIJtxVLzFUMrS0Rn-n0aVEBA_8,4.0,"['park', 'point_of_interest', 'establishment']",28.0,-8.527619099999999,122.0408766
"F2GW+29V, Reroroja, Magepanda, Sikka Regency, East Nusa Tenggara, Indonesia",Mangrove Magepanda,"[{'height': 2988, 'html_attributions': ['<a href=""https://maps.google.com/maps/contrib/110363011911137462632"">dian lestari</a>'], 'photo_reference': 'AUGGfZk5Rmv1xDz4YLJXFpKTkfMO3sjlwZj2RYJ7JAMD1He19Ko0AVRrxS4vUAlsGatW4rHMvoxtkTsQXjs006juWDSLFWTnOZEisqYd0H7mr56f2GXWmcxHGFsd5x6aJeFwtCJY4JcgMM0y5uMkVOIisBDhlmeqYZxi8RZ5wrS5bVb4rxat', 'width': 5312}]",ChIJ25eCEVEMrS0ReIqmPtqLvww,4.4,"['restaurant', 'food', 'point_of_interest', 'establishment']",72.0,-8.524876299999999,122.0459259
"8G79+289, Watudiran, Kec. Waigete, Kabupaten Sikka, Nusa Tenggara Tim., Indonesia",Danau Koliheret,,ChIJm7APqWPdrC0RJHQ0HJAQbE0,5.0,"['tourist_attraction', 'point_of_interest', 'establishment']",2.0,-8.6874596,122.5183735
"8HM5+PQX, Watudiran, Waigete, Sikka Regency, East Nusa Tenggara, Indonesia",Pantai Rung,"[{'height': 2992, 'html_attributions': ['<a href=""https://maps.google.com/maps/contrib/107858315924584521050"">A Google User</a>'], 'photo_reference': 'AUGGfZnx0dmnVe7UI74gZ6h5J52MDIq3iKSoyYdRux6r_DWSOWoF-K1-NKDSBj91RZIkz0X9LdcRB9kMguwo3mEpI5gS9dn4WWMU4TnKtzzTKKHkXPF3S6loago4ZnEpVwAPPkmtQp-SZXqJm2JYQ8zys6wLHrxF1ygXHE_eyFlMcyiKEFPJ', 'width': 4000}]",ChIJx6SI5T3prC0R5ljeNIUOyG4,5.0,"['tourist_attraction', 'point_of_interest', 'establishment']",2.0,-8.665649600000002,122.559476
"63J2+JR5, Unnamed Road, Paga, Kec. Paga, Kabupaten Sikka, Nusa Tenggara Tim., Indonesia",Pantai Paga,"[{'height': 2250, 'html_attributions': ['<a href=""https://maps.google.com/maps/contrib/102468606166217012552"">Lukman Mukti Wibowo</a>'], 'photo_reference': 'AUGGfZlRNRpPziHinJcRS6YRVX-Ff3jGBpYmDI6tDjyqpGgZBVDNJzMbjcPmm91Q2KJJE20i-9qCJH8Fb3iZ91r8SeKwV32_eyahsCeGflTPkjsnITlSkeO8vDcrBFp7LJR6orNQuVSN4X2w61SBZbsNeWGRCItfMbn2mu3wZyvX66J_cSC0', 'width': 4000}]",ChIJM7pFThY_rS0RZ3L_W3DwEvQ,4.3,"['tourist_attraction', 'point_of_interest', 'establishment']",22.0,-8.7684903,122.0521054
"629R+GGR, Mbengu, Paga, Sikka Regency, East Nusa Tenggara, Indonesia",Pantai Kelilo'o,,ChIJ3QsjDgA_rS0RlELmn0vCy9o,0.0,"['tourist_attraction', 'point_of_interest', 'establishment']",0.0,-8.7811658,122.0417661
"62VX+88, Paga, Sikka Regency, East Nusa Tenggara, Indonesia",Keli Kakaniru,,ChIJuWaM4GI_rS0RnbB1WC0dGz4,0.0,"['tourist_attraction', 'point_of_interest', 'establishment']",0.0,-8.7566667,122.0483333
"625H+5PX, Mbengu, Paga, Sikka Regency, East Nusa Tenggara, Indonesia",Wolo Meja,,ChIJ0xhZ7G4_rS0RkpBNMRRzjPE,0.0,"['tourist_attraction', 'point_of_interest', 'establishment']",0.0,-8.7920033,122.0293552
"629R+GGR, Mbengu, Paga, Sikka Regency, East Nusa Tenggara, Indonesia",Pantai Ana Kalo,"[{'height': 4032, 'html_attributions': ['<a href=""https://maps.google.com/maps/contrib/104191232107086926737"">mei Batubara</a>'], 'photo_reference': 'AUGGfZlYJvofEO2PX3lefq0H6PGxx0CU7uDyORXrV1ANLzkojiG8-JWV9DuovfJceLt2IlFYNHyfFvPeNof4woBs_gV1Z0I3AmuZzHllxG7udalwY1sTuziBKhjddew3vuWMSzbsyb-9ftQrbE3Xb0O51r0xP-9N3mWULUylp8q_BOOU4NAx', 'width': 3024}]",ChIJi0RFXRw_rS0RKt7TKyfGvIc,4.6,"['tourist_attraction', 'point_of_interest', 'establishment']",5.0,-8.7811264,122.0412696
"62RH+V2P, Waturia, Wolowona, Kec. Paga, Kabupaten Sikka, Nusa Tenggara Tim., Indonesia",Bukit Waturia,,ChIJJSc0qw8_rS0RkshEX495g3Y,5.0,"['tourist_attraction', 'point_of_interest', 'establishment']",1.0,-8.7577949,122.02759
"623C+C3P, Wolowiro, Paga,, Sikka, Nusa Tenggara Tim., Indonesia",Watu Mite,"[{'height': 3024, 'html_attributions': ['<a href=""https://maps.google.com/maps/contrib/108838813187562962852"">Gumilang Reza Andika</a>'], 'photo_reference': 'AUGGfZnI9wsNpAiDHKjw0yskIAtQTuENgVGWVvC3uePb5yz1ZkIpAUD6rCEbslnInAIeHMRP0SmIm9MdijoWQ2VoKhyvR-t9yieb1FD9wjMtlMsYSn7y8ZSgx_bDMtMHPH39oZKj2mBpfUZ8j49JzM6r_Zmw7RX4vxYhsYunns6WxD7QHeF6', 'width': 4032}]",ChIJMTmDuzY_rS0RcAv0NWrsem8,4.7,"['tourist_attraction', 'point_of_interest', 'establishment']",6.0,-8.7964217,122.0202082
"6239+Q2Q, Wolowiro, Paga, Sikka Regency, East Nusa Tenggara, Indonesia",Virgin Stone,"[{'height': 3265, 'html_attributions': ['<a href=""https://maps.google.com/maps/contrib/105624013338243559281"">Dominique et BÃ©atrice Lestienne</a>'], 'photo_reference': 'AUGGfZlDZMcqOxG358z-P1dPwmXz2CPx3BHCnD1q4m1RBKE103tuTWQupnFIsNGjfMQtaz40f4Orwnh-SOfrM8o9ctAtHcvAd3ETHv8eHkDzuGdfwh9MmnI8atoyGp8KBaA8YMKYX7nE3fwCAC0SY22l6YFKrp4RKj5tbyI9m4SpBjIzX15n', 'width': 4898}]",ChIJgVnATzY_rS0RXJngOXOpX2U,4.7,"['tourist_attraction', 'point_of_interest', 'establishment']",12.0,-8.795547599999999,122.0175997
"6298+99W, Wolowiro, Paga, Sikka Regency, East Nusa Tenggara, Indonesia",Rumah Adat Mbiraria,"[{'height': 3120, 'html_attributions': ['<a href=""https://maps.google.com/maps/contrib/111506242973438320334"">A Google User</a>'], 'photo_reference': 'AUGGfZlzg3kRwDa-Mv5eFwFu_ER4Jk470oH0Uqn5DOAz9gBcD1I3LOXq7GB_hq6hEAerOQgVaxt83Os95ob1MkBvn00_uXLZucAUY97bjq16P2gADIKvRb3WGMeGzRTTwzaEziv_-NJjmLy-RSpBCZk-POPmuTZWWEGiChDGX5lWYEXUqS9B', 'width': 3120}]",ChIJn2mZdpw_rS0RVWx3oUWqlWU,5.0,"['tourist_attraction', 'point_of_interest', 'establishment']",2.0,-8.7815084,122.0159344
"624H+36M, Mbengu, Paga, Sikka Regency, East Nusa Tenggara, Indonesia",Pantai Beta,"[{'height': 2600, 'html_attributions': ['<a href=""https://maps.google.com/maps/contrib/108570135270897933562"">A Google User</a>'], 'photo_reference': 'AUGGfZmbYnOh1DKnJUUiguBtEd1F-H2Y6cJllmiyY3Q6C5xO-sPQ9mRjxOCp4d_BaEGHp_sbSECrdrBvm4yFgGREKBUA6-seMM2Lw4n_ZS2rK8a4kUXgK8l0nSnpPYugxtFTcEEH85ThpTfdgBa9hsmYatTPObpD8IPMBzWjVFES8sVgsyfd', 'width': 4624}]",ChIJP3-3kro_rS0RjCGPLw_Ej4c,4.8,"['tourist_attraction', 'point_of_interest', 'establishment']",4.0,-8.7947994,122.0280549
"CX43+V3F, Hangalande, Kotabaru, Ende Regency, East Nusa Tenggara, Indonesia",Hosi / porang,"[{'height': 2340, 'html_attributions': ['<a href=""https://maps.google.com/maps/contrib/100993717489796256524"">A Google User</a>'], 'photo_reference': 'AUGGfZkNolCRvwLkTBTcs8DF32CD-o-C9eL3dHPYDayjJ5F3gymBRizhJFsrloobbjD4h7575AKNp8W41zJDbUQbim_Ic1c0_Z-qFSmXkq_xQ1a--8VdF-9cQenuiUgtrTS7wQaNesSCEZeA5-lPEmFtt9SFwIsziefftigB7jJxt8I82CZh', 'width': 4160}]",ChIJExyuVLFtrS0RgYzDmqPuJhQ,5.0,"['tourist_attraction', 'point_of_interest', 'establishment']",1.0,-8.5928173,121.9526638
"6X29+C43, Hobatuwa, Lio Timur, Ende Regency, East Nusa Tenggara, Indonesia",Potu Hobatuwa,,ChIJWVYsVQBBrS0RxJdIYOSPlR8,0.0,"['tourist_attraction', 'point_of_interest', 'establishment']",0.0,-8.7989945,121.9677851
"GW36+V35, Loboniki, Kotabaru, Ende Regency, East Nusa Tenggara, Indonesia",Tanjung Nuanaga,,ChIJrQexs5Z1rS0RCnmzM3otsUU,0.0,"['tourist_attraction', 'point_of_interest', 'establishment']",0.0,-8.4953656,121.9102242
"5XVV+HM, Kel. Watuneso, Ende Regency, East Nusa Tenggara, Indonesia",Pantai Lia,"[{'height': 1080, 'html_attributions': ['<a href=""https://maps.google.com/maps/contrib/115344369502956422486"">Familia Pailo</a>'], 'photo_reference': 'AUGGfZm5po7y9qlWZABnfuWc_OZpQIYsKOMsk0plEA4LKN5bHPfpQicruGXZdJXscGcW-XRog-_qcftiJydJdhnqPAROAtti76cPI2xKEjSLs8IWW_k8i88lFmzv7oScemwwhrYRR0klrgsKXNw1RoyXr6LAYPpanl2IgZxRl83jIQppcQcu', 'width': 1920}]",ChIJwaUoQ0Q5rS0RPxPXx0RcIe8,3.9,"['tourist_attraction', 'point_of_interest', 'establishment']",7.0,-8.8061223,121.9941331
"GW9M+F4F, Ndondo, Kotabaru, Ende Regency, East Nusa Tenggara, Indonesia",Pariwisata nanganiki,"[{'height': 2268, 'html_attributions': ['<a href=""https://maps.google.com/maps/contrib/101066562296133415677"">Soni Sofyan</a>'], 'photo_reference': 'AUGGfZlTMm1MTC9okARWE_8hNOKUMH4luVGnSNvkGvwyOhzPgBGzSvDbqkMieEFq8bSAbGwhvO4y62Bp_3p2RgR-0zFLd6jvtnOHHOyrDMmxTCtJTO484U1AvK6yrcn9k4SHRY85g5YEQ2Fme18JhoB8Zee8tkJmL5SXbYGnuf6PIKuwrqQ9', 'width': 4032}]",ChIJVaR_QAB1rS0RoGOOYgLfklk,5.0,"['tourist_attraction', 'point_of_interest', 'establishment']",2.0,-8.4813229,121.9327994
"CF3M+WP, Runut, Sikka Regency, East Nusa Tenggara, Indonesia",Pantai Patra Jasa Napungbiri,"[{'height': 1932, 'html_attributions': ['<a href=""https://maps.google.com/maps/contrib/102084102110888973153"">jeff joentax</a>'], 'photo_reference': 'AUGGfZnLiH-zd1BdzGugt8gyw-NMMa6TOPQBvvuOcK16gsZS6RTCI18uK31UOQl3CybIExWybS_8ClT6MtAItrbPxKkFRWrwTLe4EB4oDm5CgsfsAUEb224gCLT6OLT-CpeEwudInSzKXrvmPI2Ni3pQ8M-G8K8qNJS2N1yz_Kx7hT9WTIfQ', 'width': 2576}]",ChIJwX1dMl7lrC0RnxhJPY2qahQ,4.8,"['tourist_attraction', 'point_of_interest', 'establishment']",8.0,-8.595169799999999,122.4843446
"MPPQ+8M, Reruwairere, Palue, Sikka Regency, East Nusa Tenggara, Indonesia",POA,,ChIJafCIAACFrS0RQRO1nm7zPR8,0.0,"['tourist_attraction', 'point_of_interest', 'establishment']",0.0,-8.314144599999999,121.7392237
"MPMM+C5P, Kesokoja, Palue, Sikka Regency, East Nusa Tenggara, Indonesia",Poa Nua Kaju,,ChIJXXNEBtCFrS0RFHaiXxLdWI8,0.0,"['tourist_attraction', 'point_of_interest', 'establishment']",0.0,-8.316404799999999,121.732958
"MMQW+PVX, Rokirole, Palue, Sikka Regency, East Nusa Tenggara, Indonesia",Todo TIRA,,ChIJNS32CwCHrS0RuRzwCGv7xLk,5.0,"['tourist_attraction', 'point_of_interest', 'establishment']",1.0,-8.3105099,121.6966097
"MMVP+42J Pantai make, cawalo, Rokirole, Palue, Kabupaten Sikka, Nusa Tenggara Tim., Indonesia",MAKE Beach,"[{'height': 4160, 'html_attributions': ['<a href=""https://maps.google.com/maps/contrib/107059694114329802479"">Melan Lanu</a>'], 'photo_reference': 'AUGGfZlWB1DoYlgwoe_SrLxfoaGgGGFMNvdmmgax-n012pVEH1IDvqQCKfE7nFEnkMlAPHSJSWONlxj2I9iBk8EYa0m0s9RgKOwsbjcT0RpTgFr5sAm8b6t5eoJOqDRPiBmo_FHvHuPzlC6Zc-WGQ1mDUe13wXo8sw9RHktfMz_2GPyVH-Q9', 'width': 3120}]",ChIJO77dSgCHrS0RP0Anh7h__kg,0.0,"['tourist_attraction', 'point_of_interest', 'establishment']",0.0,-8.307152799999999,121.6850095
"FGFX+4C6, Jl Tanah Merah, Talibura, Sikka Regency, East Nusa Tenggara, Indonesia",Air panas Santa Veronica,"[{'height': 4032, 'html_attributions': ['<a href=""https://maps.google.com/maps/contrib/114275645376877474285"">A Google User</a>'], 'photo_reference': 'AUGGfZnzYigXxiGJRDB1NE6_zzNcmnr5YBPF_HpHxklswc3GxOgQY6Ku1pyetQb2dnbRceEd__jkTR9ev5XFr6DmWz1MwmYJVSxE9f-uOo-lR9UXrX1K1TiDombF4Rd0km1nGt7L3wIeTb_6s7Xs8kDLdUpZmeZsuo0a-bmp1XNE7PnuMe8', 'width': 2268}]",ChIJc4JIKAbvrC0R7gHyHvGkHbM,4.0,"['tourist_attraction', 'point_of_interest', 'establishment']",2.0,-8.527216899999999,122.5485115
"FM94+PJ, Hikong, Talibura, Sikka Regency, East Nusa Tenggara, Indonesia",Rumah Adat Suku Mau,,ChIJX3ETfwDtrC0RwRF1gt5G5No,0.0,"['tourist_attraction', 'point_of_interest', 'establishment']",0.0,-8.5307169,122.6565254
"7XQ7+RXH, Unnamed Road, Bu Watuweti, Kec. Tana Wawo, Kabupaten Sikka, Nusa Tenggara Tim., Indonesia",Perbukitan Tanawawo,"[{'height': 3000, 'html_attributions': ['<a href=""https://maps.google.com/maps/contrib/101283952936615791854"">antonius eko setiawan</a>'], 'photo_reference': 'AUGGfZkGkb1JK079aYZ3-a7378vb4TyckTX8crGfqiKGeA70CyvwCk1nS-77UtrQuJCeRgTJHEe7bM_L3FtN-AkcvzaqUKj_04I2geh3pU3XjFOul80aCMcByqR_SMbQzOybtCA8iyzhG6XNQ8LVOpITSK7OVrF13Gq3x4L2_6M8ZXuZBSsn', 'width': 4000}]",ChIJG2KjjzprrS0R_hTmO2u1JCg,5.0,"['point_of_interest', 'establishment']",3.0,-8.71045,121.965
"Talibura, Watubaing, Maumere, East Nusa Tenggara 86183, Indonesia",Dapoermangrove/Klakat Wtb,"[{'height': 1200, 'html_attributions': ['<a href=""https://maps.google.com/maps/contrib/102593466655912821637"">Jimmy Tanjung28</a>'], 'photo_reference': 'AUGGfZmwpNxgG34UinTNqrreOQ-uQfRgwa81rs36d4X7rIC3dANzEW4oRULg4_3G-PawNPTTJEf2yD86DXqsiBGS3EpJLZA3psOoTD8q_APz5sGgB9bpvU6ouxwjkbYc7e4Hrr6RuQcGLRhs9IeRyKbfEbLpMj7Bk5rO3jEl9OUgQ4JnRNUX', 'width': 1600}]",ChIJ52PLqhzlrC0REUyj65yUlGE,4.9,"['tourist_attraction', 'point_of_interest', 'establishment']",8.0,-8.5334174,122.5170435
