formatted_address,name,place_id,rating,types,user_ratings_total,photos,lat,lng
"WF75+38, Waipure, Air Buaya, Buru Regency, Maluku, Indonesia",Teluk bara,ChIJaVHUZADRcy0Rm64wbAviDRQ,0.0,"['tourist_attraction', 'point_of_interest', 'establishment']",0.0,,-3.0873682,126.4583701
"Q6F9+CQF, Bara, Air Buaya, Buru Regency, Maluku, Indonesia",Air Terjun Waetina / Waetina Waterfall,ChIJH3Cea4Drcy0RMDzJgqr8jmk,5.0,"['tourist_attraction', 'point_of_interest', 'establishment']",2.0,"[{'height': 4160, 'html_attributions': ['<a href=""https://maps.google.com/maps/contrib/104976121871938707403"">Muh. Idris</a>'], 'photo_reference': 'AUGGfZmdTipKhZcsrs2NtUcCuvGV5EWXLzhqPajyUWW99KTRFiuAS1rlcyRPfpreRyLzQg9y26eqTsadpZlwiI2N1qgyrScbauVWjGlGBoOLesVt-d6C63CCMi7-A9FI_eO4iz6QXkTOisq0tfhfwjVifqRwkLdET3BVErAMwORhQgclZ1xP', 'width': 3120}]",-3.2264478,126.2194246
"WG4R+243, Wamlana, Air Buaya, Buru Regency, Maluku, Indonesia","Balbalu, Buru, Maluku",ChIJSWsWaQDTcy0R6S97wOxFn2k,0.0,"['tourist_attraction', 'point_of_interest', 'establishment']",0.0,,-3.094761,126.540454
"WHJP+7G3, Jl. Propinsi, Waspait, Kec. Air Buaya, Kabupaten Buru, Maluku, Indonesia",WRB,ChIJDY6GPAzVcy0RA3cnAwVWNBs,4.3,"['tourist_attraction', 'point_of_interest', 'establishment']",4.0,"[{'height': 3264, 'html_attributions': ['<a href=""https://maps.google.com/maps/contrib/115808599630292511016"">A Google User</a>'], 'photo_reference': 'AUGGfZk6hQEA11w0GgB_WOUdHoYllVJWGvrugs4xq1C2IWLWoUen9G8W8GM3VYJQIOjuYHWAxxIpd5_X0vnvjg9gs75j56aB2kXsnlbYSa03DPG6QEs5SyzVOZSH3zxCycTEwy5czxs6IE65NfPuc8ecPleBxZ-hT55SzUaPj5-i-mWRvFs', 'width': 2448}]",-3.069365,126.5863016
"WG5V+JPW, Wamlana, Teluk Kaiely, Buru Regency, Maluku, Indonesia",Punjak Balbalu,ChIJnawBJwDTcy0RguVzmS-oUo0,5.0,"['tourist_attraction', 'point_of_interest', 'establishment']",1.0,,-3.0908762,126.5443217
"WMJW+QF4, Jl. Propinsi, Waprea, Waplau, Kabupaten Buru, Maluku, Indonesia",Waprea Waterfalls,ChIJ47N0UVUpci0R13JEDhZ9xCc,4.7,"['tourist_attraction', 'point_of_interest', 'establishment']",9.0,"[{'height': 3000, 'html_attributions': ['<a href=""https://maps.google.com/maps/contrib/115941056019442141899"">Ubaidi Ubaidi</a>'], 'photo_reference': 'AUGGfZnD5nEoH7Qe-gTwRm4PiXqrcTWOJHNF2Byis5TtBczEc-GvLDeiQrsatFdXlpMmC_6S91cj5WjkxSliKfG563l_EX6cz4vN_MlrfG6tQ2vE0kPwS6k_H2UkDp4pna1egqEIbCWCZrAedTOTveSF4mjNGqFz3Y9pqZK-UAGfPAejsGz0', 'width': 4000}]",-3.0681107,126.6962098
"Q2M7+8W7, Nanali, South Buru Regency, Maluku, Indonesia",Mata air jin,ChIJSRx4I4Dxcy0RSJHDuv6AcHI,4.7,"['tourist_attraction', 'point_of_interest', 'establishment']",3.0,"[{'height': 1800, 'html_attributions': ['<a href=""https://maps.google.com/maps/contrib/113107625568588337331"">Danas Krisna</a>'], 'photo_reference': 'AUGGfZlS3Ph4xPQiJFGUFPKDarOpbYSiSv1TzbiCxNgyEA-KJwNOAmiCYZVO68rBhuaP_b3050WumBzGA-xH394UA6Hi7ffXgtpF57a1TqpVBPp7PdAy0pNYuwrbzQ1pB1jjmkX99d4uStC6xCh1MJeCB5QM_N8BBJxdYpO8pJ5y93rH_P4', 'width': 4000}]",-3.2167012,126.0147845
"Q3VP+46, Ubung, Lilialy, Buru Regency, Maluku, Indonesia",Tempat bersantai,ChIJ7SHyfQATci0RDoJy-fZDUm0,5.0,"['tourist_attraction', 'point_of_interest', 'establishment']",1.0,"[{'height': 1080, 'html_attributions': ['<a href=""https://maps.google.com/maps/contrib/104259353557345314759"">LM Ruflin</a>'], 'photo_reference': 'AUGGfZmEGD0l-FunKAHyLXn8rYOVoMTUtZ87Y0rAd_2ORzqP5bP76Fe6Eu34JD8DtMSEBzE1JyJ7TLFvpRf5hfSIVSVFOH7d5Wx6e7ZawYOCeMIP3n5OJ1M7DHaZbHRe9HXz5kQ6odQkRVkFkK-kh5On84AjGfGfe2UkfY1pQfJTyU6zYY2D', 'width': 1920}]",-3.2072378,127.0855435
"P3CP+WR, Namlea, Buru Regency, Maluku, Indonesia",Mancing,ChIJ1WkiqgBtci0Rcv5qIKYPRw8,0.0,"['tourist_attraction', 'point_of_interest', 'establishment']",0.0,,-3.2776683,127.0870368
"WR5Q+JVX, Waeura, Waplau, Buru Regency, Maluku, Indonesia",Air Terjun Waeura,ChIJR9am3Vskci0RSEiFIg6Em7o,3.7,"['tourist_attraction', 'point_of_interest', 'establishment']",15.0,"[{'height': 1836, 'html_attributions': ['<a href=""https://maps.google.com/maps/contrib/110599878745923471849"">Richard K</a>'], 'photo_reference': 'AUGGfZmpFBUqs1ZcoBl-Rd2wv-EjZBgbJioDPeob6MdeEaodCwf1sxEPyQoBgMjg7pezh9830lEnIW1Sjj1Tm0yJDTXa428nrGWJrUYl_69Z2JNeDgo3Gt9cJR8NRuEZ6olw8fkSC2fIOCVUQAYz97To4TV9sB4ivGgWiomYLHztBPShvdZt', 'width': 3264}]",-3.0908782,126.8397224
"VX3C+H8, Sawa, Lilialy, Buru Regency, Maluku, Indonesia",Telaga Namniwel,ChIJrTzfwroXci0REbf5mqVCNiM,5.0,"['tourist_attraction', 'point_of_interest', 'establishment']",1.0,"[{'height': 2448, 'html_attributions': ['<a href=""https://maps.google.com/maps/contrib/110421598619528806977"">Minan Nurrohman</a>'], 'photo_reference': 'AUGGfZnMwGFAJBQ8kDbqyvkZcpBi3JFbY41O2DhJPaYh4GoOPJd0oUhJwlcS9-wWoIUsP6bKhPkUZgbrxSukCT5Mrn5g3gYz2crFmnsCy6E6rk2EK5ZosbLs9CwMNWawbdv2tXyiEek9Y3MiTEnjz1i5Ir1IKonObvXZK030G7ZejbEyFux4', 'width': 3264}]",-3.1460211,126.9707654
"RXWF+9F, Sawa, Lilialy, Buru Regency, Maluku, Indonesia",Ketel walbagut,ChIJy_hPTB0Xci0RAIngjcupyRQ,5.0,"['tourist_attraction', 'point_of_interest', 'establishment']",1.0,"[{'height': 1280, 'html_attributions': ['<a href=""https://maps.google.com/maps/contrib/101435051198558609911"">A Google User</a>'], 'photo_reference': 'AUGGfZlsHsBvqDCGG2JZZv9k-6bgvh4CqCBx0tknkl0DtKi_38vzcBelCBVhaqw3Q1PVIpoZpmTPP5KUXdNltzssodfEUw-Imvsx4xkJ-ayvkeCLXKv7lrzQtP5r9pdiYzhOjcUqlfBl82iZQr6VAmZnP7gIUaetk_HvGA3PP9onxCwKEp_V', 'width': 720}]",-3.1540401,126.9737897
"RXXW+JF, Sawa, Lilialy, Buru Regency, Maluku, Indonesia",Talaga ices,ChIJO7F5NkwXci0R7eHf_k_N7Rg,5.0,"['tourist_attraction', 'point_of_interest', 'establishment']",1.0,,-3.150971,126.9961451
"JV5P+RX, Waegeren, Waeapo, Buru Regency, Maluku, Indonesia",Bendungan Waegeren,ChIJDwuwbgBdci0RRxHPXKSbWtM,0.0,"['tourist_attraction', 'point_of_interest', 'establishment']",0.0,,-3.3903858,126.8874107
"Waplau, Buru Regency, Maluku 97572, Indonesia",Pantai mener wapalu,ChIJZTvQbD4jci0RH71iwiOKCNg,5.0,"['tourist_attraction', 'point_of_interest', 'establishment']",2.0,"[{'height': 1872, 'html_attributions': ['<a href=""https://maps.google.com/maps/contrib/111975172707888531584"">A Google User</a>'], 'photo_reference': 'AUGGfZnkHzOlQAnM75aPrrZSZ20rzGJ2qmE4R50DCbgOkzf9hHrD15IKmkmNVumxI_iUZCIFCgNKQu7jf9bI_zD_Bvbamj6tbp5b5FcCWdI6ZdMSoqTYrqdkCbp7au5Jhz6sDhdpxIZBAvA7vjU9GQrTmH2-i5xUmX2PeTOcCeuaZpjoXgc', 'width': 3680}]",-3.1128125,126.8838827
"QWPV+JHJ, Sawa, Namlea, Buru Regency, Maluku, Indonesia",Kali Wai Bine,ChIJsTuygfs_ci0RNIIg2OAXTlc,0.0,"['tourist_attraction', 'point_of_interest', 'establishment']",0.0,,-3.2134183,126.943884
"HHW8+MF, Wamlana, Teluk Kaiely, Buru Regency, Maluku, Indonesia",Danau Rana,ChIJd1iey6mtcy0R1KY3Dtab4iw,4.0,"['tourist_attraction', 'point_of_interest', 'establishment']",4.0,"[{'height': 1728, 'html_attributions': ['<a href=""https://maps.google.com/maps/contrib/108146761375330548798"">renatho cool</a>'], 'photo_reference': 'AUGGfZmXXGnDjgbhn7oblXfhzev93YQt8z62l1VKprxyXIxSa6z0gfE8NnERbDOrSA3z52vIRRTW3GBGZXQJzWZvOtvMJgvju7VOrnlNR2ndJnENcP5piJUw3JusBecbKZpfUscDc8wxdb1TJouciIVCChzryub2jEETeX0MpJ-wenZFDLyy', 'width': 3072}]",-3.4033125,126.5661875
"R2HG+9PM, Jikumerasa, Namlea, Buru Regency, Maluku, Indonesia",Akmal tanpa bera,ChIJR7_tJ5YXci0RBMhBOEWfgNA,0.0,"['tourist_attraction', 'point_of_interest', 'establishment']",0.0,,-3.1708387,127.027181
"Q359+J57, Namlea, Buru Regency, Maluku, Indonesia",Bukit Banda,ChIJi3spGOcTci0R0eCInivc1GQ,5.0,"['tourist_attraction', 'point_of_interest', 'establishment']",1.0,"[{'height': 3000, 'html_attributions': ['<a href=""https://maps.google.com/maps/contrib/112218299388633066966"">Mudas Sky</a>'], 'photo_reference': 'AUGGfZnT3AiTKO79_e8kspmw_gZ06WpVKt1eqqY-4x-PZqQWS3RwyFQtXqlhrXMc8TP_Qk1gXh0Sgyuy82s4pNW2lg2jmGMpOW4mOvpaMxSxBubZTnQnHQcVpoNE9tGU5_CEUUY70VHB1k0_tCraG4MNSohOuAJHFd4So1Oy5dANS3Qe9l4h', 'width': 4496}]",-3.2409745,127.0679371
"P4V6+M9, Namlea, Buru Regency, Maluku, Indonesia",Pantai jikubesar,ChIJ5eLAVgBtci0RadxhcMwcddo,0.0,"['tourist_attraction', 'point_of_interest', 'establishment']",0.0,,-3.2555295,127.1114007
"MX4Q+QH2, Waekasar, Waetele, Kec. Waeapo, Kabupaten Buru, Maluku, Indonesia",Kolam Renang Waekasar,ChIJtbMIighpci0R4n1PF5_aoeo,4.2,"['tourist_attraction', 'point_of_interest', 'establishment']",17.0,"[{'height': 3072, 'html_attributions': ['<a href=""https://maps.google.com/maps/contrib/109221363017410042695"">A Google User</a>'], 'photo_reference': 'AUGGfZkttwFjjwfDqr2kg81FM0Lows3O24ichG4bWIahBAI2s0zWRFx0MAGnwBEDInnysY52ef2Y_NytYa_TM0PiVXHAsyL77hXMnAM1xV0_zVUBbNfRD-DpAv2JdehKfA5KeX0GH6CiBqBV8NEgfZNTMOJTwz1c8aOSOYrcSYrtQnW-aqAM', 'width': 4080}]",-3.3431033,126.98888
"P22R+X2X, Sanleko, Namlea, Buru Regency, Maluku, Indonesia",Pantai Sanleko,ChIJ1-n3t1Ntci0R4mdcIYAsggg,5.0,"['tourist_attraction', 'point_of_interest', 'establishment']",3.0,"[{'height': 1080, 'html_attributions': ['<a href=""https://maps.google.com/maps/contrib/102192627893362018163"">widi lestari</a>'], 'photo_reference': 'AUGGfZmUhcMX5p2F6eIA8ZdfFQ7UaPL8GItGXgBzPSnjOA9F_HvPEoBpcq2p29tuw3ubDD6yhjgiApXmBUJgQvHRclii_Girso2cZBALXM88pqAHdhTdwX_egUygZYjO8cDNKXSusaUICaRZ7xVY2-ZWS1J6zxvgTTmtezerTky_En-l1LNO', 'width': 1920}]",-3.2975061,127.0401149
"WMMW+6X6, Waprea, Waplau, Buru Regency, Maluku, Indonesia",Dermaga Desa Waprea,ChIJqcIG66gpci0Rjfmjgwe-Eeo,0.0,"['tourist_attraction', 'point_of_interest', 'establishment']",0.0,,-3.0669723,126.697399
"J4GQ+W46, Masarete, Buru Regency, Maluku, Indonesia",Pulau Nirwana,ChIJN_1vSxlxci0R_dpx0hIXGqg,5.0,"['tourist_attraction', 'point_of_interest', 'establishment']",1.0,"[{'height': 810, 'html_attributions': ['<a href=""https://maps.google.com/maps/contrib/117433859626061024021"">Citra Meliany</a>'], 'photo_reference': 'AUGGfZnHRpAunm7NIBviPb6_i2hudP00GIn75BVv2Ernnj3KTYGyPr5i-Vvm_pk1uvnNrb282_0h7AbjLpDJj2erITOOeZgyErrNb_mud8PQNTiVeKSUo_Y8SG_Ywd-HVQ-IgiUIuXn5dM0xwcCOr4ZJCh2i32x68JYzhawSn3AxG9sODu8X', 'width': 1080}]",-3.3727057,127.1377631
"P4C9+WR, Namlea, Buru Regency, Maluku, Indonesia",Pantai Talaga Nametek,ChIJM9u-W2Jtci0R1fwpOz8V8kA,5.0,"['tourist_attraction', 'point_of_interest', 'establishment']",1.0,"[{'height': 3000, 'html_attributions': ['<a href=""https://maps.google.com/maps/contrib/116015975674329344379"">randy rian lesmana sella</a>'], 'photo_reference': 'AUGGfZnaJQ6A3FNJHYgNiqSdbjX2MtySHyRHqLHuUNJyCg6K6ac2hpMNS4-V2B37M9m6uiBtV7egaz8f10QldILI4T211wb3JnmHlLa9cMm34okHsUxiTLjinpvgthmM0Vthl_3vaUM35I-H_QsYUYt5p-RRmCia88BZ0UbYwYj7LXkA2iBC', 'width': 4000}]",-3.2777138,127.1196186
"P29P+FM, Jamilu, Buru Regency, Maluku, Indonesia",Pantai Pisa,ChIJsaJo2Hlrci0RnTchBkXaVNc,5.0,"['tourist_attraction', 'point_of_interest', 'establishment']",2.0,"[{'height': 4160, 'html_attributions': ['<a href=""https://maps.google.com/maps/contrib/101074578928357520603"">A Google User</a>'], 'photo_reference': 'AUGGfZk9jillTHnAw-nj6iEgpQ5BgxaNNRuWwVpvFYL1cc4ANl2Rf2-rmSSUy9TFNvQm2-x-fyz1RwuZnBnkE-TuDaM38eaz6h0kGlT2LdF39zYcn5QPhD5nu_pl4oKPa0bLtOFmlEBW62Lje_UStPT4AH5W01m_o0zTdkgbAE0W-iNzTE4Z', 'width': 3120}]",-3.2813738,127.0366317
"WRFG+FX, Samalagi, Buru Regency, Maluku, Indonesia",Batu magi,ChIJKbN-apklci0RBXSogHFfwmo,4.3,"['tourist_attraction', 'point_of_interest', 'establishment']",3.0,"[{'height': 358, 'html_attributions': ['<a href=""https://maps.google.com/maps/contrib/111665533228175713985"">A Google User</a>'], 'photo_reference': 'AUGGfZmmp6XUVOoyDOj2zU0lIlKwPjoofhCJwI-z8Ks6KOQK4Gl3PWQx0Ay4LcHee3CdpJi5veubqP-DyNtWMTHNHOoqTL39TXml34ML2PsGCut8WZICaVWYnJ7Kbc5388s2aZ3ruU0OBApJzr8M2CeY5s1n2wWM88_eBUUH5Mx-MS4shxbd', 'width': 540}]",-3.0763192,126.8273836
"R2JG+8QJ, Jl. Propinsi, Jikumerasa, Kec. Namlea, Kabupaten Buru, Maluku, Indonesia",Pantai Paserputih,ChIJDWBIrysXci0R7lCATCOrEaM,4.1,"['tourist_attraction', 'point_of_interest', 'establishment']",7.0,"[{'height': 3024, 'html_attributions': ['<a href=""https://maps.google.com/maps/contrib/101727079399376713207"">Arief Aldino</a>'], 'photo_reference': 'AUGGfZmsdl3njnuFfoH0NT3r2dE1VweMytL7a5ooIT4Aou45y2lqxtE-pbIoxm--3s-uND-lou3PMQYltqCZfMdPLHmEgbKGx-msmnJn5psV_mAwrWsIViIo3ZsCXKqlP0tBPUJFC2Qvr7U4Day4oz9fogx5w8s3dQVYkArYJbeBaM3zniQE', 'width': 4032}]",-3.1691545,127.0269014
"C6WX+337, Ilath, Bata Bual, Buru Regency, Maluku, Indonesia",Tanjung waemoli,ChIJxe45jNeBci0RtS3IiRfv9GY,0.0,"['tourist_attraction', 'point_of_interest', 'establishment']",0.0,,-3.5548259,127.2476783
"M3FF+77C, Kayeli, Waeapo, Buru Regency, Maluku, Indonesia",Wisma Apung Kaki Air,ChIJw_lValJvci0RUiFg0nZMF78,5.0,"['tourist_attraction', 'point_of_interest', 'establishment']",9.0,"[{'height': 2340, 'html_attributions': ['<a href=""https://maps.google.com/maps/contrib/112090739008318103044"">A Google User</a>'], 'photo_reference': 'AUGGfZnIQEJLQTDdLRI6yGU7MFQTbiYW7mB5zbG6pk8tAg8rSKo7RR5FWSfDeXQcY1DA3xTIWcB76b2O60Ll8lMu8olMWJoBTbLRgiV_bZqLJ2cQJ3t7sY9B_eCUArhVsrZNeM6JX1V_wvV2L8MdWu3ZkMnJw8qte-UMtBOpEeX3ku9ccgY', 'width': 4160}]",-3.3268075,127.0731289
"P4C8+4PC, Nametek Kodim, Namlea, Kec. Namlea, Kabupaten Buru, Maluku, Indonesia",Talaga Beach,ChIJdee3Gnhtci0R5uBsPNgBGNM,4.2,"['tourist_attraction', 'point_of_interest', 'establishment']",92.0,"[{'height': 1814, 'html_attributions': ['<a href=""https://maps.google.com/maps/contrib/105549757212635371624"">A Google User</a>'], 'photo_reference': 'AUGGfZnMG96R5sVM1c-XQLe_tnbVNGRb37P8p5EOpmokhwgUC-PA_-lbvDcFBMG9eqJVp0T3cdIfrqPfCsNygmKhx1xfGtcn5RmlAuiyGtjxLBwT31JafOfYFczPIIjol0AWXXRBx0xb6ZoiEDJt8ySEYo_lxxYF6EamyCr5WbVaTn1YGm_p', 'width': 2382}]",-3.2796884,127.1167617
"R2GV+93X, Jikumerasa, Lilialy, Buru Regency, Maluku, Indonesia",Pantai Depan Pesantren,ChIJBx5JrekRci0R7ZK2EozsGZE,0.0,"['tourist_attraction', 'point_of_interest', 'establishment']",0.0,"[{'height': 3000, 'html_attributions': ['<a href=""https://maps.google.com/maps/contrib/117710082235119130397"">SU GI</a>'], 'photo_reference': 'AUGGfZkXtOXBI4xV3MhMTrqJOHqMzFhadHjMRN4CAknshOc5n0A7-OWYRrmXR8AiGXe1gsjwbMu-I5FNcyO0cUjUWT4F1X31JwUmKCxOJAcuFlSsNGYitYCwzYET00sqpK0pQwfN8N-XWYfG-DHH0h_9w-u8Wk2S-dQJYomdiizquGJQc005', 'width': 4000}]",-3.1740169,127.0427358
"VX2R+68R, Sawa, Namlea, Buru Regency, Maluku, Indonesia",Telaga Kodok,ChIJ26Z7pZEXci0R0AA1ogzET5g,5.0,"['tourist_attraction', 'point_of_interest', 'establishment']",1.0,,-3.1493946,126.9907707
"R2CC+7X8, Jikumerasa, Lilialy, Buru Regency, Maluku, Indonesia",Danau Jikumerasa,ChIJ_ZSXbX8Xci0RQz_Su6kwNO4,5.0,"['tourist_attraction', 'point_of_interest', 'establishment']",1.0,"[{'height': 806, 'html_attributions': ['<a href=""https://maps.google.com/maps/contrib/117710082235119130397"">SU GI</a>'], 'photo_reference': 'AUGGfZn8fc5riuc3U6pLg_-mjre-3tEHm040XLaGjnXBLJnXBvptAmVJqpD7WT9DFdu8BgwMX_jIvqNTful3Uk2c6zVWvYl_DqQ7LDwsQvaWr8cXdr3_kgQP14kcnrpJNTf7geVQ8GLlsmJ8GX5N4NUigVVZVE6Ff_eXf9YhlApD5cAhI2Cs', 'width': 1080}]",-3.1793266,127.0224378
"F62W+H6F, Ilath, Bata Bual, Buru Regency, Maluku, Indonesia",Kali (air Kem),ChIJFRdtp3yBci0RMtiexb3POk4,0.0,"['tourist_attraction', 'point_of_interest', 'establishment']",0.0,,-3.5485719,127.2455493
"VW4P+GJ8, Jl. Propinsi, Waeperang, Kec. Lilialy, Kabupaten Buru, Maluku, Indonesia",Queen beach waeperang village.,ChIJkUPmJMU9ci0RrP-OkWxhE2o,5.0,"['tourist_attraction', 'point_of_interest', 'establishment']",5.0,"[{'height': 3000, 'html_attributions': ['<a href=""https://maps.google.com/maps/contrib/103137310895906859792"">Anang Maruf</a>'], 'photo_reference': 'AUGGfZmaAns4afejLfGtlwpkgXSWKpx44PDEkOR37i5-S3c3dFuv5IAzKmYt5WRUOPraUSmsd7Zru02utovbBckIuZ-c8gqsMBhIrNouOQGJ-2chg1iBSjrOrQKBxyqOyTAuAikyThGQyq0P1sgla4YyvvD1I9l2jHNI0-VzBgnqXF3vB1eK', 'width': 4000}]",-3.1437011,126.9365659
"Q33G+JJC, Unnamed Road, Namlea, Kec. Namlea, Kabupaten Buru, Maluku, Indonesia",Tangga Bukit Kedamaian,ChIJuTwTCfBtci0RHscAzaPRDJU,4.4,"['tourist_attraction', 'point_of_interest', 'establishment']",12.0,"[{'height': 1977, 'html_attributions': ['<a href=""https://maps.google.com/maps/contrib/116552065762162613388"">Ridwan Kurniadi</a>'], 'photo_reference': 'AUGGfZmw4FVDIu62XWTxM8ZZ3AaQAjRd13vi-vfZ9cx5moZuUY-6r6grufJiL4POd6HINcAMJ774K90AOhfcq4xUZF8MQR-duTbJ_CtINbu43vwGUwOIeMhxGZozeWBjRRDtf6H4Gd21_ARHPsXdBdb4AsqQ7xmL_0zPAzfJW8Kodu8o0Z-M', 'width': 3969}]",-3.2459279,127.0765209
"Lala, Namlea, Buru Regency, Maluku, Indonesia",Baby brown cottage -pantai baby,ChIJ_1IGZZATci0Remg1iGTxtU4,5.0,"['tourist_attraction', 'point_of_interest', 'establishment']",6.0,"[{'height': 3120, 'html_attributions': ['<a href=""https://maps.google.com/maps/contrib/105003653059219057712"">A Google User</a>'], 'photo_reference': 'AUGGfZn6n4VeTd0Xd80tneOA1S2p4BreEm8FTWi7rraB0D_BzlsRxPsQZrrmO2sAIaZwsm_alxqVrgiCSdIMEONWSl8zVw27ZOJ5KFFhWZl38dVVO5zQMWtp4NjkldHKpHMxDC4Kx0ioWkcMmQhSqadkL26E-gVO53HaN-MR3g_4LN_Kk-GW', 'width': 4160}]",-3.2180628,127.0966053
"P4C8+3R7, Pulau Buru, Namlea, Maluku, Indonesia",Pantai Laraba,ChIJKaTj-yptci0RoSxI-Zmis-E,4.1,"['tourist_attraction', 'point_of_interest', 'establishment']",7.0,"[{'height': 958, 'html_attributions': ['<a href=""https://maps.google.com/maps/contrib/115941056019442141899"">Ubaidi Ubaidi</a>'], 'photo_reference': 'AUGGfZkAn7cvFKPD-bkxaW8-4B1ZAGUTtbFpBKzMboP8K9dE3wiiMWzJdpdbWLAlRX8eErksMb-Urltj8mfyWOfX1bDgWj9QxpQ2adaKOt5DKcnckq70n4FXUJdgo_v_TbrPYmWLlOEgnISx63mrnUyiMPIin2lnNh3fU-JAxlJEokCdNwnn', 'width': 1280}]",-3.2798357,127.117032
"R2MG+GHM, Laut Banda, Kec. Lilialy, Kabupaten Buru, Maluku, Indonesia",Wisata Bahari Pantai Jikumerasa,ChIJEQI6i8YWci0R07ys3ObwOdg,4.4,"['tourist_attraction', 'point_of_interest', 'establishment']",74.0,"[{'height': 3000, 'html_attributions': ['<a href=""https://maps.google.com/maps/contrib/107886797285271067503"">Agunawan Opa</a>'], 'photo_reference': 'AUGGfZl8Ey-7sugtlK8LFE0xwxr7M_9hzhka91145H4LZdySpTHYlmtqR08PxpKCK-PyGsSuMUm4wLZmko_m-DyNfUETGY_zLMged6u_LbjPl-VDS6LNa1i2iyq7EfmCKfQLFo_j2c4yjxOhd13RJVNIrhDK1KZ3Gq4h3K4JbclcNh0OXbDx', 'width': 4000}]",-3.1661664,127.0264159
"WMJW+H8Q, Jl. Propinsi, Waprea, Waplau, Kabupaten Buru, Maluku, Indonesia",DESA WAPREA,ChIJSUglGx8vci0R1TfZiSHTI20,4.2,"['tourist_attraction', 'point_of_interest', 'establishment']",5.0,"[{'height': 1200, 'html_attributions': ['<a href=""https://maps.google.com/maps/contrib/101449757796609106133"">A Google User</a>'], 'photo_reference': 'AUGGfZkI17M183X2-ZMR1SKDGiIlnRdhTskeIoZct4H-fRhKtkjuOlwPx5fVioUBP_0MhCOC_kEMIN0cjXeGyhVAICXuWYApJ_Jvf5nI1doaQYvXqSyfaL0UBLVohxZVeEs3DH287P9KyqJJyncpA6k8wHzSyG4Bh5ttmvKFblAd3w1a-hjx', 'width': 1600}]",-3.0685352,126.6958589
"P3FW+4CR, Namlea, Buru Regency, Maluku, Indonesia",Pantai Merah Putih (PMP),ChIJNQtGTw9tci0Rd7XI7wzmoSA,4.0,"['tourist_attraction', 'point_of_interest', 'establishment']",398.0,"[{'height': 2322, 'html_attributions': ['<a href=""https://maps.google.com/maps/contrib/116306448708220358800"">Mas Mujib</a>'], 'photo_reference': 'AUGGfZkveE6lKPZr9TZ42uLNWFIKeKvaliSTZIFV_JrGbtFdBCibtDCbij0sYZwGxHf-NdmWS9C4qNbipoG6adrXwGbqKqrlp8JEut1fms3MAlKGY1ARWuGkJgme5yfKHSNLrk9O0is7uOvGmO6ImReRUmuefs_vwy3d2c0TKh9rhJNZ0FzJ', 'width': 4128}]",-3.2771488,127.0960182
"Pulau Buru, Maluku, Indonesia",WISATA PANTAI BAIKOLET,ChIJ_1SgfGYXci0RNlJnYuchItQ,4.7,"['tourist_attraction', 'point_of_interest', 'establishment']",31.0,"[{'height': 1968, 'html_attributions': ['<a href=""https://maps.google.com/maps/contrib/110664652688064378817"">A Google User</a>'], 'photo_reference': 'AUGGfZksLb1OWCTIHbKwIPGVwtY1-lT5puXPxU6JIex1q1t034dkWpMJxJpL80aT5s8jkU5X5rfoNfUefDLHPpsn0A07VsCYcE2iyaqQEwwUpkSMG9VMz7bniyn64NLO18VzHiIDk2vVnnaqvpMvQaD7fb_bTNlebb-d9kuekWZIKLGYl7Rd', 'width': 4144}]",-3.1723498,127.0281949
"WQP9+J9Q, Hatawano, Waplau, Buru Regency, Maluku, Indonesia",Air Terjun Hatawano,ChIJn308kPQpci0RkVWJG87EqYY,4.6,"['tourist_attraction', 'point_of_interest', 'establishment']",12.0,"[{'height': 810, 'html_attributions': ['<a href=""https://maps.google.com/maps/contrib/117710082235119130397"">SU GI</a>'], 'photo_reference': 'AUGGfZnNxWMVJ3SX1rpq5DC6RT17hLX-4_1VseXvjcVYs0lxL8uzVlzhNkqxD3fI2fGALemLWUh1Rj0pcSKl5sKPvIHTcBXHqxH31OmwcJe9pbjHwtyZfHGqWCFqas6mPOx81qHKCK08EMq_eQl7EhGyDBGjaJ59C3KamjDyyCwWDzOeyY5R', 'width': 1080}]",-3.0634242,126.7684833
"R2PF+J89, Jikumerasa, Namlea, Buru Regency, Maluku, Indonesia",Pantai AKO Jikumerasa,ChIJQ5EVg8MWci0ReJ-IZetsKzE,4.3,"['tourist_attraction', 'point_of_interest', 'establishment']",42.0,"[{'height': 3000, 'html_attributions': ['<a href=""https://maps.google.com/maps/contrib/114187661528851938560"">A Google User</a>'], 'photo_reference': 'AUGGfZkAFzmqsacCrKEClpPRn5_WVKRY7KJolqfLcP5Zb3eROKo0KLTtooSIhLkEnDb6cijI7isdL5J4P0oyDrFUew5T-acEbNUTx99foaTHfbY-SzjQyXyiMNNG6gHGz9I2ZjSjeAHvE8L5YZND9rUSU_o4uJnbc-W9-QmpgrlYQN5RII8l', 'width': 4000}]",-3.1634608,127.0233468
"5QGH+JH, Leku, Namrole, South Buru Regency, Maluku, Indonesia",Wamsoba eco resort,ChIJKWmtqnTdci0R-GXZcpOCGnY,4.3,"['tourist_attraction', 'point_of_interest', 'establishment']",3.0,"[{'height': 2268, 'html_attributions': ['<a href=""https://maps.google.com/maps/contrib/112245976359126392022"">A Google User</a>'], 'photo_reference': 'AUGGfZlakyFwga1Sq7F2SvSUExjqUOOxrQ3a0x9QA17nA4BgGwz7LFec_YKlwIorCSWrtqVvtg2DA5BYueNUYqvHChkA0LIfE_Qrh6fR1MIpHX9GmsJSpKNNL4iSGasUueTUHJHXFJLiQXA98EdBpAb2p0Outjer9cVbNy1VUczwknRkMKee', 'width': 4032}]",-3.8234928,126.7789023
"4PWR+X88, Unnamed Road, Labuang, Kec. Namrole, Kabupaten Buru Selatan, Maluku, Indonesia",Wisata Pantai Masnana,ChIJxw6dz8Hdci0RCPHraA0aII0,4.4,"['tourist_attraction', 'point_of_interest', 'establishment']",16.0,"[{'height': 4160, 'html_attributions': ['<a href=""https://maps.google.com/maps/contrib/104552975444064072659"">A Google User</a>'], 'photo_reference': 'AUGGfZmXcB6abJUz_HpX6RpiujFmXHQQO6SqCx7lU17ivFPi-CxR3UBE9_Po06NA92BH0HaYoHt8n3q0Z3Wd76tRPH2Uq6QO8iPUZUIDfrXM5zoN0_5R5DpMCZPZDf-oYKq0wtd2wiTa21RDM34qchRjlHKJ_5NdwZtC0AiU1DpLd_-lDDBJ', 'width': 3120}]",-3.8525994,126.7408173
"55C6+5G2, Jalan, bembihu, Kec. Ambalau, Kabupaten Buru Selatan, Maluku, Indonesia",Gapura Yoma suli Bembihu,ChIJAcPZdgCjci0Rr-lP35X5kns,5.0,"['tourist_attraction', 'point_of_interest', 'establishment']",1.0,,-3.8299689,127.1603144
"Wali, Namrole, South Buru Regency, Maluku, Indonesia","Wali Beach, Namrole",ChIJB_oQ3rLdci0RcDURtnUdGNM,4.1,"['tourist_attraction', 'point_of_interest', 'establishment']",10.0,"[{'height': 3456, 'html_attributions': ['<a href=""https://maps.google.com/maps/contrib/113123323949218574711"">A Google User</a>'], 'photo_reference': 'AUGGfZnzX3eyS9RHWuN3iaEl1ezs7NjyfI__fkbv6sIU31PnLGEMW8uHBTpDuZCbSZ71WJj1E-7OhmopAUEtOdR2bzxa8MvAIW6tATv7nY9Nw_xjG1x0FwhJ33PrpFSiTsJCuF9RI4ktns3kwBdowWvP1-nUbKWQnfb0-TM9sOrQxajfVLKq', 'width': 5184}]",-3.8339224,126.7644589
"Mako-Modaumohe, Jalan Trans Buru, Grandeng, Waeapo, Buru Regency, Maluku, Indonesia",Way Apu Dam,ChIJleGTVGpdci0R1NtA0dKAuxA,4.3,"['tourist_attraction', 'point_of_interest', 'establishment']",33.0,"[{'height': 3000, 'html_attributions': ['<a href=""https://maps.google.com/maps/contrib/102488533959055339755"">A Google User</a>'], 'photo_reference': 'AUGGfZnq83iCZu-MPTXaD-Uqc76Y5VzExElvxD7W90Mf6G2mVdnifyBblQHxRiQ4sH_PzplYvMhUzOwtTiYG6h0VyTHM3t3tQpY-G8F6IQavmMLjDucL4QcPVZptsaODHPVRKx8vcwwb7AS0sVia4BQXAIhYGTi2g585iuutEXeo0A0kbAaA', 'width': 4000}]",-3.553283,126.8407308
"8R6H+4F4, Unnamed Road, Elfule, Kec. Namrole, Kabupaten Buru Selatan, Maluku, Indonesia",Air terjun modanmohe,ChIJD4PhggDxci0Rdd67uY-kc_k,4.8,"['tourist_attraction', 'point_of_interest', 'establishment']",8.0,"[{'height': 3000, 'html_attributions': ['<a href=""https://maps.google.com/maps/contrib/114187661528851938560"">A Google User</a>'], 'photo_reference': 'AUGGfZnxa_9V10smy_1X9oc3PnDThn1YwbEhLzbsHtGit1jELzLRF3lOUw-cVo9HEk-3ttpogf0GI19iekGBvM8HDNf_zxsKwHul4NgPeJyrykMB8twOW3oFYw344tJZZoSzMyxc3Yxl5h7-0JEYqMGJrELtmnf5CDxjS4DKSTnJQqOXFR6i', 'width': 4000}]",-3.6897418,126.8286911
"P3XM+FV, Namlea, Buru Regency, Maluku, Indonesia",Bukit Tatanggo,ChIJAU6aT_htci0R7RlITVMnVOo,5.0,"['park', 'point_of_interest', 'establishment']",5.0,"[{'height': 3120, 'html_attributions': ['<a href=""https://maps.google.com/maps/contrib/107990031263705481831"">Widya Aprilia Kurnia</a>'], 'photo_reference': 'AUGGfZkG9HBxlZjmJbvphOyLuR2pfAur4b6wi82DKY3NV2R4XBjGsj9LD53Ac4VYabXl655ViHSYL3QVhuTTLrWew4mXzqanq9dmmgXoUCe7WfDX85RHP3ahTslT21eLqtzg0MzFIeXZwzB1I1L_ukZRCMTV5EdLiV4M4OM4-1RW-eDf_bpK', 'width': 4160}]",-3.2513058,127.084644
"72J4+RP, Waelikut, South Buru Regency, Maluku, Indonesia",Pantai Desa waimasing,ChIJsc3yg7SVci0ROTXQtkuHHrE,4.5,"['tourist_attraction', 'point_of_interest', 'establishment']",2.0,"[{'height': 4624, 'html_attributions': ['<a href=""https://maps.google.com/maps/contrib/107757791967584633498"">A Google User</a>'], 'photo_reference': 'AUGGfZmURMxuacqMgvM-Lqwgg6kOxdEu2g0ObZRxCMaufbHvUY6_zWA8VGSLmKfxCIjkmlIOJFOXnDPy2xfKb8X7AIBQ3-VA4dQ4K_yqEMt23P5n2PD9BMT6qCMX4zjqn195rQ_TV0QG508rMmsXlZJF33stY8bVwJonpd_l33DjcQP4xUc8', 'width': 3468}]",-3.7179552,127.0068472
"WMPP+CMV, Waprea, Buru Regency, Maluku, Indonesia",Pantai Pasir Putih Desa Waprea,ChIJm2xVme4rci0Rq0_fQdIB8YA,0.0,"['tourist_attraction', 'point_of_interest', 'establishment']",0.0,,-3.0638752,126.6866744
"M564+C82, Waelapia, Buru Regency, Maluku, Indonesia",Tanjung fusang desa waelapia,ChIJb6OpevZxci0RknHjb82vyt0,0.0,"['tourist_attraction', 'point_of_interest', 'establishment']",0.0,"[{'height': 1640, 'html_attributions': ['<a href=""https://maps.google.com/maps/contrib/116785304226703554988"">A Google User</a>'], 'photo_reference': 'AUGGfZlsHyTe1XPJTErRY9KHO4Aeo04PEDGVXLWN_BtzCAvN8JGuCzXl-lInFz8Tcw41n_kXRkrVKjQOPOCLH-wsCStFFrrth4h-hx_s-I1jWdF9HArp7770DscVL1lIdj3aGnIshK7dUOTd8ZcpOtAisU9XvbnuMZlVLr_aXbE9ycXvyF3v', 'width': 720}]",-3.3389899,127.1557758
"J4QQ+WQ6, Waelapia, Teluk Kaiely, Buru Regency, Maluku, Indonesia",Pasir putih Waelapia,ChIJZVzZWABxci0RA5C7oShOcCo,0.0,"['tourist_attraction', 'point_of_interest', 'establishment']",0.0,,-3.3602051,127.1393855
"4PXR+FFQ Gereja Katholik Masnana, Labuang, Kec. Namrole, Kabupaten Buru Selatan, Maluku, Indonesia",Rumah Pohon Tongke Masnana,ChIJsyC78dndci0RfLRag4pSno8,5.0,"['tourist_attraction', 'point_of_interest', 'establishment']",1.0,"[{'height': 4608, 'html_attributions': ['<a href=""https://maps.google.com/maps/contrib/116110276871942716980"">A Google User</a>'], 'photo_reference': 'AUGGfZnLuuiZQqJoUMZrHLP_nH9nKGLSKnjOqYZnNXPAy--G5SgF6bevILcOgbrTvfLpXzl-Tb9rrjVC6bMHDP1mA6tqVsGgdi02-wzQtv3Cx8eCHLa_dZA_HYlLzBoIKgDJm3KALEsufbmWAQDnxLLfXy7nIJqghXp7Ex9hYL24XMu7PGCU', 'width': 3456}]",-3.8512811,126.7412283
"55MV+C2, Masawoy, South Buru Regency, Maluku, Indonesia",PANTAI NAMLATU AMBALAU,ChIJf4SmYQCjci0RWA-hXx_OFEY,0.0,"['tourist_attraction', 'point_of_interest', 'establishment']",0.0,,-3.816487,127.1925941
"Q37F+3QF, Biloro, Kepala Madan, South Buru Regency, Maluku, Indonesia",Gunung Kapala Madan,ChIJpw8iIgDzcy0RdW_FoOUakr0,0.0,"['tourist_attraction', 'point_of_interest', 'establishment']",0.0,,-3.2373124,126.0744228
"M247+X4, Savanajaya, Waeapo, Buru Regency, Maluku, Indonesia",Pelabuhan ketinting,ChIJcY5S14Fpci0RcDOZUmaKoPM,0.0,"['tourist_attraction', 'point_of_interest', 'establishment']",0.0,,-3.3426693,127.0126092
"VRCV+V8, Waeura, Waplau, Buru Regency, Maluku, Indonesia",Air terjun tanah rubu,ChIJyV_QWQAlci0Rnso2ob_sV0Q,0.0,"['tourist_attraction', 'point_of_interest', 'establishment']",0.0,"[{'height': 4032, 'html_attributions': ['<a href=""https://maps.google.com/maps/contrib/108769650519283897371"">A Google User</a>'], 'photo_reference': 'AUGGfZn4rhdVcXTe3DEjolZpCiqoW55NiZGvcdOcnHqcFU_zJF9V0tvn-xFcOXbFgG4-XCPtwCdj4ttphxvxVoowFhM_BUDoZQrCDDP5UG6F0nsowizD_DBRhUQJntTKXVoCSA87vIAsdpaBwIbZA38NkEHKAZZXboRGqPASyOQvLiUecCq3', 'width': 3024}]",-3.1278125,126.8433125
"R278+2X9, Biloro, Kepala Madan, South Buru Regency, Maluku, Indonesia",Kapala Madan,ChIJFQFgdjHxcy0R9A9ImwAKAhw,5.0,"['park', 'point_of_interest', 'establishment']",1.0,"[{'height': 2448, 'html_attributions': ['<a href=""https://maps.google.com/maps/contrib/100179515218348070928"">Gunung Sitorus</a>'], 'photo_reference': 'AUGGfZmz4pVQs7awTzUTwAmD02H3jCsRbn7EyMoRfsgiX-3ZgEus_-qYj1meGyl-E43E-M-aos0Z2Ukud0TnDiVQF01ZfWq8_OBPVwYbwEW5_bucaReB3zDiFIzgU16Zcojgu1tcejFak09AZyN6a_F8IAx4X2Ycute8kNppn4oK_jTkyJWb', 'width': 3264}]",-3.1874652,126.0174919
"WM39+5R9, Waepoti, Waplau, Buru Regency, Maluku, Indonesia",Langkuas Lale,ChIJhcbNVOYtci0RBmJc9-qfXrg,5.0,"['park', 'point_of_interest', 'establishment']",3.0,"[{'height': 3120, 'html_attributions': ['<a href=""https://maps.google.com/maps/contrib/105074484835399864423"">Yulius Lesbata</a>'], 'photo_reference': 'AUGGfZmKCD0t9-LWcy2bXP7KaVoDDN29HERwEc1OWKu9EfMamrOhEdvRrOeV1zpE1uPl6IKm3bkaMIbHYx5vvfIBH7Hc5IQTjb7BZFcB-IIGLMEbm79PY7OnuE6CM4XiI6yekrzQQkPPzb-5yTTETg2Ypvl-mF6JFSGAqz54KM3vFTplsdkG', 'width': 3120}]",-3.0970972,126.6696174
"6V76+33G, Oki Lama, Namrole, South Buru Regency, Maluku, Indonesia",Pantai OKI Lama x,ChIJUdYrHlLDci0RHys6I4tD0Qc,0.0,"['tourist_attraction', 'point_of_interest', 'establishment']",0.0,"[{'height': 4000, 'html_attributions': ['<a href=""https://maps.google.com/maps/contrib/113291015432646323093"">Aznul Syahputra</a>'], 'photo_reference': 'AUGGfZkfDjRnjoyT4tUmxzxSXojMNjasR_R8V_X1kTHlU1qZnwYcJlQNNpKCIGR16VWDI24641tENmG71jvRAKGDrDHpIUvE1qCDvYnQ_P_T-uIVEqF2_vdFhIvm_DaQ096lRF0xmj8HxXTvkcvOr125CpP1wOJlatBHQTTSVwSt-7cM_ImB', 'width': 3000}]",-3.7865231,126.861116
"Q2Q8+83, Nanali, South Buru Regency, Maluku, Indonesia",KAKI AER SINABAPAGURU,ChIJD-aHTwDxcy0RneUYUHLTKi4,0.0,"['tourist_attraction', 'point_of_interest', 'establishment']",0.0,,-3.210756,126.0159449
"Q2V3+QW, Nanali, Kabupaten Buru Selatan, Maluku, Indonesia",Pantai Tomahu,ChIJs4c6agDxcy0RkxG26j3pX-U,0.0,"['tourist_attraction', 'point_of_interest', 'establishment']",0.0,,-3.2055112,126.0048349
"4MVG+8P, Lektama, Namrole, South Buru Regency, Maluku, Indonesia",Pulau Kambing,ChIJBfWDNwDfci0ROkQ3fHPw_c4,0.0,"['tourist_attraction', 'point_of_interest', 'establishment']",0.0,,-3.8594577,126.6855225
"5JH9+5QF, Wamkana, Namrole, South Buru Regency, Maluku, Indonesia",Batu Tulis,ChIJZezxLWrfci0RtpCWnsUwBZ8,3.0,"['tourist_attraction', 'point_of_interest', 'establishment']",2.0,"[{'height': 2400, 'html_attributions': ['<a href=""https://maps.google.com/maps/contrib/100179515218348070928"">Gunung Sitorus</a>'], 'photo_reference': 'AUGGfZkgw08H05YADxi5lP5G6dhWGoiHACs4iNldp1eVBLuSyhQCwVa95qLjBkrCK6mO_ZB1NJE7HYWg8QcIK-qIst-oQs0RvyXpG5nRsKiJFQfetxtnrXraDdl6GZRQGFodWg914dbJ_n0BV5PWwBrNLDURZ_Kw1j5LN8MWxA8LY-VxMIRu', 'width': 1080}]",-3.8220533,126.6194088
"44WV+F3, Masawoy, South Buru Regency, Maluku, Indonesia",Tanjung pulame,ChIJYcVeY1mlci0R1gmaWnn5jb4,0.0,"['tourist_attraction', 'point_of_interest', 'establishment']",0.0,,-3.8537605,127.1427332
"8388+87H, Simi, Waisama, South Buru Regency, Maluku, Indonesia",PANTAI WAETEBA,ChIJRc-hfgCRci0RG_sg3ire_r0,0.0,"['tourist_attraction', 'point_of_interest', 'establishment']",0.0,,-3.6850151,127.0655221
"545W+GC9, Kampung Baru, Kec. Ambalau, Kabupaten Buru Selatan, Maluku, Indonesia",Tanjung Waesiti,ChIJVwM4L4Clci0Rt40L-woxSgI,5.0,"['tourist_attraction', 'point_of_interest', 'establishment']",1.0,"[{'height': 1040, 'html_attributions': ['<a href=""https://maps.google.com/maps/contrib/100526972402069057289"">A Google User</a>'], 'photo_reference': 'AUGGfZmawdDORjd3nVbqQSBIEpzWozA_EX3ycC6c614rh5Hsf5vG3-SNDBPCb0153HEhdTu-xBVSJzz9VhYzhpUTtSIgUqdpf1tGkSQ1zc7MAPmShfZb_QZ8B2qmfQPVnq1gn7qMzu874u2OuQF3qdmVVboeuaex43JBoS_6mc0v4fzcfAfr', 'width': 780}]",-3.84121,127.146096
"VVJM+XH4, Waplau, Buru Regency, Maluku, Indonesia",Pantai Waplau,ChIJzZRNMXUjci0RTwbNUG_u1x8,5.0,"['park', 'point_of_interest', 'establishment']",1.0,"[{'height': 1080, 'html_attributions': ['<a href=""https://maps.google.com/maps/contrib/116679399844487640583"">A Google User</a>'], 'photo_reference': 'AUGGfZlD_JT1pTjmb1HM_ZD9Vih-fCfmV9wcXD0ou8CI1RkCA5iMsN9Yk3WWQqf7rUDf87N4ADO2bEqTlQRR7RTPEQEImGmADKVKZTmO1vhM-lUaLrzJT2c2lQxZTJyzY8z4xqbdLv4mvG67wAvxZWlR3fwF7SNMYJrF7KqZTQW9HLYwxIRA', 'width': 1080}]",-3.1173265,126.884633
