formatted_address,name,place_id,rating,types,user_ratings_total,photos,lat,lng
"HQQR+94C, Cicadas, Binong, Subang Regency, West Java, Indonesia",Kebon Mahoni,ChIJgSt7SABHaS4RzfpoZSjEUIE,0.0,"['tourist_attraction', 'point_of_interest', 'establishment']",0.0,,-6.411562,107.7902707
"HQ88+63F, Nanggerang, Binong, Subang Regency, West Java 41252, Indonesia",SAWAH RW USEP,ChIJ_YShu505aS4RWsbRbhpLjas,0.0,"['tourist_attraction', 'point_of_interest', 'establishment']",0.0,,-6.434448,107.7651583
"JR9C+2HJ, Unnamed Road, Citrajaya, Kec. Binong, Kabupaten Subang, Jawa Barat 41253, Indonesia",CURUG CIGADUNG,ChIJcSM-jOhHaS4RONiC4yID-FA,4.8,"['tourist_attraction', 'point_of_interest', 'establishment']",5.0,"[{'height': 2368, 'html_attributions': ['<a href=""https://maps.google.com/maps/contrib/107711156696264463807"">A Google User</a>'], 'photo_reference': 'AUGGfZk79kReqce_fZ5opPF2OQPZ7ivsEyhC7XH3DoI2k3KYS7fDbOMVWfGloJqdbED_SYVZ0cW9N1wPAxjPcLPFZEyw6KGzNDFXp4fCHm2TOXFcOpXVAkNPNPVMU1s70FixjaYw1rG0cwxM0lun9s5RXT_wazblVKYyJU8yc6zXiPbbMFCc', 'width': 5200}]",-6.382409399999999,107.8213977
"HP5X+W7, East Cikaum, Cikaum, Subang Regency, West Java, Indonesia",Leuwi pandan,ChIJk0oyYAA_aS4RW6A_cX69CXI,0.0,"['tourist_attraction', 'point_of_interest', 'establishment']",0.0,,-6.4401646,107.7482139
"HP63+Q4, Pasirbungur, Purwadadi, Subang Regency, West Java, Indonesia",Jauajajw,ChIJ-eZpPQA_aS4RqCVOsiCAFI8,0.0,"['tourist_attraction', 'point_of_interest', 'establishment']",0.0,,-6.438018,107.702836
"GPMR+P8, Sindangsari, Cikaum, Subang Regency, West Java, Indonesia",Kandang Pak BUDI,ChIJB-XvXNE_aS4R0b47d9HkdrI,4.8,"['tourist_attraction', 'point_of_interest', 'establishment']",6.0,"[{'height': 4624, 'html_attributions': ['<a href=""https://maps.google.com/maps/contrib/106467553035512629682"">Saparudin Yudi</a>'], 'photo_reference': 'AUGGfZkepZa6mm_ITFlTb1rk0dtlJVAQIhDx6DIil8z0meDDjrwC80YfZ9t7Hw4maY-v46wRx0fO4Jsagu5r7y9hD7mRwfHCxOsfJ2yf1PfiV3g9ehhpiCOsH60N3g6UKavNztza3Jj7fSRmIObTYDuNB2BhtPlDfd0qtNSf2BeDgFTnAnNu', 'width': 3468}]",-6.465687000000001,107.7407529
"MRCW+F8G, Unnamed Road, Rancaudik, Kec. Tambakdahan, Kabupaten Subang, Jawa Barat 41253, Indonesia",Muara cilutung,ChIJ_TqaTUtFaS4RXvOBZukfI2U,0.0,"['tourist_attraction', 'point_of_interest', 'establishment']",0.0,,-6.3288166,107.8458302
"West Tanjungsari, Cikaum, Subang Regency, West Java 41253, Indonesia",Kandang sapi,ChIJ4xsaxW1BaS4RUr7JIMVgUGo,5.0,"['tourist_attraction', 'point_of_interest', 'establishment']",1.0,"[{'height': 3264, 'html_attributions': ['<a href=""https://maps.google.com/maps/contrib/116206243916319764531"">A Google User</a>'], 'photo_reference': 'AUGGfZkw2fraI49sBnE4CAgxmAkGZareKM13X4ZeR1rPQc6i3nZGVxoF41QGib60bPgGBZc36yV1195u6KR7qfW6GCBBGMvp8zHxQiUzSYuM2b4cgG19xKYrznoKOZ4SNfmmD2UbYTRwONA6E6ldVmsClwAEW1QncBaqc7_-4TWJXGFvT-Tr', 'width': 2448}]",-6.4057241,107.7493957
"Jl. Berengkel, 41252, Neglasari, Kec. Pagaden, Kabupaten Subang, Jawa Barat 41252, Indonesia",NUKAMI,ChIJ2TcOs4s4aS4Rj7p0TX2ZmLM,4.4,"['tourist_attraction', 'point_of_interest', 'establishment']",5.0,"[{'height': 425, 'html_attributions': ['<a href=""https://maps.google.com/maps/contrib/100724915561936082335"">A Google User</a>'], 'photo_reference': 'AUGGfZnW3OqyJ1eYLKsnyVs-Mm4uKz513Y5BYstjJET8SUiFWsfvkH0DVjSrR-VDtlckKeEv96PmLIvjiYexFtUkMhOAiiIDQD5rFXIc_aRFQeLBZPhD8TMwnMy-OY5R3wbcFQeVvWGniLcgc1IDQHnuqJ4Z7qYxhZyGutKX818jTS6LSeba', 'width': 756}]",-6.4451737,107.8076497
"7JFG+5XG, Cicadas, Sagalaherang, Subang Regency, West Java, Indonesia",Cicadas Binong subang,ChIJs3cGTwAfaS4R-VGHrAuMje0,0.0,"['tourist_attraction', 'point_of_interest', 'establishment']",0.0,,-6.7270584,107.627451
"PMM7+V83, Blanakan, Subang Regency, West Java 41259, Indonesia",Wisata Buaya Blanakan,ChIJV5XKp_5naS4RjYBXRpV_8nk,3.8,"['tourist_attraction', 'point_of_interest', 'establishment']",572.0,"[{'height': 3000, 'html_attributions': ['<a href=""https://maps.google.com/maps/contrib/103003861811195111124"">Asep Yudha</a>'], 'photo_reference': 'AUGGfZksh2WIUIfoAjQCgJoCDbQCptA-_HMykVH7V5mh5PMl9ZGdQYeOGxaR30Q47FxoGAHU02kH_8B3b2hrIvISLQNkYpAxDIjS2CUcwCDX0VKel5gsWqtRd9ey-QYh-CveDxFFXO_q_NvNwJnCSbuyEM9Tm-2igZlBFJ-BqxtZ_HWp3oxP', 'width': 4000}]",-6.2653643,107.6633054
"PHWQ+VR Master Bonsay, Cilamaya Hilir, Kec. Blanakan, Kabupaten Subang, Jawa Barat 41259, Indonesia",Kantor PAGUYUBAN PASAR JADOEL,ChIJb0ZGZABnaS4RX5EJivVEUmw,0.0,"['tourist_attraction', 'point_of_interest', 'establishment']",0.0,,-6.2528257,107.5893648
"PPMC+RRW, Tanjungtiga, Blanakan, Subang Regency, West Java, Indonesia",Per empangan,ChIJF-ZOYABdaS4R4Nb-WD0-rso,0.0,"['tourist_attraction', 'point_of_interest', 'establishment']",0.0,,-6.2653886,107.7220755
"PMG3+8QX, Raya Blanakan, Jayamukti, Kec. Blanakan, Kabupaten Subang, Jawa Barat 41259, Indonesia",KMB ARENA,ChIJSxz7z6JpaS4RmBOLxcWy5mg,3.5,"['tourist_attraction', 'point_of_interest', 'establishment']",4.0,"[{'height': 417, 'html_attributions': ['<a href=""https://maps.google.com/maps/contrib/112793722258313784679"">A Google User</a>'], 'photo_reference': 'AUGGfZl0D-QDTPclA0RNCqROgOfGuXThluGtqpaz1NgE1YgHdlV07nLUO9qhom0eOosdNMwIwStYY0FyjhKHrF9O3kVLX7GuxJ84HShCQMZA_dPRPNXZXYBEEgSTxg4rq3M5ZN-ebZ0W2IIg5DxevBSBrJ7kRypqJe1lUt6_FYbiGO8eNsnX', 'width': 650}]",-6.274140999999999,107.6545
"PJ8C+H42, Unnamed Road, Rawamekar, Kec. Blanakan, Kabupaten Subang, Jawa Barat 41259, Indonesia",Kali anyar,ChIJY1G7YsJpaS4R47LuNz943Ew,0.0,"['tourist_attraction', 'point_of_interest', 'establishment']",0.0,,-6.283603599999999,107.6202508
"PMF5+5HC, Blanakan, Subang Regency, West Java 41259, Indonesia",Ujung,ChIJdShWSzJpaS4Rrs8WkBkA3F0,0.0,"['tourist_attraction', 'point_of_interest', 'establishment']",0.0,,-6.2770682,107.6588757
"Kp.sindang laut No.1, Muara, Kec. Blanakan, Kabupaten Subang, Jawa Barat 41259, Indonesia",Anter jmput pemancingan mang Rasta,ChIJ3_UHaIxdaS4R0KOc2S-LnQA,4.3,"['tourist_attraction', 'point_of_interest', 'establishment']",3.0,"[{'height': 1040, 'html_attributions': ['<a href=""https://maps.google.com/maps/contrib/114816560048374538479"">A Google User</a>'], 'photo_reference': 'AUGGfZlvAF4CyIEbVE5WE7Gmksx2GUPKAwejWC2B8AgVZHr8GLAo32VeoyrX69Vj4K8vAiA3p4z-A4xHRibf50mY0DlnG90DzuV1ugG9ovuXR42jo7y41cdkkW4D8R-nl6Tvq93s_kYbWNgE_pU-f-oD2etICmoNQonrzH3ISLn1KuEcDPhO', 'width': 780}]",-6.2361005,107.7006391
"Kp Balok Rt 01, RT.01/RW.04, Cilamaya Hilir, Kec. Blanakan, Kabupaten Subang, Jawa Barat 41259, Indonesia",Barokah sejahtera (BAHTERA) Gurame mandiri,ChIJ8cXqKGtnaS4RgkvTJH9O9xY,5.0,"['tourist_attraction', 'point_of_interest', 'establishment']",1.0,,-6.254090799999999,107.5957602
"PJMV+6W5, Jayamukti, Blanakan, Subang Regency, West Java, Indonesia",Sungai cibening,ChIJs8uxMQBnaS4RmDmJXeENo0s,0.0,"['tourist_attraction', 'point_of_interest', 'establishment']",0.0,,-6.266994599999999,107.6448641
"PJQX+FH, Jayamukti, Blanakan, Subang Regency, West Java 41259, Indonesia",Pemancingan ikan mujair alam mantaap,ChIJr1HcrMFnaS4Rp6J_E0PlYTw,5.0,"['tourist_attraction', 'point_of_interest', 'establishment']",1.0,"[{'height': 4032, 'html_attributions': ['<a href=""https://maps.google.com/maps/contrib/111753412834143619967"">saefuloh ipunk</a>'], 'photo_reference': 'AUGGfZm6FxBB-I7mz3WU-QKOaNm4Tpnn6eHmqqimbavHX3bHaoa5NM9w487XwJccLt9hHp4HlfrY4iLouk8riEk8nGaPt6bd57WAuDCdiMGuQVw0I2ih958CeWNI8bOa0C9o3RZuBCeqm8VG-XYgtK8_DWkwlr3WUWGzG8xuJhdUzJ5KyMx0', 'width': 3024}]",-6.2613125,107.6489375
"PMG6+4WP, Blanakan, Subang Regency, West Java, Indonesia",Subang belanakan,ChIJP3oASklpaS4RwZjeYe9VrOk,0.0,"['park', 'point_of_interest', 'establishment']",0.0,,-6.2746615,107.6623384
"QJ5H+5HX, Rawameneng, Blanakan, Subang Regency, West Java 41259, Indonesia",Kali Gangga rawameneng,ChIJU3aWW7xnaS4RuD3E1sEiOZQ,4.1,"['tourist_attraction', 'point_of_interest', 'establishment']",7.0,"[{'height': 4160, 'html_attributions': ['<a href=""https://maps.google.com/maps/contrib/112005911887023721009"">A Google User</a>'], 'photo_reference': 'AUGGfZn6_YrMgTt44o1mB5TA3y1kqDw-ggBlZ7XMPJF67YZ7DixLO2CHOd0s3OAGs-f5IYLUYPivwP1GrvDNLtKa8XvOLFlGCP_Qc31Rq0CLf4IV2E-NFsbiRYT_S1xClqynivdK54GYG3u3WQ5SfbfwctNYHdqkKxNeDSUT3iK7VD-khpYt', 'width': 3120}]",-6.2420212,107.6289887
"PJ9F+25, Rawamekar, Blanakan, Subang Regency, West Java 41259, Indonesia",Tongkor kuburan desa Tegal koneng,ChIJWYfrU9hpaS4RYcEacXuP3I4,1.0,"['tourist_attraction', 'point_of_interest', 'establishment']",1.0,,-6.2823809,107.6229407
"PMF5+5HC, Jl. Blanakan-Ciasem, Blanakan, Kec. Blanakan, Kabupaten Subang, Jawa Barat 41259, Indonesia",Tugu ikan hiu Blanakan,ChIJUYhCNCJpaS4RvGQVe-Gmfg0,5.0,"['point_of_interest', 'establishment']",1.0,"[{'height': 820, 'html_attributions': ['<a href=""https://maps.google.com/maps/contrib/103262712745446371330"">A Google User</a>'], 'photo_reference': 'AUGGfZn-6ODdTD0pPpE7Wb7NMgv5oOCF1OFiLW3RxhE8Cmfl11ugkAEBYBeuuF0WiVDN8Ors65FBGLo0Qq9bM8Yek-yfKAy-TKmcqiCZN10nPse6eHf_dd9NQl-_JFzcBsJfIz4Iqml_4BpQrX9l_n82XowZUdNSXDN816Gu75F_qBS5-10Y', 'width': 719}]",-6.277059,107.658884
"QJ23+4W2, Cilamaya Girang, Blanakan, Subang Regency, West Java 41259, Indonesia",Kolam renang H.ujang,ChIJ0Z1ORC9naS4REr-L1wndRM0,4.5,"['tourist_attraction', 'point_of_interest', 'establishment']",27.0,"[{'height': 1920, 'html_attributions': ['<a href=""https://maps.google.com/maps/contrib/101032424615371382969"">A Google User</a>'], 'photo_reference': 'AUGGfZnFUm-bNe25IlDTOMmBDttDIabk_dFAJK-kJ8fvhQ2V-q88ZQa5MNjFDBk5Ju5d5bHbzlJ1CSP3oRjgfwQMx6Dfo_xCYCs9ghHURsAdOMY1dtmG9StSMHPSD3Wi4clBLGMLL_CTVsPOGl_OWs54EnqDcOmGTDmQKWexQ1APjfv19Rho', 'width': 1080}]",-6.249738799999999,107.6047721
"PJ69+J59, Jl. Sukagenah, Pinangsari, Blanakan, Subang Regency, West Java 41256, Indonesia",Air terjun (perapatan skg),ChIJk_bxWzRpaS4RjXVB44BcV1k,0.0,"['tourist_attraction', 'point_of_interest', 'establishment']",0.0,,-6.2896516,107.6173976
"QJFJ+W6V, Cilamaya Girang, Blanakan, Subang Regency, West Java 41259, Indonesia",Greenthink,ChIJgUkv1wVnaS4RpOb-7X2bKYM,4.1,"['tourist_attraction', 'point_of_interest', 'establishment']",76.0,"[{'height': 3000, 'html_attributions': ['<a href=""https://maps.google.com/maps/contrib/106864937540812087979"">Deny Komeng</a>'], 'photo_reference': 'AUGGfZlXTb9RacamRg7oqJg-I8kWIU1Uz0hddb-n2J1E379LGl2_b7pHhN4JtSdHwy98WCBs2eiXCLcf2b9vTkKK8MDYh7GobIagqt8w3Nb2kJCKrQNv4GyGcavjd_ks1jtVWrbyZxNtxS9imT2s0rK2aIsCZXIrKC8xH4GkkmgTy4t1BWvJ', 'width': 4000}]",-6.2251442,107.6305388
"MMJR+P46, Ciasem Tengah, Ciasem, Subang Regency, West Java 41256, Indonesia",0 KM CIASEM,ChIJNz7XEV9DaS4RQG2LarKnfUY,1.0,"['tourist_attraction', 'point_of_interest', 'establishment']",1.0,,-6.3182144,107.6902547
"JMX3+VWH, Jl. BPTP, Sukamandijaya, Kec. Ciasem, Kabupaten Subang, Jawa Barat 41282, Indonesia",Taman Burung Sukamandi,ChIJT-0DpvdpaS4RoWKnD5W8H7U,4.3,"['park', 'tourist_attraction', 'point_of_interest', 'establishment']",601.0,"[{'height': 720, 'html_attributions': ['<a href=""https://maps.google.com/maps/contrib/116465013711276962503"">kusnadi kurniawan</a>'], 'photo_reference': 'AUGGfZkJAH51fqPYzJG-JgQpaZ73TE2w12S6Loy52XfLVln5_zbAFlEWVAzbfZqMIBRmDtGo4DXZPdzh25jRQ6r1Ev87vVRsHHvMHk_MwjaY3-Tc-_OTmG7krHsTaAFT_WSvJ5yVcwihlakeUVpNJ1F6OUvLK3ombvCO1hPAJwBFXS20AHmX', 'width': 1280}]",-6.350324,107.6548476
"JPXH+78C, Jatibaru, Ciasem, Subang Regency, West Java 41256, Indonesia",Taman Strawberry Dan KolamRenang Pantura SUBANG,ChIJBcLiZ6BBaS4RG6Q0pCwVghI,4.5,"['tourist_attraction', 'point_of_interest', 'establishment']",2.0,"[{'height': 1970, 'html_attributions': ['<a href=""https://maps.google.com/maps/contrib/110318579268706821214"">A Google User</a>'], 'photo_reference': 'AUGGfZkHuyZMMmMsrXkh75e00OM9q0JFUFutwfyXwLYp5Dfe4oOdZl8QfUTLFUg-K93pYfBEl_Qqm8q2U2397ESUECNHP6J2lEj2SbLDoyOAheZMOTHa4E9tgPnbfQlOVvQ0Ih4LziDvBQRrh7SOCkyZRnmx1Q32fBZMq213BMYsl69jU_Q-', 'width': 4160}]",-6.3517489,107.7284055
"JPQJ+P53, Mekarsari, Cikaum, Subang Regency, West Java 41253, Indonesia",Pemancingan galatama lele (BL),ChIJo7OEqulBaS4RHCCjwgQuiE8,5.0,"['tourist_attraction', 'point_of_interest', 'establishment']",1.0,"[{'height': 405, 'html_attributions': ['<a href=""https://maps.google.com/maps/contrib/106007585749805387137"">A Google User</a>'], 'photo_reference': 'AUGGfZlHho5ZMGlJn-xrCr8XYnEgK_jc7KQUYC7VscLXhj4N9_oTKNZPHSfVWeesv_qR0tEV3mh7LxKMgWZuothDwyO1opHh9Abd2z3XjFDhIo9BC03r4svVo4QkfoDfqXAfcI69PGT1FPEEeeB7MY-An33B6ZvuR25tScnjwhDBUj_Itr21', 'width': 720}]",-6.361053099999999,107.7308423
"Jl. Raya,Patok Besi,Subang, Gempolsari, Kec. Patokbeusi, Kabupaten Subang, Jawa Barat, Indonesia",SS SUKAMANDII,ChIJPSjVXcBraS4RDoesV-PD3dk,0.0,"['tourist_attraction', 'point_of_interest', 'establishment']",0.0,"[{'height': 3840, 'html_attributions': ['<a href=""https://maps.google.com/maps/contrib/100230990460913138663"">A Google User</a>'], 'photo_reference': 'AUGGfZnFp1Cbu0cc1odOmQ1JFim79sIptpoaq96ZduU-lmmMW5KJcRLMZeN6_HDKwqOosvF0TyLrJmsJnIe3Mn5BSu9F8Pktm7BQHqeVeYx35munAcyRD7YxDozAd1G7uObOoMlCoDoqkYB633gabML7bhhpD9Lo3sT9x135tNS1hfnbeGEl', 'width': 2160}]",-6.3699806,107.6171703
"MH8M+HPF, Unnamed Road, Tambakjati, Kec. Patokbeusi, Kabupaten Subang, Jawa Barat 41263, Indonesia",Kolam renang tambakjati dan Msglow,ChIJX_Iyg4ZpaS4R-JcbtbHXvmM,0.0,"['tourist_attraction', 'point_of_interest', 'establishment']",0.0,"[{'height': 4160, 'html_attributions': ['<a href=""https://maps.google.com/maps/contrib/101074713770831932954"">Cicih Apriliani</a>'], 'photo_reference': 'AUGGfZlOuboSHSxAYOLXl8DUCmhs2pjZ9V7KBKJxg7g07IH9Et1qna09PB_RYiyfWIQYFCmCgwl7wHqoory6jbdbBxSw-9Q3HGnsUSj7JxkS6hNefOyofIREd_3ntRQ0UlSYStAMMbznlCvKTnKfyuqUDBrSccXEiNXcrg2lBrbG5ru_WXr-', 'width': 3120}]",-6.3336158,107.5842738
"JJM7+PHP, Gempolsari, Patokbeusi, Subang Regency, West Java 41263, Indonesia",Bos empang (H. Kusman Hidayat),ChIJOX6dWQBraS4RXfpuP39LlnA,0.0,"['tourist_attraction', 'point_of_interest', 'establishment']",0.0,,-6.365651199999999,107.613962
"JJM7+PHP, Gempolsari, Patokbeusi, Subang Regency, West Java 41263, Indonesia",Bos Empang Sodong,ChIJAZ6TRgBraS4RWAEQqH0J4OQ,0.0,"['tourist_attraction', 'point_of_interest', 'establishment']",0.0,,-6.3656529,107.6139596
"HMW8+MP, Rancamahi, Purwadadi, Subang Regency, West Java, Indonesia","Kali Abang ,-",ChIJZfCwMb1raS4R4rokZx_t2K4,3.0,"['tourist_attraction', 'point_of_interest', 'establishment']",2.0,,-6.4033101,107.6668149
"JJ4J+XXP, Kp Pundong, Rancamulya, Kec. Patokbeusi, Kabupaten Subang, Jawa Barat 41263, Indonesia",Pemancingan Lung Lep mania,ChIJLVWCqXNraS4ROAaRNV6KhE0,1.0,"['tourist_attraction', 'point_of_interest', 'establishment']",1.0,"[{'height': 3120, 'html_attributions': ['<a href=""https://maps.google.com/maps/contrib/117294781577244256053"">A Google User</a>'], 'photo_reference': 'AUGGfZkfzroHzjGNvT5y7IvfAhlYPA5rTK0vV8GpojTPKEDhZVxEIRnb2kXjYJ5HJi3q8ls4s57yTY8m5lyMpsu1vBsno6Z7a1-vtUehN5oZHZfLKvkyGPue7kr1kgIPug3Ul9Tsru8PkE34XF5pKJfU824mX7ttdZL2W0-Iz1C98-KVVIGs', 'width': 4160}]",-6.3925111,107.6324061
"JQ43+P4R, West Tanjungsari, Cikaum, Subang Regency, West Java 41253, Indonesia","Situ Tunjung , Ampera",ChIJV6mQ8l1BaS4RQrh7bEOYnbc,4.3,"['tourist_attraction', 'point_of_interest', 'establishment']",7.0,"[{'height': 3000, 'html_attributions': ['<a href=""https://maps.google.com/maps/contrib/101561809785115979454"">Dewinta Ramdaniah</a>'], 'photo_reference': 'AUGGfZnorqvDZCYLTqOYqejpdeZ9Xn6xulnNYFkXsalxIPpxhapaSZFB6sA86WYDpgrDESEuw26MczluS_HIWLC1L7LrTfzI1hm-hhy4nxXf2lQYLvADh2vuoTQK9_obdHwg09I48eqEYnHGZNrzI46fljwCtNYhw4SnmtiB8vJNzyh-nFb_', 'width': 4000}]",-6.393139199999999,107.7527693
"JHG9+2RJ, Tanjungrasa, Patokbeusi, Subang Regency, West Java 41263, Indonesia",Pemancingan galatama lele SM UTAMA,ChIJr01bAQBtaS4RUd0drVyovw8,0.0,"['tourist_attraction', 'point_of_interest', 'establishment']",0.0,,-6.374665999999999,107.56965
"HJMV+RW2, Karanghegar, Pabuaran, Subang Regency, West Java 41262, Indonesia",Galatama Lele,ChIJM45g9xRraS4RB0-iwDcng14,0.0,"['tourist_attraction', 'point_of_interest', 'establishment']",0.0,"[{'height': 1536, 'html_attributions': ['<a href=""https://maps.google.com/maps/contrib/108875455403458206273"">A Google User</a>'], 'photo_reference': 'AUGGfZlsGcW0JRpvgr7l77ZiKEODctM4USrF7cyLcQJhyliBV5QUA_hPg53Y12JgEme2VC-L1hLwJFi-EkIzIVr16-tGzQAfd0kAVCn7KTRIeTJBF4QtRLnTp0pKCDo-DD-ugKGAAqiv3OYxyxMC-hRgMRge4c_YcxBvDEbDtO9HB1Bx_L5a', 'width': 1536}]",-6.4154189,107.6441539
"HMW7+R6, Panyingkiran, Purwadadi, Subang Regency, West Java, Indonesia",Kali Putih,ChIJ0xBpfENraS4RYmuCNO5LX90,0.0,"['tourist_attraction', 'point_of_interest', 'establishment']",0.0,,-6.4029593,107.6630045
"MMRV+67X, Ciasembaru, Ciasem, Subang Regency, West Java 41256, Indonesia",yunus bachtiar,ChIJweFVRitDaS4RCew2RgewQos,0.0,"['campground', 'park', 'lodging', 'point_of_interest', 'establishment']",0.0,,-6.308972600000001,107.6935787
"Jl. Raya Ciater, Nagrak, Kec. Ciater, Kabupaten Subang, Jawa Barat 40154, Indonesia",Pemandian Air Panas Ciater,ChIJpXB4uErhaC4RwNxfUl6c4O0,4.3,"['tourist_attraction', 'point_of_interest', 'establishment']",15583.0,"[{'height': 3024, 'html_attributions': ['<a href=""https://maps.google.com/maps/contrib/112575367327926463458"">antonyll lukitaa</a>'], 'photo_reference': 'AUGGfZk22hAp70QJA-3FIN3y8BFIg4-4_U5FWIlTZd85LINXgnVHY9_nOzfRockVqEzD-rvIi8gt1iiIIBWDVObDhIBqkipU78uYNYex1yjmaTL4Jx-ZBXhEwt_GVFZOzULZya0UmTeFtsAT2soQW89u8kskljHjOir9D8xNjTkZJFn3h6jd', 'width': 4032}]",-6.738714,107.6539199
"6JHP+6VJ, Ciater, Subang Regency, West Java 41281, Indonesia",Kebun Teh Ciater - Subang,ChIJbQVnEInhaC4RoiM0rVc9stg,4.6,"['tourist_attraction', 'point_of_interest', 'establishment']",2813.0,"[{'height': 3472, 'html_attributions': ['<a href=""https://maps.google.com/maps/contrib/103229963927019143492"">A Google User</a>'], 'photo_reference': 'AUGGfZnjB52Sua-lQbKPFNwXSiatbSlXC6lO-SR4dbRF2zvYs2Rcp5qu3XEwXLON9QHR-ipX7Oprv3ck3Dig8Fi6I2-b5-oUfREdyS0Cg9_3aDPk1GBZ2IB-Mvq8t4tBXgzfYuz4yaVTLOhtc9Pkt4O3aJiu13rEYeZKqWlkwLUB9Oe_3n23', 'width': 4640}]",-6.7719217,107.6371437
"Ciater, Subang Regency, West Java 41281, Indonesia",The Ranch Ciater,ChIJa2gSaKUfaS4RAF4AQfOtQT4,4.5,"['tourist_attraction', 'point_of_interest', 'establishment']",2169.0,"[{'height': 12240, 'html_attributions': ['<a href=""https://maps.google.com/maps/contrib/108134240654806259986"">Abdul Rahman Saleh</a>'], 'photo_reference': 'AUGGfZkz85R101meBD4Ji45S6JCMeW0HX4JixNbgwufbDfuqjEUVyyh_2LILJA6MoReM6aBhl_py7zj4SZjsbF-QuJ-r7XbE17VcY72xJIYZhM1JQ_LQjP8ZU2FFqeyqKLwUUWNweDekSM7EQxPprWpBJboC3Mm9Y2MFHBs3zwWtTIgyOzv6', 'width': 16320}]",-6.7589549,107.6469476
"Jl. Palasari Dua - Babakan Gn. No.16, Ciater, Kec. Ciater, Kabupaten Subang, Jawa Barat 41281, Indonesia",Florawisata D'Castello,ChIJY2bVzSwfaS4RBuREt3RYqJw,4.6,"['tourist_attraction', 'park', 'point_of_interest', 'establishment']",11568.0,"[{'height': 3456, 'html_attributions': ['<a href=""https://maps.google.com/maps/contrib/110958354902590190356"">A Google User</a>'], 'photo_reference': 'AUGGfZnnhM5bAZSV71toJekxfvDqa2UntxrEX_QnD5kIBaj6stzpMg6Csg9z8UR1jMfTpD5TIAW6VwLnsihlCCZPNaTa_DnY2DfpsDq2ESdnW9oDM5nhARq3O-iE8WnnntbUauMqaw8RHtuFQefHqc1gV_rUkVYb6uyohMvkT2G9SESo1Ok0', 'width': 4608}]",-6.7247179,107.6564322
"7M63+V45, Jl. Sariater, Ciater, Kec. Ciater, Kabupaten Subang, Jawa Barat 41281, Indonesia",Sari Ater Hot Springs Ciater,ChIJ_ac7qZMfaS4Rc76T5lz3Nbc,4.4,"['tourist_attraction', 'point_of_interest', 'establishment']",9477.0,"[{'height': 6120, 'html_attributions': ['<a href=""https://maps.google.com/maps/contrib/116266186758846603918"">Hirmas Nafi</a>'], 'photo_reference': 'AUGGfZnT3oPl4Uc1W3_t5I_PXQNDggWRED9vwtadgUkOhK0Uuwny_8jUaILj8OTMhsEWTcSHh6wq4_3syrOfLiy8_zx9r7P_MOlCnFwSa5USmM6sgD-9UoSTyxwHargbciDRsFQaxAKWzcfnO82vLAvTm8pelQbaPOn87sQKCif-dEK_vPS3', 'width': 8160}]",-6.7384317,107.6531248
"6MP7+QXM, Nagrak, Ciater, Subang Regency, West Java 41281, Indonesia",Curug Cibareubeuy,ChIJ13L5fP_faC4RCR0woQUqnTk,4.6,"['tourist_attraction', 'lodging', 'point_of_interest', 'establishment']",968.0,"[{'height': 3053, 'html_attributions': ['<a href=""https://maps.google.com/maps/contrib/114268145319454720907"">Dhesu 16</a>'], 'photo_reference': 'AUGGfZmq2SopXMpM7es-7cyWNd9_k-UORxuzn3hy_hVLreqLQYT0THDDkNO5pE8dZYg2urkQTN9rYmhYICluqEdIxcSsy-ruO6kM0pI9xRCSTVU1Qmlqtsk8wMp8t-4pphtAMSCNWMWgYFzRu33xqJctHao5vl0zSpgLKLJ96iwQjDTR3cxy', 'width': 4291}]",-6.7630415,107.6649136
"7M9J+RR7 Pt Perkeb, Nagrak, Kec. Ciater, Kabupaten Subang, Jawa Barat 41281, Indonesia",Cisanca Waterfall,ChIJCZRN1QQhaS4RRNvC_EV0lHU,4.7,"['tourist_attraction', 'point_of_interest', 'establishment']",38.0,"[{'height': 3472, 'html_attributions': ['<a href=""https://maps.google.com/maps/contrib/103229963927019143492"">A Google User</a>'], 'photo_reference': 'AUGGfZnbke_KQXvwO1fBbo-f0hmMGjlcpfqaYv2PRkczOECJDxmCS2JmiJragFYzIlsAIGnX2vr9u_xiwhsc-hpqQNWuU7r73Ij-XHN4qvBeTbgTTG33d3h6UAc34xEsBVq6K_3Mrb-8X0OLVLmbTCrLfmFFyi_j2PnZuhWg6YS9djURTBfi', 'width': 4640}]",-6.730461999999999,107.682061
"Kampung Neglasari, RT.017/RW.04, Cibeusi, Kec. Ciater, Kabupaten Subang, Jawa Barat 41281, Indonesia",Curug Ciangin,ChIJE6aKFRggaS4Rz8641DAs2is,4.5,"['tourist_attraction', 'point_of_interest', 'establishment']",928.0,"[{'height': 3120, 'html_attributions': ['<a href=""https://maps.google.com/maps/contrib/106203510585664936327"">A Google User</a>'], 'photo_reference': 'AUGGfZmYnKvk2YVdnYflJTVnrFTV2U-xO9MNkeFGlc2ARrUaYu5LrJXUhp2EtM-9vSzech97iNAZSFSyRgEVh66lDeZKmZm4doS5-ZrnhxzNZTboY0gnn-ha1Mmpkr6oHJRdYGGrYrE5-Zn1JNRRWF7-KNK6AhBdSAgD4-a-a_jKZ75jY0KT', 'width': 4160}]",-6.7394834,107.6790996
"Palasari, Ciater, Subang Regency, West Java, Indonesia",Granada Waterfall Ciater,ChIJJxeiEN0haS4R1l4Q54vZKh0,4.5,"['tourist_attraction', 'general_contractor', 'point_of_interest', 'establishment']",34.0,"[{'height': 4624, 'html_attributions': ['<a href=""https://maps.google.com/maps/contrib/112570970970543758259"">Syarief ash-shiddiq</a>'], 'photo_reference': 'AUGGfZn0ucWJutbYABda19YrRelSyXbURa7DGKJiL3isnd-vkvdGbEZWkfB-xDixKU6NuUerIALMCj4AwvKPQWkRst9VLwcUnNVdaTmZvT67i_l-YrULyQpMHcHI8XN5_uJcTrRsGNVpwORedlfyMAN7ZU-lyiJa9s1bnGb5Z899YwFN6gwM', 'width': 3472}]",-6.7176619,107.6921026
"Jl. Sariater, Nagrak, Kec. Ciater, Kabupaten Subang, Jawa Barat 41211, Indonesia",Sari Ater Hotel & Recreation,ChIJfS3LnZAfaS4RNkLkl0SM9i8,4.4,"['tourist_attraction', 'lodging', 'health', 'point_of_interest', 'establishment']",6587.0,"[{'height': 5120, 'html_attributions': ['<a href=""https://maps.google.com/maps/contrib/112381222655150786674"">Kabul Sulistiyono</a>'], 'photo_reference': 'AUGGfZk7yJsiqYj1qw_YwuW0G1B3ibbvlWQAg-_UMTE_UHyk_MuBmL87C-sodZuFK-vQTYn5tPFgpEGNkUBe-PMM09F5XBGG_emm2YfbsZNpE5MytVHVRLHoNgrGYSkChv0T-25jag_y4o4lLVf0KLI0oOAqPT93IgKOl-_oGzfa67fbE8TO', 'width': 3840}]",-6.738086699999999,107.6566108
"Kampung Panyuguan No.Desa, Nagrak, Kec. Ciater, Kabupaten Subang, Jawa Barat 41281, Indonesia",Curug Cipondok Ciater,ChIJn5VgsnEfaS4RHV4QIb7QT5o,4.6,"['tourist_attraction', 'point_of_interest', 'establishment']",114.0,"[{'height': 2088, 'html_attributions': ['<a href=""https://maps.google.com/maps/contrib/103229963927019143492"">A Google User</a>'], 'photo_reference': 'AUGGfZm-0gckn9CW7znzJeCt87wJP83Q1ldTuO8JkL73ukNtiQE9lrKWBJQ9Iku91_wq55lzkb7ynuTqm36qfHr6zTi1vGjBtpEJfBVOcYh2Su0Ektgmn5DS3ba35ok-u4G6I7_ISevJ77GB4idSKENGT15YFmHB2rXSIjwvHpqVKlRij3DK', 'width': 4640}]",-6.7381517,107.6633391
"Jl. Tangkuban Perahu No.1, RT.05/RW.01, Ciater, Kec. Ciater, Kabupaten Subang, Jawa Barat 41280, Indonesia",Ciater Cagak Wisata Kebun Teh,ChIJ16JVnvbgaC4RtAUYR2Apbm0,4.6,"['tourist_attraction', 'point_of_interest', 'establishment']",2350.0,"[{'height': 2608, 'html_attributions': ['<a href=""https://maps.google.com/maps/contrib/113659380533126404090"">agus yuliyanto</a>'], 'photo_reference': 'AUGGfZm_vvbzvJw0ZPdjwqOoNCoEKcjAOKGJwusuMwcoRDwplz2_ukb2oIxq4x0ULeo8NtgOvdn-ftjqIU1jAJnEErKqdLXaAA4uQNcUEnJLBACgCR16-1Rf95yoG_y7JWf0LVygAU3Plj4cvuh6BndN195sqje4kGxS1wVnhIgwLnrAoF8', 'width': 4624}]",-6.743468099999999,107.6494116
"Cibitung, Ciater, Subang Regency, West Java 41281, Indonesia",Cisanca Waterfalls,ChIJ28O0h6EhaS4R5sdYkummi0I,4.5,"['tourist_attraction', 'point_of_interest', 'establishment']",134.0,"[{'height': 853, 'html_attributions': ['<a href=""https://maps.google.com/maps/contrib/116128439296945090733"">A Google User</a>'], 'photo_reference': 'AUGGfZms93khmc54IGzQ5tOjI2Zwkglm4xfD68nmDr-vxkNIi48gQcwh68vDupAEy7iPrl4sFuC4cmoyihgqG0JxdI8h20T2InXcKPx_gUSGm3ozFfDMzqPTWUpiqPsuGugk5pKcHZW6tyzlfemhB4Swe3ylQ2yLc8T6kGzMKTGr_vypQG1a', 'width': 1280}]",-6.7345767,107.6801354
"7MP8+P9Q, Jl. Riung Rangga, Cisaat, Kec. Ciater, Kabupaten Subang, Jawa Barat 41281, Indonesia",Ciater Highland Resort,ChIJ2dtodLgfaS4RKhvOZ4wwQGQ,4.3,"['tourist_attraction', 'point_of_interest', 'establishment']",515.0,"[{'height': 3120, 'html_attributions': ['<a href=""https://maps.google.com/maps/contrib/104648312569590264278"">A Google User</a>'], 'photo_reference': 'AUGGfZlZsqyxWob-4WmMzkWGAAK-j8XR85ksray3ZEKTyM_k4QaajtIvQmjLS-9Hj7GqiZIiJuiHRwUnS3JGkRSusaRBP_Q3nUpeYS7FGlzP1BrW2LUQvHoOJ-VkAsSIR-K1I8UGONPkoBramyGD3NISDqu2tZpHJqtSR-rk3vOFteTaCphT', 'width': 4160}]",-6.712142200000001,107.6616744
"Jl. Palasari Dua - Babakan Gn., Ciater, Kec. Ciater, Kabupaten Subang, Jawa Barat 41281, Indonesia",Wisata Offroad Ciater,ChIJFeW9wqwfaS4RZHlLrTb7diI,4.8,"['tourist_attraction', 'point_of_interest', 'establishment']",4.0,"[{'height': 1984, 'html_attributions': ['<a href=""https://maps.google.com/maps/contrib/108232211230429038451"">romansa dewa</a>'], 'photo_reference': 'AUGGfZlidQeXuJaxwZDvkv-UgNpTN59e7M247kGD_18ieyZtGn-qunZUFQyj7Etpp5N9wMTAOyaV3IJvu5A48ZeteAUVEu-KlZyYNS1k-1RuPgcg-v6DwdC6p_Rmj5NkZXTVAYMy1gP0Vddr3H155Sqxzc6HSBaVK_lvQdvRm0RBUoApsXU6', 'width': 2976}]",-6.724593199999999,107.655862
"Ciater, Subang Regency, West Java 41281, Indonesia",Bukit Rindu,ChIJWy9acqkfaS4ReEwolnGSt4E,4.6,"['tourist_attraction', 'point_of_interest', 'establishment']",183.0,"[{'height': 1080, 'html_attributions': ['<a href=""https://maps.google.com/maps/contrib/117242581605302199148"">abdullah alwan</a>'], 'photo_reference': 'AUGGfZn24sDFvUre43u6Q895gH__BP7dQNE80khDkd5iQVdf_uKFBZFmX3ziFNSi5-wlz4-QvIibtcfMRBpTutnc8ZH57KodPOBUx0KJfpod77Jkv1hknobFido_N5mKqvr7QVbki8faOEQmiqLPki0DmTg-sSWheT07fPydIsYgr6OZF22x', 'width': 1920}]",-6.7371478,107.6497313
"6MX2+9MG, Jl. Dawuan, scenery, Kec. Ciater, Kabupaten Subang, Jawa Barat 41281, Indonesia",Dauwan Scenery,ChIJ-59nepEfaS4RZCFrz1d8kBA,4.6,"['tourist_attraction', 'point_of_interest', 'establishment']",17.0,"[{'height': 3096, 'html_attributions': ['<a href=""https://maps.google.com/maps/contrib/111889217604719790827"">A Google User</a>'], 'photo_reference': 'AUGGfZmxuOPixSUx4ESc0Kkq1F7I1amdwCV0WbTWUKlade6yaJd8uTfVy_dk109Jh3xjLmhJdrVhG9qY78lYfpQPPssblpufYPRFua26wORtFf8LeIF2VfpAC09JsZ9BH-cythODoY0V11J8xi2_5vRct8zKX0fW-Vqv7jcikcQROYUZe_wi', 'width': 4128}]",-6.7515595,107.651697
"Jalan Raya Bandung, Ciater, Subang Regency, West Java 41281, Indonesia",Asstro Highlands Ciater,ChIJST90mGjhaC4R_R4t1R_Yp5E,4.4,"['restaurant', 'tourist_attraction', 'lodging', 'food', 'point_of_interest', 'establishment']",4826.0,"[{'height': 2456, 'html_attributions': ['<a href=""https://maps.google.com/maps/contrib/113627008247865492426"">budhi darma</a>'], 'photo_reference': 'AUGGfZkW04jLyGDeUgznMg7V18gTk-WeF1y1GxB5PCtrftxJFTgk7uQGI3nOUJ2it2lWhZxrbpOQPEmALgJFbIEUr48YQf26dGHI0tn__lbmf0IRw24TFvtKo-eGhPf0NxwvIY9Ul1VUfaZmw9P81LgOiAbWKDSPJQc61RD7PzyY6PgtDQ8v', 'width': 3680}]",-6.772684099999999,107.6362093
"Nagrak, Ciater, Subang Regency, West Java 41281, Indonesia",Bukit Lebah dan Air Terjun Kembar Ciater,ChIJ4zLmnvEfaS4Ru_tJbfpTGag,5.0,"['tourist_attraction', 'point_of_interest', 'establishment']",20.0,"[{'height': 899, 'html_attributions': ['<a href=""https://maps.google.com/maps/contrib/107666390706418949638"">A Google User</a>'], 'photo_reference': 'AUGGfZnDrFwQ55ONRCDPH9DzpHNQwr1xWY46Wqg0DjbtHW3z2kVA-pDZ5Y89aLDcCH1RwgiKb02bLNj2MO76yzBIKn4h-fcgC8m0imUXEaF8FXabNvE_6lOYmdX2La4V-N2A15l22zFFgLLOdMl_ayx2U8qskZHvtEz2FdZfXFJk7r-vE6rX', 'width': 1599}]",-6.7455474,107.662456
"7J9V+CW9, Ciater, Subang Regency, West Java 41281, Indonesia",Curug Mandala,ChIJncvz-FMfaS4Rh-NIHC0q3m0,4.9,"['tourist_attraction', 'point_of_interest', 'establishment']",7.0,"[{'height': 3264, 'html_attributions': ['<a href=""https://maps.google.com/maps/contrib/102116368762448561446"">A Google User</a>'], 'photo_reference': 'AUGGfZkFeRwavOtVa14fcz1I1YfMf9YzjWWgZetKjBGpwVhkD-937i7EmiClC_i-GeA_ZwKsTxItRZ5TA1DAfyepUnwyZAtlJK4Abeg7FtWx-YYusOV4QJfbcqiUbgxlB-qW7QBNeBg0Y0RvsIX1wI_O328K3c-I9ISquMaWaaRjEXukT23V', 'width': 2448}]",-6.7314716,107.6448439
"Jl. Raya Cicadas, Ciater, Kec. Ciater, Kabupaten Subang, Jawa Barat 41281, Indonesia",Kebun teh,ChIJbb9lDucfaS4Rd9pRrwpl8QQ,4.6,"['tourist_attraction', 'point_of_interest', 'establishment']",203.0,"[{'height': 1800, 'html_attributions': ['<a href=""https://maps.google.com/maps/contrib/102561927438194224511"">A Google User</a>'], 'photo_reference': 'AUGGfZkATa9wCGnuJ3hn0P8Zv444C9zlqrdUBmMRIjvPVE3MoYU1CAVmJl5A7_CZFMqZWSz-8jh0-EpvK5nE78kAK_6FLHe8HW6o1aDtvvvYaAy6XA6muSeDA3Re8KgtOue42-SHvI9HPtgRgp0RBtLUnbBrg-eqDdjj7vYfmn8ynI7aZ6le', 'width': 4000}]",-6.7282683,107.6415142
"7M24+RRX, dawuan, Nagrak, Kec. Ciater, Kabupaten Subang, Jawa Barat 41281, Indonesia",Curug Cipeureu,ChIJiQuQ3_EfaS4Rml6X6TkN_5M,4.3,"['tourist_attraction', 'point_of_interest', 'establishment']",388.0,"[{'height': 2340, 'html_attributions': ['<a href=""https://maps.google.com/maps/contrib/109344319564856126519"">DenisBobs Channel</a>'], 'photo_reference': 'AUGGfZlbEj_UbdBYC6EspvzFtJ8YgeEkR3mxJXL6Kz5XfnFY7-IDefWp2a4Jh9qn-EQhlu60efa0JYNFew4GlauXAki7YV0K9yirjPOqlSs3t_8XgLFXIJleOuJ-YCG8s9rBkxS2-sjWcih7TRe5RHLw0ITqA4XJrYk1buzxa3pOaK4vhAK1', 'width': 4160}]",-6.7478937,107.6570986
"Nagrak, Ciater, Subang Regency, West Java 41281, Indonesia",Curug Jodo Sariater,ChIJW_Xg-JIfaS4R0iMSNZS0VO8,4.4,"['tourist_attraction', 'point_of_interest', 'establishment']",219.0,"[{'height': 1184, 'html_attributions': ['<a href=""https://maps.google.com/maps/contrib/112195034562597806163"">ali saepul</a>'], 'photo_reference': 'AUGGfZkFJkocZ-qedqmK1b1VO1ONnAMtrjxAFyBGnnoMPIeim27ZFy9AR9DLwo-LAZ3Qz-NC9tgMEPKSb2_bZCNJM52YoNQFiOaU9LMQahviHyU4BDSqHcOMjGctmW_8mAPMpGQbUwIh8ZPApfXAOX9pYeN6mHwurSct90Sljm9E1rrPq_fc', 'width': 1776}]",-6.738374800000001,107.6551788
"7JJX+672, Unnamed Road, Ciater, Kec. Ciater, Kabupaten Subang, Jawa Barat 41281, Indonesia",Tea Garden Ciater,ChIJtXPagcgfaS4RYEZTKIrobMs,4.0,"['tourist_attraction', 'point_of_interest', 'establishment']",5.0,"[{'height': 2592, 'html_attributions': ['<a href=""https://maps.google.com/maps/contrib/107083651698949520149"">Fajar Adriyanto</a>'], 'photo_reference': 'AUGGfZlcuRx6fshhXfHbJ2e0m-9iHnYOrDa_3DmEbJ5sORQDE0MZJdbIBntapE7sEH9fwUz00O2gOl3w6S9bwzbigYyzBaqbXecHolWN7NImm7FIpV7qDGLVemeRXvJoVK7RnQwB5ZxmwaqUFLA6BKiMVx3VKHUV56QdaK5JEPHhC89eQJJx', 'width': 4608}]",-6.7194999,107.6481504
"Ciater, Subang Regency, West Java 41281, Indonesia",Jendela Ciater,ChIJt-DgjWcfaS4R6_KI-JWO7NM,0.0,"['tourist_attraction', 'point_of_interest', 'establishment']",0.0,"[{'height': 2610, 'html_attributions': ['<a href=""https://maps.google.com/maps/contrib/106083904016564865617"">A Google User</a>'], 'photo_reference': 'AUGGfZk0EmlSUYTUwBS0vvT0JZeTWXI5zOK1wbI6rjzuPlQe0cL7Z9ee5LD15hDL2lvS6We37muvg_QAnURvadGFsOeYeAcQUrbGuw8xOqXlbI9cWEyPFqa_pB0N63M8jzTBLCZCtyAdiG4Dw6Ezd3bBwPu38RIkW4iJ2ZbdpDS2Fhd5t-70', 'width': 4640}]",-6.7420759,107.6451562
"Nagrak, Ciater, Subang Regency, West Java, Indonesia",Sari Ater ATV Adventure,ChIJH7yb-44faS4RMPG5vAyq8dE,4.5,"['tourist_attraction', 'point_of_interest', 'establishment']",82.0,"[{'height': 2322, 'html_attributions': ['<a href=""https://maps.google.com/maps/contrib/101097432352257301010"">edy mulyanto</a>'], 'photo_reference': 'AUGGfZkdsLpqtlblhUla6VGyzrk6wtCfH6eHUYPK9XfBreyLOeUDYj4jqxJl9k9pwqgA68I37XvLCozdRxAdqEAPwTLg6J3oTWXXLE8VOy5oGr8SuLnYHxpsJqzo_EbNFSC0CA0hR1LChLncAvBOdox4IbUGMKwWwI5CkVyAhez8sahhHYeA', 'width': 4128}]",-6.736057799999999,107.6611092
"7J6W+558, Ciater, Subang Regency, West Java 41281, Indonesia",Leisure Park Ciater,ChIJ8fcu3T0faS4RWRsd3vTQHzM,0.0,"['tourist_attraction', 'point_of_interest', 'establishment']",0.0,,-6.739579099999999,107.6454602
"7P82+X4G, Unnamed Road, Cibitung, Kec. Ciater, Kabupaten Subang, Jawa Barat 41281, Indonesia",Curug Bentang,ChIJZwfhyBghaS4RD2ThH9HSJLE,4.4,"['tourist_attraction', 'point_of_interest', 'establishment']",11.0,"[{'height': 810, 'html_attributions': ['<a href=""https://maps.google.com/maps/contrib/101389710192452051603"">Wahyu Fevers</a>'], 'photo_reference': 'AUGGfZlxsEWy-13I_EDF4_2B-F5ukMWNU59efH7AU5WPqGmE5rU-OIO-gdBXvLnvHSlDMLsUYW0tkwZ2UPGHYM0FkFJMhDKBKAJgXvRK0LMpEQ8QdTZ8BNuTwv2aaMvwsEgafxJm-SIVE9RlYZiGVHdSs5xct1_d2W49tiCKFyXkmGTY6G8s', 'width': 1080}]",-6.7325743,107.7003358
"7M5F+G3G, Jl. Cibeusi, Nagrak, Kec. Ciater, Kabupaten Subang, Jawa Barat 41281, Indonesia",Desa Wisata Cibeusi,ChIJ2_AhTR8haS4RaaHP85jcSXc,4.6,"['tourist_attraction', 'point_of_interest', 'establishment']",86.0,"[{'height': 4000, 'html_attributions': ['<a href=""https://maps.google.com/maps/contrib/100967904618542172773"">Myshop martin</a>'], 'photo_reference': 'AUGGfZk9wbiHNlSUHxGHTPdxZnowAFRrI7wxAPxTOYaGIR1NmhHLsw0WfCvcpTnUMgZabUXpvL72GZH2IDOyZEiMQ8g2GlJWWxd4VlnJP3wOkI9GS7AD-TP5ACdmIGmfFFHAhYfRzLG2PSGOOONBYb9CES1VYH2Km1o1Fpv2JyE06n3iEJne', 'width': 3000}]",-6.741183299999999,107.6726927
"7M54+7X2, Unnamed Road, Nagrak, Kec. Ciater, Kabupaten Subang, Jawa Barat 41281, Indonesia",Curug Nyimas Nyai,ChIJJxVDjegfaS4RnPe69kpPEXE,4.5,"['tourist_attraction', 'point_of_interest', 'establishment']",10.0,"[{'height': 608, 'html_attributions': ['<a href=""https://maps.google.com/maps/contrib/101389710192452051603"">Wahyu Fevers</a>'], 'photo_reference': 'AUGGfZkzS61_C9MHTHwcczsJ7yVO_2moA_IPC5loSlJrtXQmY1UU4US1r4Z0aPEQEqswP37uhqzCPhPbM1RUPg8TM_vpXcqcuTXBuaYKXhCgHyyjQcj-OcgHldWmqCQ2X_MQPncSvYoXjs5at3bUyXGPMMcvxqEKE2WVe8ox6JPsg8aGlI9G', 'width': 1080}]",-6.7418682,107.657402
"7M62+6FW, Ciater, Subang Regency, West Java 41281, Indonesia",Curug Bidadari,ChIJJebofZMfaS4RQK7Wmc4KcOI,4.1,"['tourist_attraction', 'point_of_interest', 'establishment']",166.0,"[{'height': 2997, 'html_attributions': ['<a href=""https://maps.google.com/maps/contrib/108592563042273658419"">Nikita Kamka</a>'], 'photo_reference': 'AUGGfZnKiPwYYb-5WGstB446Jbjk0V3sErohJu0J9ZoPhyWEhBmycPQiKFJ1xiCPyvQ2hpvNKDBXLFcRNCHa_ECUb_XyuJ35ScMfFQ4-G5dDNSCLJ1MwukGeaIBewpO6nTi7h5J5uLpT5rztfN2X7no4CX6OEPusSapguE3lRRhO9jCHUyLH', 'width': 5328}]",-6.739379,107.651204
"7J3Q+4PM, Ciater, Subang Regency, West Java 41281, Indonesia",Tempat destinasi,ChIJa3XaJScfaS4RWipaL-XXvIM,0.0,"['tourist_attraction', 'point_of_interest', 'establishment']",0.0,,-6.7471523,107.6392892
"7M75+PR6, Nagrak, Ciater, Subang Regency, West Java 41281, Indonesia",ARUNG JERAM CIATER,ChIJZ-THEQAfaS4RCl35QgTxohE,0.0,"['tourist_attraction', 'point_of_interest', 'establishment']",0.0,,-6.7357125,107.6595156
"7J4W+W98, Jl. Tangkuban Perahu, Ciater, Kec. Ciater, Kabupaten Subang, Jawa Barat 41281, Indonesia",HEALING SETITIK,ChIJA3ECfcIfaS4R0FQ5Aan4pmY,0.0,"['tourist_attraction', 'point_of_interest', 'establishment']",0.0,"[{'height': 1472, 'html_attributions': ['<a href=""https://maps.google.com/maps/contrib/106987433218215463156"">A Google User</a>'], 'photo_reference': 'AUGGfZlzKL8mqwvNVH2n4PeNgFXSKeYjvr7PN0z-t3GGVXF3-sRrA0csFW3VodvVrc06jSap2lSGDjp9fb93fx-NUT2mkxr1yqnELL4tdBx6DR9vGQNSKj1dyZuucmlY6f3p9iDjyj91vXZZMmfaHunKRLzWHFEI0F_Q-Z9q206mZCp0J-ly', 'width': 828}]",-6.7427176,107.6459638
"7J3Q+4PM, Ciater, Subang Regency, West Java 41281, Indonesia",Curug bedil Ciater Subang Cibitung,ChIJmSNvqp4faS4RvJnAuUoWi2Y,5.0,"['tourist_attraction', 'point_of_interest', 'establishment']",1.0,,-6.7471523,107.6392892
"Jl. Sariater No.1, Ciater, Kec. Ciater, Kabupaten Subang, Jawa Barat 41281, Indonesia",MENDADAK VILA VOL. 1,ChIJPdHpx_YfaS4R6Yp8SonbQ_4,0.0,"['tourist_attraction', 'point_of_interest', 'establishment']",0.0,,-6.7387928,107.649678
"7J9W+J2X, Jalan Panaruban, Ciater, Kec. Ciater, Kabupaten Subang, Jawa Barat 41281, Indonesia",Wisata Kuliner Ciater,ChIJj3boUhUfaS4RKuxuAkP9OCM,4.6,"['tourist_attraction', 'point_of_interest', 'establishment']",9.0,"[{'height': 2250, 'html_attributions': ['<a href=""https://maps.google.com/maps/contrib/111905213437015829233"">Wahyu Zanuar</a>'], 'photo_reference': 'AUGGfZkure01xvQH9p6QDxGD7t7a4uNxJdIjbLRIgrcWSn1Wol25pF9XtmEY5z_eTWK55SKQ0IrLiYPCkwwFzkC4mQ64reR409pNjXdAUPqT2yBC51iD8g-BqBLkoXwBICXv3SUxKPyoCCMoYmjcY0_dbg6mgHs8ybvGfH-9ona9esvgwtFu', 'width': 4000}]",-6.730893999999999,107.6451065
"7J6W+GRJ, Ciater, Subang Regency, West Java 41281, Indonesia",Sukadana tea plantation,ChIJf5BRO-UfaS4RMTKWzNgH_NQ,4.6,"['tourist_attraction', 'point_of_interest', 'establishment']",7.0,"[{'height': 1968, 'html_attributions': ['<a href=""https://maps.google.com/maps/contrib/113250255216823771059"">amet arief</a>'], 'photo_reference': 'AUGGfZlcvcXD5KjEYnXD9FUV_dALmeXbu3pnPP0YX9bf2bSfeMJC3hUOFJD3KCV2nqy18U2UePv6sKykcu9Jol9X0Vmaap6hs-WLUq9Xk8Lk_tQqOLIKEjoPa4RmrSloRsb1zzp8UJljZfXFP7Q0T_aL_bPT9SaWmsZ3TR2vDmAT6KtOlAOa', 'width': 4144}]",-6.7386582,107.6470293
"Raya Subang, Ciater, Kec. Ciater, Kabupaten Subang, Jawa Barat 41281, Indonesia",Wisata Kopi Karamat Catang Ngangkong,ChIJoUS71o7haC4RDhXdLueKx-k,4.9,"['tourist_attraction', 'store', 'food', 'point_of_interest', 'establishment']",17.0,"[{'height': 2448, 'html_attributions': ['<a href=""https://maps.google.com/maps/contrib/117522938034110915020"">chaerul azhar</a>'], 'photo_reference': 'AUGGfZlB3YhwlpYC97EK8v2EwImrCEHDt9EyfD8X19itRvFkeWcYgIGJRNRJUiGNsfuQXQsnHqbeVaSG6UIm8bO1vYDv29ff0k3FktRSDrvnuZxBLyvt3FGTb0fbaw453eyjx-4X69qc6ufWl_6vMSBMpGH-tqir-f8l6wvmq_KsrkG0kb49', 'width': 3264}]",-6.7738254,107.6369779
"7M66+VHF, Jl. Sari Alam, Nagrak, Kec. Ciater, Kabupaten Subang, Jawa Barat 41281, Indonesia",Ciater Balong Desa,ChIJj19dliYfaS4RzGpLAnhAm9I,5.0,"['tourist_attraction', 'point_of_interest', 'establishment']",2.0,"[{'height': 3520, 'html_attributions': ['<a href=""https://maps.google.com/maps/contrib/102969937416511776984"">A Google User</a>'], 'photo_reference': 'AUGGfZmzJHkP6rDdFUjPkt0ZzoUQ7_WN-ilaqd0I4--zkXWGaGd2XmWcWOi-x9Iw_yCK6OG3hPaQjs_lC9TerfWF4SdOz1XkW2KFSuyk8hPX9vfCfvrA4VSVL29D54EhAKJYH-mxKKDESBGab3QQw_mUkHV9AHGi5Fu4LRCkJGBu7sMJrV1R', 'width': 1986}]",-6.737708199999999,107.6616057
"Jalan Desa Nagrak, Nagrak, Ciater, Subang Regency, West Java 41281, Indonesia",Curug Koleangkak (Curug Biru),ChIJ51Q2N4ofaS4Rg3BKfpqecG0,4.4,"['tourist_attraction', 'point_of_interest', 'establishment']",985.0,"[{'height': 2322, 'html_attributions': ['<a href=""https://maps.google.com/maps/contrib/110218112311284037508"">A Google User</a>'], 'photo_reference': 'AUGGfZlLm8AVM5JpfBnB6EHPsmuO_SEwFeIBt1l5LFRB8I6PG_wUVn_Yry5jtF0MHjsTFdUhC8VzrUtz8VlIbjzk-Tj3OMjcmzYkmmA_2o3XAP4hdPoPIcJqqXnyxkTqo3li4Jt5zhfzJAXUmYmwZU8smzXoYj2JJ8ASapSbR7U7m_flhjD0', 'width': 4128}]",-6.7368665,107.6665638
"6JQV+3XC, Raya, Ciater, Subang Regency, West Java 41281, Indonesia",Kampung Aster,ChIJfZWQne4faS4RraWc3XwXMzU,4.5,"['tourist_attraction', 'point_of_interest', 'establishment']",117.0,"[{'height': 3000, 'html_attributions': ['<a href=""https://maps.google.com/maps/contrib/117600276486397426360"">A Google User</a>'], 'photo_reference': 'AUGGfZnK4vud-7E2kDc1vPys17_ROPAIXKQc7vdJjkXx3DoapWoIKX0M8-HP__yMIJ3Q-tSI9fH2f3ZMSKusEpqrAZtLq4NIQlq-Z9sFQG5YqNKZS7DXtBs1r0tbMxhvp3bK9VvJDhWfIAq2K2dG_HccvDSu9miqOm-7oeOXni_6IJbE4-Op', 'width': 4000}]",-6.762324,107.6448765
"6MV7+95P, Nagrak, Ciater, Subang Regency, West Java, Indonesia",sariater,ChIJf9FZXwAfaS4RnNa-M3osn3I,0.0,"['tourist_attraction', 'point_of_interest', 'establishment']",0.0,,-6.756540299999999,107.6629672
"7J5W+P92, Ciater, Subang Regency, West Java 41281, Indonesia",Kartu As Septian Ilang Dimari,ChIJ3-amBgAfaS4RBG4YqL1CViQ,0.0,"['tourist_attraction', 'point_of_interest', 'establishment']",0.0,,-6.740747499999999,107.6458987
"Jl. Raya Cisaat, Cisaat, Kec. Ciater, Kabupaten Subang, Jawa Barat 41281, Indonesia",Desa Wisata Edukasi Cisaat ᮓᮦᮞ ᮝᮤᮞᮒ ᮆᮓᮥᮊᮞᮤ ᮎᮤᮞᮃᮒ᮪,ChIJ-Rg-FZYfaS4RaHCZ_OwbnqE,4.8,"['tourist_attraction', 'point_of_interest', 'establishment']",45.0,"[{'height': 3456, 'html_attributions': ['<a href=""https://maps.google.com/maps/contrib/101597693975295327204"">Dede Rudiawan</a>'], 'photo_reference': 'AUGGfZk15sxC7blW-DJOBRQMqjCQwzEtS0nAVaBOog4B0vEbxmduZbzRk4Aw2zjgfLoCoMmHtD1LKQ-k8tkdB6oDwBjee83a3obOt2PcRyLGsc8-KtLJjEG5Fv_KAj9L-82q70vcIMzJHiTWfZli6gBgsnHIbXywI7Qie9bM-GJEprHqIR88', 'width': 4608}]",-6.7071774,107.6590134
"6MV7+95P, Nagrak, Ciater, Subang Regency, West Java 41281, Indonesia",RIVER TUBING,ChIJY2XLOQAfaS4RhozgdDej3BY,5.0,"['tourist_attraction', 'point_of_interest', 'establishment']",1.0,"[{'height': 4000, 'html_attributions': ['<a href=""https://maps.google.com/maps/contrib/106654538491532349907"">Aden fikri</a>'], 'photo_reference': 'AUGGfZmqVJHU0KZh9w9EyLQ2LjJ8hjvtRVSAcn-_4as_77fCVIRDc_hh7Efm0OFM9fSEqC9K17-jREp-Ev7Fe6o1L3vXvX0UbrVw0uVau5irhf2pZMRQO9m5hDQLo3QQ5t0QtKs3qhUsggA7CyEB82qdevnxPUu69v8Hw82Zdjx2g77sy5Av', 'width': 2252}]",-6.756540299999999,107.6629672
"7MCF+HW8 Ci jolang, Palasari, Kec. Ciater, Kabupaten Subang, Jawa Barat 41281, Indonesia",CURUG KI CAU,ChIJ_RO4NC8gaS4RxoPg55MbsJc,3.9,"['tourist_attraction', 'point_of_interest', 'establishment']",40.0,"[{'height': 4000, 'html_attributions': ['<a href=""https://maps.google.com/maps/contrib/101742649535777156765"">dhea yodiansyah</a>'], 'photo_reference': 'AUGGfZnrSQR2mj4A2FlfnRiDJ6b8ttC6jDDJGlZRbTkokl7Daq_YgqlwCbd_CXrsUtQy6KLv5fq4qX3ziYMbQtYzLkVUOQdFOjQFkhNVipUVXRsnFlh6wbaijyImQLJy4W_3i9jeMU2gNPZM_oFius64tkEhDI-gk1r_d_u2PoHuJXXDBUz5', 'width': 3000}]",-6.7285842,107.6748426
"6MW2+WRV, Ciater, Subang Regency, West Java 41281, Indonesia",BPH bukit payawangan hegar manah,ChIJL9vzj5IfaS4R72mfopxZETY,4.5,"['tourist_attraction', 'point_of_interest', 'establishment']",4.0,"[{'height': 3000, 'html_attributions': ['<a href=""https://maps.google.com/maps/contrib/108457680604818856457"">Faisal Ivan Faisal</a>'], 'photo_reference': 'AUGGfZlvphNhrbVKkE13wi5c9Fs91J-2In8C_mqE-HwbG-cQoWJObzLRew2IFyIOSAyUnWDU14VchFkj2cusL5PYQhyo9lbsV4gJlAA-Z402XyF8wgc50rY9OQo8u0YK3TPRX5BM8PMxemn4NWc_treK0t0XeLA1QQZQm4_1bS7DJfXhYd3E', 'width': 4000}]",-6.7526476,107.6520403
"Ciater, Subang Regency, West Java 41281, Indonesia",Wisata Edukasi Pabrik Teh CIATER,ChIJOwJmYLwfaS4RwzkEqJCzZqs,4.5,"['tourist_attraction', 'point_of_interest', 'establishment']",76.0,"[{'height': 2252, 'html_attributions': ['<a href=""https://maps.google.com/maps/contrib/111016705655015843077"">Heri Boyo</a>'], 'photo_reference': 'AUGGfZnmzx-Zk3xqcKyIUI1HtKARb8dRdAy8VdQzzPvo2A3sL6DF8fRJ-XFy61n34uHY-W0kTkeFkCHoCVpK9U57tz_RzBGYPDXuZDjP6crOrZ_o8F27EqCllgAJ3mn7RerJOyEGETMASAScfNcQtnMrTU594kQoNr29sNZBG_ckd8INiZVn', 'width': 4000}]",-6.7344149,107.6406879
"7M75+CMX hot springs, Jl. Sariater, Nagrak, Kec. Ciater, Kabupaten Subang, Jawa Barat 41281, Indonesia","Taman kelinci , ciater subang",ChIJQ-t-mcYfaS4Rg-02Hel48gc,5.0,"['tourist_attraction', 'point_of_interest', 'establishment']",4.0,"[{'height': 3120, 'html_attributions': ['<a href=""https://maps.google.com/maps/contrib/117690416612978493113"">A Google User</a>'], 'photo_reference': 'AUGGfZlebFSxoBlI6DpxWg3juW127P3w9J10gUrnmak0oj3vCgOu_J66BnC2Excqpno_0vmizWggymXy7NxWTDlwAULtOcv70TwkYxNWHyZJStoajdGlZhpu_c_NSLmNCmpnfh8SV1RDHyuj8PQWYZstLipEk15HArHOXRU1DwMJOi3dNTk7', 'width': 4160}]",-6.7363208,107.6594184
"RW.2, Ciater, Kec. Ciater, Kabupaten Subang, Jawa Barat 41281, Indonesia",Kebun Teh Sekitar Ciater,ChIJHxBNVuEfaS4Rie9raqeCUqk,4.5,"['tourist_attraction', 'point_of_interest', 'establishment']",76.0,"[{'height': 2592, 'html_attributions': ['<a href=""https://maps.google.com/maps/contrib/116766880389132907079"">Arif Tusriyanus</a>'], 'photo_reference': 'AUGGfZlhpzQ1meH4PLSMqu1dW6mJciPqolODuKMDXF0tgJvw5npByNey2S1rcrJxT3d7-c_kUajq0YnhwWs0zW7XhP0Wm3Q5aoBYC_Js5r29na1Br7Fvlj3GX7RvqJVApduFf2JCQVj8AvYsg_idcGvUno5ZSgUDTvsS3m1oNel-CgQ2KJY', 'width': 3888}]",-6.7574594,107.6509975
"7M89+584, Nagrak, Ciater, Subang Regency, West Java 41281, Indonesia",Curug Camun,ChIJyz7BmMcfaS4RfJp0tQln3Zs,0.0,"['tourist_attraction', 'point_of_interest', 'establishment']",0.0,,-6.7346232,107.6683291
"6MPC+G9C, Unnamed Road, Nagrak, Kec. Ciater, Kabupaten Subang, Jawa Barat 41281, Indonesia",Curug Cibihak,ChIJ504DKT7faC4R1T6ulyc44q8,4.6,"['tourist_attraction', 'point_of_interest', 'establishment']",5.0,"[{'height': 4000, 'html_attributions': ['<a href=""https://maps.google.com/maps/contrib/100967904618542172773"">Myshop martin</a>'], 'photo_reference': 'AUGGfZkPjMjmUa50HLC4PM8bRkdg4bfCMpiZtImiTepIzXpiLQIR2kv3uFaWCcg5xNuJP5foEMT958w-IG2LDGKICnCpX8_bfrfQ8ylqQZkrdV2mHEogcN29zJmBrfsELvGNqW2g9otY8_VOeiUy2UC9SeU8IYph3UWwNmtcjvS881Jd2jTb', 'width': 3000}]",-6.7636791,107.6708798
"7M35+9C, Nagrak, Ciater, Subang Regency, West Java, Indonesia",Curug kembar,ChIJmZDDIpQfaS4RTPdgN3q_0tI,4.8,"['tourist_attraction', 'point_of_interest', 'establishment']",17.0,"[{'height': 1600, 'html_attributions': ['<a href=""https://maps.google.com/maps/contrib/107666390706418949638"">A Google User</a>'], 'photo_reference': 'AUGGfZloIvAEGh7LN8vfVECH2bAjAtLQhA8pGs8oNcT5tlG8E_jiYbPzr95ce5QSb0JDfDjAZzy66-FQ5WYYTHGwgTdFi3WcpcK0st-uBAsROd5dQ-S-r9kBnllZhkRgTi5kDyskX2JNa9pNkF8Edjpbz0iW4q7bxlXDJ_pxElRqFyfSu75u', 'width': 1600}]",-6.7465625,107.6585625
"6JGP+6FQ, Jl. Gn. Tangkuban Perahu, Ciater, Kec. Ciater, Kabupaten Subang, Jawa Barat 40391, Indonesia",Tangkuban perahu (kawah),ChIJgwZZNfDhaC4RD25kRtv4XOM,4.7,"['tourist_attraction', 'point_of_interest', 'establishment']",122.0,"[{'height': 3024, 'html_attributions': ['<a href=""https://maps.google.com/maps/contrib/116127931907664604283"">A Google User</a>'], 'photo_reference': 'AUGGfZlcklxN4cWEH4VApbpHOUcKxYXTPHdFwzsJtY77x2vG-igqyUaCBb6jAMXyRPZU6oEeieRpQqAAWeDvpLlmbK8n6LGv73G7ygT9-NYgzL2w3wcrZLVJNDDrPDw57WC2v4uzl_9UhSZyeGxQECG-IJtbrUCBPmyWdfHM9ugfvT7HDXM', 'width': 4032}]",-6.774421299999999,107.6362291
"7M66+G26, Nagrak, Ciater, Subang Regency, West Java 41281, Indonesia",Curug Black,ChIJ47slKmgfaS4RU9Vei_-k6Uw,5.0,"['tourist_attraction', 'point_of_interest', 'establishment']",3.0,"[{'height': 4000, 'html_attributions': ['<a href=""https://maps.google.com/maps/contrib/109772399466108905966"">dwi aris</a>'], 'photo_reference': 'AUGGfZmC6XvIz_PL3Jos_mOXyX4PToFVv3mRnu3d5UiRb1ZvB9QpRb5Z-cZJp5eo3G6w5ExIeAN_EPTPU0nvcVNFfj4EYXAvSpOMmoRBYnUGmHsWlUtXPb8wLuaPVlfIkGY5NUSwPQfChl1e0vyas8TyU4vcbplcerZoCJtO66CPkEWaIV8y', 'width': 3000}]",-6.7387212,107.6600049
"7M2H+428, Jl. Cibeusi, Nagrak, Kec. Ciater, Kabupaten Subang, Jawa Barat 41281, Indonesia",Saung Lebah Madu Sabanda Sariksa,ChIJibEZxxohaS4RgJodfnMT5ro,4.4,"['tourist_attraction', 'point_of_interest', 'establishment']",5.0,"[{'height': 1840, 'html_attributions': ['<a href=""https://maps.google.com/maps/contrib/102856807945651147873"">Didin Beken</a>'], 'photo_reference': 'AUGGfZm8V5tPXVqcTNtPTcI0zgUSzhww_Q877sKDlFcBigVtfbry-BK2GKMckK0E_Lf8OOwuUL2G5AeY_E6JvZWwSWBl31UiyhZPgLzG9Ch1r7ZzC9mj63Kj8Yuc9tm5H7pWLriHQXpa-NpkpAHosp-9CY_pP8mwZjXaa4f6osvOxuqy012X', 'width': 3984}]",-6.7497156,107.6775682
"7M9M+7Q2, Unnamed Road, Cibeusi, Kec. Ciater, Kabupaten Subang, Jawa Barat 41281, Indonesia",Wisata Gurug Heroy Desa Cibitung Ciater Kab Subang,ChIJHWzWWjogaS4R51CHjsCnDmg,3.6,"['tourist_attraction', 'point_of_interest', 'establishment']",8.0,"[{'height': 1536, 'html_attributions': ['<a href=""https://maps.google.com/maps/contrib/103046102465706301507"">Rohmat Tulloh</a>'], 'photo_reference': 'AUGGfZn0oVZWSk4FLokuxmP8askrC-LGvPVexNZdXcgUNJDirA7eNAI9eaaI6b1L-asrD1nrtwBN13fJTTavcDJPPnJTKhqDAT0bQtcRp7mrla96lgiAR2mr3Jv1sFvj2beklrB6lvjAj3N5CjdSkljuWxxwu8lmKjMIDOqCSCsrIyL8zpeM', 'width': 2560}]",-6.7318511,107.6843998
"6JQG+C98, Ciater, Subang Regency, West Java 41281, Indonesia",Kawah Domas Tangkuban Parahu,ChIJnYDITNQfaS4Ro7R9OZw-gFY,4.4,"['tourist_attraction', 'park', 'point_of_interest', 'establishment']",581.0,"[{'height': 3456, 'html_attributions': ['<a href=""https://maps.google.com/maps/contrib/114374712199043014698"">Desynta Yuliana</a>'], 'photo_reference': 'AUGGfZnD8CnxG3SboW_rZWm0YloDif9LKvtU-ubjkpmUVuwI_CrGpTc_15zaTgRQqtf3ryXu7UpPo43taxFeCpfA0ZuX3F2OOh4wE_57iwSg63n3B1cicbqFlxeX69B0KPq37bzDeiHRdH9AmUfKGsc9R1ixfRRA2nDoiku1H17OfmvI2kwz', 'width': 4608}]",-6.7614554,107.6259585
"Curug Kicau, Kp Cijolang Rt 07 Rw 04, Desa Palasari Kecamatan Ciater Kabupaten Subang 14281, Kabupaten Subang, Jawa Barat 41281, Indonesia",Curug Kicau,ChIJe0CGiXghaS4Ry2Ly8hjNhyg,4.2,"['tourist_attraction', 'point_of_interest', 'establishment']",5.0,"[{'height': 3024, 'html_attributions': ['<a href=""https://maps.google.com/maps/contrib/114273408241733680218"">A Google User</a>'], 'photo_reference': 'AUGGfZkEoeARH4C-oUyyNyPPCfsA9IEMLHUCMudnHGYLunBmuJfrqk_WGFn8Ayf5p5-R_qFA4LygXX2JltCMZD0HOsMtX-UD3R9bt4-cbY_TrPEMGAWg6I1XS30XnTfP9GOxn82brKahr66mCPbAkZJ4oOkPpgJKvueQBM1C4NKfhZ-BlFUx', 'width': 4032}]",-6.7278185,107.6730594
"CR5V+H58, Sadawarna, Cibogo, Subang Regency, West Java 41285, Indonesia",Rumah Krisdigital.id,ChIJT8hHOQAlaS4RYLgxpSi3MrQ,0.0,"['tourist_attraction', 'point_of_interest', 'establishment']",0.0,,-6.5910927,107.8429559
"CRR4+76H, Jl. Raya Cinangsi, Cinangsi, Kec. Cibogo, Kabupaten Subang, Jawa Barat 41285, Indonesia",Kebun Pak Hj.Maman,ChIJdzTYufo7aS4RXFOZLtib1ao,5.0,"['tourist_attraction', 'point_of_interest', 'establishment']",2.0,"[{'height': 3840, 'html_attributions': ['<a href=""https://maps.google.com/maps/contrib/112288908376309723475"">Kenshin Lyoto</a>'], 'photo_reference': 'AUGGfZk6k5paw206pGIJvmF6fuFVwOi0OTl6NyYmh-P32rkHakUC_xn3-yKxnP7RKtOCHfBCTeOKBa3CJ1XFzs3iJro1VQVQmFqPXzajzbhxd2dkSVtWqbACZMoKdSvoj2W3dxEvaudsSBAc1YgWgbsZgUrkRhq3hBJlXQTYiIpF0X0NZVN_', 'width': 2160}]",-6.5604683,107.8056125
"CVMJ+44G, Sumurbarang, Cibogo, Subang Regency, West Java 41285, Indonesia","Wisata Alam ""Jembatan Danau Panjingan""",ChIJhQFgcxYxaS4RG0_qcVIbcsI,3.0,"['tourist_attraction', 'point_of_interest', 'establishment']",1.0,,-6.5671987,107.8803295
"CQRX+MPC, Blok, Cinangsi, Kec. Cibogo, Kabupaten Subang, Jawa Barat, Indonesia",Talago Sundayana,ChIJ21OQVAA7aS4RDWUeQSJ2wNg,0.0,"['tourist_attraction', 'point_of_interest', 'establishment']",0.0,,-6.558308800000001,107.7992745
"Jl. Subang - Indramayu No.9, Cibogo, Kec. Cibogo, Kabupaten Subang, Jawa Barat 41285, Indonesia",Pemancingan,ChIJ0Qhco_06aS4RkQqtekeprMk,4.3,"['tourist_attraction', 'point_of_interest', 'establishment']",63.0,"[{'height': 4608, 'html_attributions': ['<a href=""https://maps.google.com/maps/contrib/116821432221922863676"">Murzal Kifliansyah</a>'], 'photo_reference': 'AUGGfZlwGzdsp2PFH4KA18tab0PxQUGqeLpuEN8kxUuC-gTKb4qabzkHLS43I9Nx2KW2Z_00kBrjUQWat8PWJnwlf1DzNcatZo5ShzLvAeXG7ajjF_jCtYgDwdnz1hGr3Mh7nmoZuSSp0AdENLK0ZaXzaPW6rJWQqr7nM9KtPtQ23FTPf3mL', 'width': 3456}]",-6.558297500000001,107.8128243
"CR3W+R5, Sadawarna, Cibogo, Subang Regency, West Java, Indonesia",WISATA ALAM BENDUNGAN SADAWARNA,ChIJE6dUyoglaS4RUvwB9OG_Fvc,4.2,"['tourist_attraction', 'point_of_interest', 'establishment']",5.0,"[{'height': 1836, 'html_attributions': ['<a href=""https://maps.google.com/maps/contrib/113250255216823771059"">amet arief</a>'], 'photo_reference': 'AUGGfZkFtU2Td5gOx9B7tfb0DFB9qdWDxpyj2r7vRDclM5cvlh2GS-rTTT61Jk-J3O2CwuY4DMssTXn3nkqcgp0z7lD8WtDRRfd0xgqQ2DS153pNv0YAPbqlBwPuxf6KgV_7YAnWwlVC-KT4aSsygvpxiK1i9thEfw7eX6lTn7vd1SRjGI0I', 'width': 4080}]",-6.5954278,107.8454708
"FQ3P+P65, Kp. Parigi, RT.19/RW.07, Belendung, Kec. Cibogo, Kabupaten Subang, Jawa Barat, Indonesia",Kolam pancing haya,ChIJvx8tMAA7aS4RXtCGpqPEdQA,5.0,"['tourist_attraction', 'point_of_interest', 'establishment']",1.0,"[{'height': 2000, 'html_attributions': ['<a href=""https://maps.google.com/maps/contrib/115532518242823478833"">Ade Haya</a>'], 'photo_reference': 'AUGGfZlMbM7swF6E2ZKJbN8RaM-5jlWGNrSx6-PnMWMao_Fx0nPK11ZigsNeCCrQa-R3TH-oPYOWoWPWsC44YHtTesasTXxppSBN85WKdHuEvObv8RZSjt2x_OdpAr3_6aeMPZ9YuB-VW3FMtDwmvPQUawK6nb-LlawUvztw_E2QieEtrOxF', 'width': 4000}]",-6.5457348,107.785623
"FV2G+2C7, Unnamed Road, Sumurbarang, Kec. Cibogo, Kabupaten Subang, Jawa Barat 41285, Indonesia",Wisata Kebun Karet,ChIJb8Gcr68xaS4R_XSUDP6gdXk,4.3,"['tourist_attraction', 'point_of_interest', 'establishment']",26.0,"[{'height': 1920, 'html_attributions': ['<a href=""https://maps.google.com/maps/contrib/115123447016331299569"">susanto ato</a>'], 'photo_reference': 'AUGGfZkFAJxhfBp-vupHcH-ch58LRDoi4yKuoDJUZBCL7dUV5OWdkG7uPCWcjYuRrSjlkIxl4vp_ngBNJw1bnon4_ilBnOQHGDn3B25aipS22wnNNWqNu4x_Fc1eSMOccAhsiDSpc99LaVxw_1wjLfXYRoQWeKY25a5VcVMQXPK4LyObvlzf', 'width': 1080}]",-6.549956,107.8760614
"9RJC+H44, Cikadu, Cijambe, Subang Regency, West Java 41286, Indonesia",Kandang Domba M.Ato,ChIJra8T4PklaS4R58qnYTnLOLU,5.0,"['tourist_attraction', 'point_of_interest', 'establishment']",1.0,"[{'height': 1280, 'html_attributions': ['<a href=""https://maps.google.com/maps/contrib/100969333135688364781"">A Google User</a>'], 'photo_reference': 'AUGGfZlJPvgjBrmrbupZuYgyCGYy6ZPoGVTRSw9dOyH6_kZ00EvScBqCphLDJAzW4IIfcaULQc3YefBcE5IcMuQhWJoZqo54x0oR3bNEDPFjsW_i5oV7D1oWJhih3NyG4apH1IQiFF728F0xNyu63RNmI5Ls2BDZ3Mh6--orsDiVlDUztwbR', 'width': 720}]",-6.6186307,107.820326
"CQQ6+38M, Cigadung, Subang, Subang Regency, West Java 41211, Indonesia",Check Point,ChIJ7xYQk4g9aS4RZp0cNdqn3gk,5.0,"['tourist_attraction', 'point_of_interest', 'establishment']",1.0,,-6.5622972,107.7607943
"CR9H+65, Wanareja, Subang, Subang Regency, West Java, Indonesia",Saung...,ChIJu8GLAa87aS4RTE7K-sd7Tvc,0.0,"['tourist_attraction', 'point_of_interest', 'establishment']",0.0,,-6.581886099999999,107.8279919
"8RW8+9Q, Cimenteng, Cijambe, Subang Regency, West Java, Indonesia",Pemancingan Cinta Kurnia P,ChIJC8l1e8MlaS4RM-XCHr-LZB0,5.0,"['tourist_attraction', 'point_of_interest', 'establishment']",3.0,"[{'height': 4000, 'html_attributions': ['<a href=""https://maps.google.com/maps/contrib/113649977450237470054"">A Google User</a>'], 'photo_reference': 'AUGGfZmr3KZjm1FRpYNb5e3l0LbglsqOn3YdK_Zl_Sy2rGyfgvw7WHM5y10ZiegvH5cNq-nxbOuF29lUjNobZ0EfgA5-C7bGd6TxnnYclkkCfOMiVgovzPMgdvUdsC9H-l7pUQcUqg45HJ0cODsmBZlbqXmjhFnyGhPbEw8HCAf5Zq1Mf_Qe', 'width': 2250}]",-6.654033,107.8168936
"CQQ6+38M, Cigadung, Subang, Subang Regency, West Java, Indonesia","Curuk cijalu,subang,jawa barat",ChIJp7Y_DAA9aS4RCsKwaJnhIPs,0.0,"['tourist_attraction', 'point_of_interest', 'establishment']",0.0,,-6.5622972,107.7607943
"FRR9+X9X, Gembor, Pagaden, Subang Regency, West Java 41252, Indonesia",TPU sirna raga ds gembor,ChIJ77N77oY5aS4RRRLP_KNtOqE,0.0,"['tourist_attraction', 'point_of_interest', 'establishment']",0.0,,-6.5075202,107.8184764
"Jl. KH Muhyiddin No.12, Cigadung, Kec. Subang, Kabupaten Subang, Jawa Barat 41211, Indonesia",Soulloudt,ChIJ94HSblU9aS4RA4dMBn-vGuU,5.0,"['tourist_attraction', 'point_of_interest', 'establishment']",1.0,,-6.5663887,107.7570981
"9R78+VMG, Cikadu, Cijambe, Subang Regency, West Java 41286, Indonesia",CURUG CIAWITALI,ChIJH3Y8ng4laS4RQE0n51niC68,4.0,"['tourist_attraction', 'point_of_interest', 'establishment']",1.0,"[{'height': 960, 'html_attributions': ['<a href=""https://maps.google.com/maps/contrib/114772714621812304783"">A Google User</a>'], 'photo_reference': 'AUGGfZl73S4K1QTuGbf1x9sSCvuSbVUJoUIEbLAMswiqAlldwJsRAXpaqH-dpn3cuwb8TZv6d_XNO0SwXZwwmd26qiUO5mG2dPM3VNnBFYVsUOqba0gv_1Qx11n9cR2Ku1ojDUVzMise6ah_ePQ0MssnwPHw8rqTUrsuAiohI6SuJg5LI_Mv', 'width': 1280}]",-6.634451899999999,107.817605
"Jl. Ade Irma Suryani Nasution No.2, Karanganyar, Cigadung, Kec. Subang, Kabupaten Subang, Jawa Barat 41211, Indonesia",Wisma Karya Subang,ChIJa7qNJJ88aS4RdOJmuWUsD9o,4.4,"['tourist_attraction', 'museum', 'point_of_interest', 'establishment']",2092.0,"[{'height': 884, 'html_attributions': ['<a href=""https://maps.google.com/maps/contrib/117881113470484943123"">Dio Nandyo</a>'], 'photo_reference': 'AUGGfZlH0vP3JqdMXwL56aVRUR9eb0bu7LR9AlZ2BsEINZhFnEl2nWbDZeafpeV_00_h5RXN0akTs0XJytiJetlSgyXXUb8Wj88SkToH9UhB6ibsKIMTpd8R24KPCQDNvM6rmXMJ1X1G5IVcUsdZnP0FvKP__XwLKfWjBTbaumxADBXodiS6', 'width': 1600}]",-6.5709534,107.7594014
"Jl. Sompi No.10, Cigadung, Kec. Subang, Kabupaten Subang, Jawa Barat 41211, Indonesia",BALONG MANG BONKQ,ChIJTel9mEg9aS4RaD1wgMAvxVU,5.0,"['tourist_attraction', 'point_of_interest', 'establishment']",2.0,"[{'height': 3120, 'html_attributions': ['<a href=""https://maps.google.com/maps/contrib/117597382936148153512"">A Google User</a>'], 'photo_reference': 'AUGGfZmR0vyrg5gMKucfonERC9-tXaAQGtRZY3lH0vU0Th5dOMPdre1C4ZcUtPD5TIlt4RfL3dectv-mTtJd1i7lW2fVofkL9Bvn8atip3GuexqR8ZlCGpqBvimIHY5zkuhF8mGONP-XUgEA4TcnrjozhQRZD1fU2nFEQkw_a6Kbm-wy5Na6', 'width': 4160}]",-6.566037,107.753973
"8RJ5+8VR, RT.005/RW.002, Kp Cipeusar, Cimenteng, Kec. Cijambe, Kabupaten Subang, Jawa Barat 41286, Indonesia","Cipeusar, Cijambe -Subang",ChIJ3bQTQgAlaS4R1rgc5VB8sr0,5.0,"['tourist_attraction', 'point_of_interest', 'establishment']",1.0,,-6.669506999999999,107.809644
"9R2H+VG6, Cimenteng, Cijambe, Subang Regency, West Java, Indonesia",Egla sari,ChIJdWyMTgAlaS4RN5Y1QOYaCh4,0.0,"['tourist_attraction', 'point_of_interest', 'establishment']",0.0,,-6.6478424,107.8287691
"CQQC+Q97, Gg. Tj., Karanganyar, Kec. Subang, Kabupaten Subang, Jawa Barat 41211, Indonesia",Gang Tanjung,ChIJCcZCr2Q7aS4Rsqlh3nPxl_w,0.0,"['tourist_attraction', 'point_of_interest', 'establishment']",0.0,,-6.5605784,107.7709182
"CQ9M+G7M, jln raya cijoged, Sukahurip, Kec. Cijambe, Kabupaten Subang, Jawa Barat 41211, Indonesia",vila,ChIJSdG2G8Q7aS4R4I3uoEq8c5M,0.0,"['tourist_attraction', 'point_of_interest', 'establishment']",0.0,,-6.581157699999999,107.7831755
"9R77+HR, Cikadu, Cijambe, Subang Regency, West Java, Indonesia",Kebun alpukat dan durian bang Rio,ChIJCZXuhAklaS4R8a2jPe3ibgQ,5.0,"['tourist_attraction', 'point_of_interest', 'establishment']",6.0,"[{'height': 1600, 'html_attributions': ['<a href=""https://maps.google.com/maps/contrib/114772714621812304783"">A Google User</a>'], 'photo_reference': 'AUGGfZkeWTtfm5Sosi0VpVmP82KtE-kTb0AB2tfWXYKhfbJgfzaP7WwphnwZ10ow6xgN74Q7n2MDcL0T-YwcLzSmKPUDRWeOQBzK3C_7kDOvBAF4_QInBD0qr-6NuaSIeC9xOONJE2m1DBpC1CjjXvArDTd-to3eiXoqHBAgkOAChghdHI0x', 'width': 1200}]",-6.6360258,107.8145067
"CQH4+5C6, Jl. Jakatawang, Cigadung, Kec. Subang, Kabupaten Subang, Jawa Barat 41211, Indonesia",Farid ismail,ChIJodCFd949aS4RAm9nx2JQP1Y,5.0,"['tourist_attraction', 'point_of_interest', 'establishment']",1.0,,-6.572085700000001,107.7560044
"9R78+VMG, Cikadu, Cijambe, Subang Regency, West Java 41286, Indonesia",Curug Cisawagati,ChIJdwupK6olaS4RMJnezNb4-tg,3.8,"['tourist_attraction', 'point_of_interest', 'establishment']",4.0,"[{'height': 3120, 'html_attributions': ['<a href=""https://maps.google.com/maps/contrib/103349615668245090424"">Dinar Permana</a>'], 'photo_reference': 'AUGGfZlG_5B49qGA7l-UtqVJ6J7ziyuVJYwpC19YYD4S9fjqJmW6YBi3lpSMlP-GCNteJRXbtD5FXpzmtCSAzvksR3HcQ8KUYY2cNlBHNtC9iMBH8wLPmXYf26_lsykx14nkCUNLjev7iaWo3lFtPKPe_cDfZ10fIPoD-JxMbm7LpRqbNkfV', 'width': 4160}]",-6.6353158,107.8167082
"Dangdeur, Subang, Subang Regency, West Java 41211, Indonesia",BUMI TALAGA SUNDAYANA,ChIJGenfaMo9aS4RY9DvGFR9-Ic,4.0,"['tourist_attraction', 'cafe', 'restaurant', 'food', 'point_of_interest', 'establishment']",313.0,"[{'height': 3120, 'html_attributions': ['<a href=""https://maps.google.com/maps/contrib/115928862351922950904"">Erwin Mulyadi</a>'], 'photo_reference': 'AUGGfZniT1sMHfgeXW7YQ8yVi8hYZdHE7q0cwwlwRjoBBxOfI6A0-q2jbHqshUo53PmX8MJXUXKqaU4t5SlrONLOZaFxm7IxJqOsmT80uUfgBbQH64l-aF10j2UAJNq5DXQXwiz1Y3iDF75tHaIoR1osk56GH46XWB5_FUivPln1_4qvPFQp', 'width': 4160}]",-6.562346799999999,107.7374888
"Cigadung, Subang, Subang Regency, West Java 41211, Indonesia",jj,ChIJmbAyAEI9aS4R0jFDqE47ZIg,0.0,"['tourist_attraction', 'point_of_interest', 'establishment']",0.0,,-6.5622972,107.7607943
"FRH2+HM3, Situ Kalenbuah, Gunungsembung, Kec. Pagaden, Kabupaten Subang, Jawa Barat 41252, Indonesia",Situ Kslenbuah,ChIJAxd9Hqk7aS4RVNUFCeN6eok,4.5,"['tourist_attraction', 'point_of_interest', 'establishment']",2.0,,-6.5211111,107.8016667
"Lembur Pakuan-Sukadaya Desa Sukasari, Rawalele, Kec. Dawuan, Kabupaten Subang, Jawa Barat 41271, Indonesia",Lembur Pakuan Sukadaya Subang,ChIJH1lnQ7I9aS4Rmd84QuUwOKs,4.7,"['tourist_attraction', 'point_of_interest', 'establishment']",659.0,"[{'height': 853, 'html_attributions': ['<a href=""https://maps.google.com/maps/contrib/113432449244581262623"">A Google User</a>'], 'photo_reference': 'AUGGfZn9t8WwdgwPLHHGLn48CJsMTPTAfGQZTNUBiT_uBZqDJj26cvRVEbY-m1jpj8SlcQigb4jhJjB8MvTE6ozapB5hT3DI7seqIkHYhAAoE1OE7EX7u3ktwiDPuxwqZbjuJWtWlSTykr1JxnW93sD8FrYQGa2RhwcTXxqm2spy4Jl2fdQt', 'width': 1280}]",-6.546112,107.7225671
"CQQ2+97G, Cigadung, Subang, Subang Regency, West Java 41211, Indonesia",Patung Vandhofland,ChIJx3Czi5w9aS4RQDNwxv5NgH4,5.0,"['tourist_attraction', 'point_of_interest', 'establishment']",1.0,"[{'height': 4080, 'html_attributions': ['<a href=""https://maps.google.com/maps/contrib/113473725651400369837"">A Google User</a>'], 'photo_reference': 'AUGGfZlVmOs7B4im7UWUa-2EL9FAFvHZGdUedvSAvOeK8Go2kbIJO4OgkCN8X8yxJGFc7DC9rM6d_NI5j4NmXpJVH0miVg7yNvi4gaTxUFSHv68y1CHFgr31XCiml_Pxi8TjLo4EGv3aAmWKNXdWKEh-J7x9fMP7Z3SlbTb2DGFzJ6yMKGBZ', 'width': 2296}]",-6.56157,107.7507184
"FP5C+H44, Rawalele, Dawuan, Subang Regency, West Java 41271, Indonesia",Kebon pa dimyati,ChIJ6_Dwd309aS4RhWQPxtWBppU,0.0,"['tourist_attraction', 'point_of_interest', 'establishment']",0.0,,-6.5411065,107.7203345
"GQ2F+C92, Jl. Kp. Kamarung, Sumurgintung, Kec. Pagaden Bar., Kabupaten Subang, Jawa Barat 41252, Indonesia",Balong pa umad,ChIJ06baEZE5aS4RKHa5bNdu7b4,5.0,"['tourist_attraction', 'point_of_interest', 'establishment']",1.0,,-6.498985999999999,107.7734009
"9R2C+47F, Cimenteng, Cijambe, Subang Regency, West Java 41286, Indonesia",PARIWISATA PANYAWANGAN,ChIJac9_7ZwlaS4RJhR5Ij-V0FY,4.2,"['tourist_attraction', 'point_of_interest', 'establishment']",31.0,"[{'height': 3360, 'html_attributions': ['<a href=""https://maps.google.com/maps/contrib/109568639511279922348"">A Google User</a>'], 'photo_reference': 'AUGGfZnGzqgENuC1vxUhDKOtLlG9b1bp2p2ygYI6tEGFx-CL34gxVEWMOFul9q8bOmkARv9RQ-YEPShNiLcZNltl3-EJ-RcR80oECsKsOWpcNpetjkXQXghGO3EIGU-v_KHhjOJ_0GJc2-pzn5sJTpnODNzsd8AuF2snJ4LHg4bOpiyDx4Mg', 'width': 4480}]",-6.6496965,107.8193404
"CQ5M+F5, Sukahurip, Cijambe, Subang Regency, West Java, Indonesia",Haris Farm,ChIJpT6ZbgA7aS4RWbPk_MKYoTc,0.0,"['tourist_attraction', 'point_of_interest', 'establishment']",0.0,,-6.591361,107.782886
"FQQQ+6HC Situ Ijan, Gunungsembung, Kec. Pagaden, Kabupaten Subang, Jawa Barat 41252, Indonesia",Situ Ijan,ChIJESDlFC07aS4Rpg3CJBiSHAA,5.0,"['tourist_attraction', 'point_of_interest', 'establishment']",1.0,"[{'height': 4160, 'html_attributions': ['<a href=""https://maps.google.com/maps/contrib/112073461449556427141"">Agus maverick</a>'], 'photo_reference': 'AUGGfZkcNYp1vGX7tkOW7hPF0XF7jnQkaxda26kOY3m9jg0Ubby9vaepaHt6qjrH1HwMBe1ELsFVN7nx0b2No-c9XqtQIaiApTuLQcv--i5Q-llDaRFZlLaOMem_27vXFM3OYW5XKfLq50QhaPfmCWm0UdyaLuY74iKGHqWmlppjBXbl8eZl', 'width': 3120}]",-6.5119444,107.7888889
"CQPJ+CFC, Jl. Buana Subang Kencana, Karanganyar, Kec. Subang, Kabupaten Subang, Jawa Barat 41211, Indonesia",Total Clean Shoes,ChIJU5vo2sI7aS4RLOX347D2ugU,0.0,"['tourist_attraction', 'point_of_interest', 'establishment']",0.0,,-6.563933899999999,107.7811404
"9Q6C+9W7, Darangdan, Bantarsari, Kec. Cijambe, Kabupaten Subang, Jawa Barat 41286, Indonesia",Pasir Heulang,ChIJ655dEn8laS4R4EnmyZqV4Pc,4.5,"['tourist_attraction', 'point_of_interest', 'establishment']",38.0,"[{'height': 900, 'html_attributions': ['<a href=""https://maps.google.com/maps/contrib/107321484043359653463"">Dede Ruhana</a>'], 'photo_reference': 'AUGGfZnMCkDysXxGnUgzraE03YF6-1_JvRXEvoPwYCDNmcO36V-ZNzKKzinOMK4kOuleOTV-nLHpdU9nL1G5cjYFRYipXOFaJFiUpaszLOoKtmFzmgwje8KiXQyaazu8xKv7-g1adshnQOgal5nP6j5MSkfkZsMmKC8l4kmLVo2mAvkwyZMZ', 'width': 1600}]",-6.6390766,107.7722985
"CP8V+M6P, Parung, Subang, Subang Regency, West Java 41211, Indonesia",Hutan Kota Ranggawulung,ChIJ76P6yrk8aS4RXHCfKxgdvYQ,4.4,"['tourist_attraction', 'park', 'point_of_interest', 'establishment']",1082.0,"[{'height': 3000, 'html_attributions': ['<a href=""https://maps.google.com/maps/contrib/103022176129393169725"">Dendi Ridwansyah</a>'], 'photo_reference': 'AUGGfZmzhOptZD4epwjiaY9jjRQVTkV6o1hPTo1qgWrMLl5FTTKfJfG7Abe23UeEa2H63O__nkZp4j2947acr1_arhR6ZArqmwYc2agFX-5eLd19kvwS0TDY0KFdzn334bd1feeDjMCerkesR2zRYABwoYGXSH5JtMeb5t5F4IrL20YpZ9QJ', 'width': 4000}]",-6.583275,107.7430899
"GPQR+GXP, Sindangsari, Cikaum, Subang Regency, West Java, Indonesia",Leuwi Gamprit,ChIJpXs0WlA_aS4Rf2A8DLUyUPY,4.0,"['tourist_attraction', 'point_of_interest', 'establishment']",4.0,"[{'height': 3264, 'html_attributions': ['<a href=""https://maps.google.com/maps/contrib/104471446726058202471"">A Google User</a>'], 'photo_reference': 'AUGGfZlYxZ5gNsfRpnmeTI85-S-S1CB6_mrpCv5QSYa8N0emJYIv--KaegLVBcF6tJVkRY5VuNyTq_Uob7gLY6et7LD0gGUjrRqgOAmoS5C-yPtqRYxZWUf1_Uklj07MDY4VETZLk84Vx46yt3BRulbo_AiRmtq8rYj6Z5kGee2EQ5-P4Vb4', 'width': 1840}]",-6.461153299999999,107.7424613
"FRXP+F3C, Padamulya, Cipunagara, Subang Regency, West Java, Indonesia",Pemancingan tongtolokann,ChIJSa0jajw5aS4R1I25nTUDU_o,0.0,"['tourist_attraction', 'point_of_interest', 'establishment']",0.0,,-6.5013139,107.8351416
"8PR8+242, Ranca Bungur, Tambakan, Kec. Jalancagak, Kabupaten Subang, Jawa Barat 41281, Indonesia",Putra Alam Indonesia,ChIJ47jQFgAjaS4Rrvq0tUlC2Eg,0.0,"['tourist_attraction', 'point_of_interest', 'establishment']",0.0,,-6.66,107.7152778
"GQ7R+G75, Pangsor, Pagaden Barat, Subang Regency, West Java 41252, Indonesia",Saung ranggon empang,ChIJJbot6Tc5aS4RkFOT5NFSLYM,2.7,"['tourist_attraction', 'point_of_interest', 'establishment']",3.0,"[{'height': 4080, 'html_attributions': ['<a href=""https://maps.google.com/maps/contrib/113979841836467716060"">A Google User</a>'], 'photo_reference': 'AUGGfZl2pfsxkM_QKNi9oHMbmn3PoLOxU3fewRsEHJX6Id4J_1fjCEE2CA3bahD4c42DnXRz9bF7mVjPRRpKA4iAGdx_hvgPQm5PVLIeSx_gQuNElYr6zMEUWKG5ttLISTwOLwp9hJPHnrsQD1N_-7D7lv4eBYxWWrYIYCmNL_JZCJna5Ya0', 'width': 1780}]",-6.4862436,107.7907387
"Jl. Jend. Achmad Yani No.6, Tanjungwangi, Kec. Cijambe, Kabupaten Subang, Jawa Barat 41211, Indonesia",REST AREA RAWU (Ranggawulung),ChIJGb2Lb3A9aS4RUYPmbJPkPR8,5.0,"['tourist_attraction', 'point_of_interest', 'establishment']",1.0,"[{'height': 719, 'html_attributions': ['<a href=""https://maps.google.com/maps/contrib/108424973097386841314"">malik putraka jaya</a>'], 'photo_reference': 'AUGGfZmwAPTW8NtB0DoL8ScJB9bE-dIjY476yb624jwJ0kFfhKZ1Vi0Bg0ODLZhSdevNvV7bePnw9Jbxy-QUuMEBc1n5fHztzShwfNi-14IcsvmikhA1j2k62_-4retW_sO4f-JOs48kovPBvVkxbigm6I8bpZoP9U401HoqKvQrJ50ogrfp', 'width': 1600}]",-6.5817317,107.7453336
"Tanjung Jaya, Subang, Subang Regency, West Java, Indonesia",Family Subang,ChIJcYi0TeY3aS4RyDgs7jyK8U8,0.0,"['tourist_attraction', 'point_of_interest', 'establishment']",0.0,"[{'height': 1329, 'html_attributions': ['<a href=""https://maps.google.com/maps/contrib/108102085646691614805"">A Google User</a>'], 'photo_reference': 'AUGGfZn_U8spGxoSKUQxDOrngVMSpGcooTePOhvzD5k7BOBq5RmMLXRAGpdfAXje_qvHpmxmHkG-8qvnsAxrkvQWUkVR4EIWLYm4LVKhrfJ_Q3yuwWC_kNHXN6bbKv2JI8GNoXNcIhHW68cJzwinKf5k8MkUes4Qx0K3vie-j48JUNzCd_TK', 'width': 1076}]",-6.492104100000001,107.8838131
"CP2F+MW6, Jalan raya paseh-bunder blok MY, Parung, Barat, Kabupaten Subang, Indonesia",Berliana garden,ChIJOb360JYjaS4RGM-K_QxcOBs,0.0,"['tourist_attraction', 'point_of_interest', 'establishment']",0.0,,-6.598328,107.7247691
"FP2F+83F, Jl. Sukadaya, Rawalele, Kec. Dawuan, Kabupaten Subang, Jawa Barat 41271, Indonesia",KEBUN B1NT4NG,ChIJq2lkLQA9aS4RGxt4n6yWf1Y,0.0,"['tourist_attraction', 'point_of_interest', 'establishment']",0.0,,-6.5494584,107.7223568
"GR99+J2, Sukamulya, Pagaden, Subang Regency, West Java, Indonesia",Sawah Abah Ade,ChIJM9MWgxc5aS4RCCK2YVianjM,0.0,"['tourist_attraction', 'point_of_interest', 'establishment']",0.0,,-6.4809052,107.8176164
"Kp. Kukulu 1, RT.22/RW.06, Balingbing, Kec. Pagaden Bar., Kabupaten Subang, Jawa Barat, Indonesia",Taman Anggur Kukulu O&i Farm Subang (Jawara Budaya),ChIJRbmpn7Y_aS4RRx7TP33-knM,4.3,"['tourist_attraction', 'amusement_park', 'park', 'point_of_interest', 'establishment']",1249.0,"[{'height': 3000, 'html_attributions': ['<a href=""https://maps.google.com/maps/contrib/116932271552014063363"">A Google User</a>'], 'photo_reference': 'AUGGfZlAqWquuszY7UY7PIkxw-04mn_CGG1Zm0KOAlsxtr1v3nZVLWevSVQ6BRnN6LJluhT6JSjOpkyNrYxMUF0xazXzbTnw7LWh95aBVsbnQnsFvD53LeeV16Ipr5KM7egWpxE3OJ2UROtOp1JTG4kmRZ7kPk0orJQfRDXCf4J6XXO5EWqU', 'width': 4000}]",-6.4898731,107.7406732
"Cirangkong, Cijambe, Subang Regency, West Java 41286, Indonesia",Desa Wisata Cirangkong,ChIJx-mlxwElaS4RVTreFqXoW7o,5.0,"['tourist_attraction', 'point_of_interest', 'establishment']",8.0,"[{'height': 2268, 'html_attributions': ['<a href=""https://maps.google.com/maps/contrib/118054525805616484653"">A Google User</a>'], 'photo_reference': 'AUGGfZlawyyjGdpJvExRVIhds_o4AmCIZljGQilTHo0iLZixhNHfcsIraQ3KmvpXGxr7G-BXu0413drDvowQMNM-MyzO61zRIXUnGKHjTU1Gz_Vk8Gntp-U04l2b_qf2peKlOSurbP0eu1d1Flm9GaHMaSjN9rhDEM47umDMIKmSOQsQVR1m', 'width': 4032}]",-6.6500292,107.7695429
"CQG5+7FQ, Jl. Jend. Achmad Yani, Pasirkareumbi, Kec. Subang, Kabupaten Subang, Jawa Barat 41211, Indonesia",Curug Lima,ChIJreuAP8I9aS4RNAbXn04VTnA,4.4,"['tourist_attraction', 'point_of_interest', 'establishment']",18.0,"[{'height': 1836, 'html_attributions': ['<a href=""https://maps.google.com/maps/contrib/113250255216823771059"">amet arief</a>'], 'photo_reference': 'AUGGfZmIDy0qtscvqzkFm5ZvHBgk-0lPrC76Pg7teZlqOQ_UTK3jPs3no8MxTkKKOcTqjmvwDcbs8JvNF3SbeOj0W_83LiM6GnmdWxW07EQVGBE8j2Cg0IRCiDaBF6Ea-1JYLDaSpejCf3E4YG18CJYIYb1kH1AYeUk0QLjIFxETITVs1ldQ', 'width': 4080}]",-6.5746177,107.7579967
"FP5R+2F6, Dangdeur, Subang, Subang Regency, West Java 41211, Indonesia",Pemancingan dangdeur,ChIJuRTALLY9aS4RuN2-cPRfCtI,0.0,"['tourist_attraction', 'point_of_interest', 'establishment']",0.0,,-6.54341,107.740253
"9PXX+P42, Unnamed Road, Tanjungwangi, Kec. Cijambe, Kabupaten Subang, Jawa Barat 41286, Indonesia",Wisata air ciwideng,ChIJJaWqJ0sjaS4RskS5ZF8Xi-k,4.4,"['tourist_attraction', 'point_of_interest', 'establishment']",27.0,"[{'height': 4080, 'html_attributions': ['<a href=""https://maps.google.com/maps/contrib/113559121891251068040"">Fathin Ummu Ibrahim</a>'], 'photo_reference': 'AUGGfZnqY1RaaFyt4rtdFWwJcZeT3L54YkqoE8Wp8dbI70zN3W5vUJAy7IUYqmaFvLQkq4WkN4kc9Iejmgjx8ykJhvmQs_ps3m8X0ewPKSqkDR1l15lXfPQFsb2UB5qP0XXhtymeV8pRdQ4Hbl6CNXA-1sgS8hKIBkw2bR8Q66V9oMI3tHaq', 'width': 3060}]",-6.6007343,107.7477513
"FPXM+8G, Kaunganten, Cikaum, Subang Regency, West Java, Indonesia",Leuwi beudeus,ChIJMb1tQgA_aS4RDJKMYuKVJSI,0.0,"['tourist_attraction', 'point_of_interest', 'establishment']",0.0,,-6.5016357,107.7338383
"CP2C+WVR, Jl. Raya Parung, Parung, Kec. Subang, Kabupaten Subang, Jawa Barat 41211, Indonesia",Cibaregbeg,ChIJAaltX7cjaS4RgG6YiNj3vH0,0.0,"['tourist_attraction', 'point_of_interest', 'establishment']",0.0,"[{'height': 4160, 'html_attributions': ['<a href=""https://maps.google.com/maps/contrib/109244870506700625714"">A Google User</a>'], 'photo_reference': 'AUGGfZls-ZhVMaBMpg9IiTsOlz-vACPMhONxSkfl6Dz8owO8rcQl9LIFXdU9G3I46HJM6-9RNYkNTfClIovnzR-EBPY8H60YtVbNr0GJfU8Sr7J2J56KWQFPEP9fcjJcLF-Lkt6ALBfqVEnrdb8JSNDbHiTCU0jLZ1NjEyLcRjaTDWfjTYy-', 'width': 3120}]",-6.596698,107.7213499
"GV76+VGW, Unnamed Road, Parigimulya, Kec. Cipunagara, Kabupaten Subang, Jawa Barat 41257, Indonesia",Balong leuwituk,ChIJF333NL43aS4RP7Zu-NAsJ5Q,5.0,"['tourist_attraction', 'point_of_interest', 'establishment']",1.0,,-6.4852702,107.8613418
"CPP3+XH, Cisampih, Dawuan, Subang Regency, West Java, Indonesia",Camping ground ciledug,ChIJfW2Mcls9aS4R3EXaphVdBIM,0.0,"['tourist_attraction', 'point_of_interest', 'establishment']",0.0,"[{'height': 1204, 'html_attributions': ['<a href=""https://maps.google.com/maps/contrib/108218004721483732324"">A Google User</a>'], 'photo_reference': 'AUGGfZn0OEQ8eAQMp2fpbjj0ksgMVGn5Cr5zL7C-vYb7T4aLP3r6XbRvfdiFydNMG_QypIZa_vlaitgkL9Vh8iVVj7vHX2-raWFw5zqVIn5rN7r2yQvl5tY134StVG93h4LgaS26fHAHnB-8Fd-OLKLITrVnnCrW60gZkDpjBVZSHzXS-FrH', 'width': 1600}]",-6.5625779,107.7039669
"CQ37+7FQ, Unnamed Road, Sukahurip, Kec. Cijambe, Kabupaten Subang, Jawa Barat 41286, Indonesia",Saung Luhur,ChIJa0ZXT4glaS4Rt-IzzbQ4QQU,4.6,"['tourist_attraction', 'point_of_interest', 'establishment']",25.0,"[{'height': 3264, 'html_attributions': ['<a href=""https://maps.google.com/maps/contrib/106627965310682728087"">restu ginanjar</a>'], 'photo_reference': 'AUGGfZlGigeeq1_U7_CWe8WcRoW6kAtxbquxkNfy7hfd11K5LSsVXFZGbH9scuC_NZzpjYEhho_Q9JNtCNogA1u9l8CGYb4cHPCwwQ-ZpuEp4m-w-6Sij_pb6kATt_YFLhRJLAo8Omhs-bga8JI00MUDvbQCSOoumSWux7QryspR9qh9QhqX', 'width': 2448}]",-6.596789299999999,107.7637295
"CP3R+QF8, Unnamed Road, Tanjungwangi, Kec. Cijambe, Kabupaten Subang, Jawa Barat 41286, Indonesia",Dusun pangkalan,ChIJRe5uuOojaS4RZPrzWSVu-ms,5.0,"['tourist_attraction', 'point_of_interest', 'establishment']",1.0,,-6.595593999999999,107.741215
"9PF8+3F9, Jl. Cibaregbeg, RT.01/RW.01, Gunungtua, Kec. Cijambe, Kabupaten Subang, Jawa Barat 41286, Indonesia",Saung Urang,ChIJNYuzoGkjaS4RpCPu56Ybc7s,0.0,"['tourist_attraction', 'point_of_interest', 'establishment']",0.0,,-6.6273353,107.7162233
"9PFF+846, Raya Tanjung Wangi-Cijambe, Cijambe, Kec. Cijambe, Kabupaten Subang, Jawa Barat 41286, Indonesia",Pemancingan Zivana,ChIJ5yZol44jaS4RUBzSQJaHWWA,5.0,"['tourist_attraction', 'point_of_interest', 'establishment']",1.0,,-6.624369,107.7243062
"9PHM+HJ, Gunungtua, Cijambe, Subang Regency, West Java 41286, Indonesia",Saung Ambu Nina,ChIJaRHCCw4jaS4RGrDetQnGKvc,0.0,"['tourist_attraction', 'point_of_interest', 'establishment']",0.0,"[{'height': 1920, 'html_attributions': ['<a href=""https://maps.google.com/maps/contrib/116733138640919636993"">A Google User</a>'], 'photo_reference': 'AUGGfZlH3U1UkC7T3kGl4A6fhMNkVGUPyuvVvh4GemMNyeCxb2uzvcfUgaaOJRgi6NnYZO_95F31HCEp9wtGpDUnGReTUhuAihFE2fgjQXTWzgzr3MWI_SOT0zCO3BYY-MZ8B05TQDCGMI85iqVrBi4hGOUGp9nWxvuLusmIbCmRsprh-cKT', 'width': 1080}]",-6.6210917,107.7340766
"Kampung Pangkalan Desa, Tanjungwangi, Kec. Cijambe, Kabupaten Subang, Jawa Barat 41286, Indonesia",WISATA CURUG CIWIDENG,ChIJ05GsuEojaS4Ri7EEst0pyvg,4.6,"['tourist_attraction', 'point_of_interest', 'establishment']",123.0,"[{'height': 3472, 'html_attributions': ['<a href=""https://maps.google.com/maps/contrib/114094908537770858028"">A Google User</a>'], 'photo_reference': 'AUGGfZnr2YkR4CRJjIihivoafjzuKY0AZp-1YqUpQ4i4BZlb0oEec8fklj9F8wXcwgxDdvhvaSFqja6IMGozLqDpRo8Rs2AB-uYfOfLkUkxF_RobaIm6dSrZxuYjTeWBHCgexxXLsRw9u5T3mVq90TOr12JtRMVucVz8ztt6WSuWBUJDixSx', 'width': 4640}]",-6.601397299999999,107.7437745
"Jl. Raya Cijambe No.16, Cijambe, Kec. Cijambe, Kabupaten Subang, Jawa Barat 41286, Indonesia",Lembah Gunung Kujang - Wisata Lengkap,ChIJzVwSA5IjaS4RtQhsKkDAKgc,4.9,"['tourist_attraction', 'point_of_interest', 'establishment']",8.0,"[{'height': 3840, 'html_attributions': ['<a href=""https://maps.google.com/maps/contrib/102037713359639228322"">A Google User</a>'], 'photo_reference': 'AUGGfZl11mPWWiYGO7Xn3qfm-NPi70P3OrOJL7gponsly6-HXDXPN34Upjw06-7UWYYLupt6aw2XLOg9T7fCsIm65Qgr-bUmyAN6h2CIR0c2kpJ7uSLWR2w6sD9h99lTkR7yUygTQwCWVZuIb1DT01pHbGBDsU5oYlKnQ0j3nkr_yrjYF2Q', 'width': 2160}]",-6.6275422,107.7221605
"9PCH+5W5, Gunungtua, Cijambe, Subang Regency, West Java 41286, Indonesia",Dewisinta,ChIJI0s3b1kjaS4Rkli4RqN4Ml8,0.0,"['tourist_attraction', 'point_of_interest', 'establishment']",0.0,,-6.629230600000001,107.7293982
"8QP6+5R, Cirangkong, Cijambe, Subang Regency, West Java, Indonesia",Aul gold,ChIJBcjWoyYjaS4R6qW77t4RLxY,0.0,"['tourist_attraction', 'point_of_interest', 'establishment']",0.0,,-6.664511699999999,107.7621067
"Jl. Raya Cijambe No.KM. 9, Cijambe, Kec. Cijambe, Kabupaten Subang, Jawa Barat 41286, Indonesia",Kolam Renang Talaga Warna,ChIJ05PFL6kjaS4R0A_bHjl34ng,4.2,"['tourist_attraction', 'point_of_interest', 'establishment']",261.0,"[{'height': 2448, 'html_attributions': ['<a href=""https://maps.google.com/maps/contrib/105081705264103822229"">A Google User</a>'], 'photo_reference': 'AUGGfZmWHLeE48jVnefUcwU72n-VzydtmTaXm3zyeZOzWWVv7hANNq8Vm1bSleY3eIwbUtlVEqQb_Rs8reT7j2cb5ef97OPKQI8J2RUk4C862I7ZVqmmeSU1fnZDQBhvkFmhex2HVvLQEXZG2iMPPI0fRsfQok07-v4_xy_TJeNlwYrQ6T_q', 'width': 3264}]",-6.634637499999999,107.7237211
"Cijambe, Subang Regency, West Java 41286, Indonesia",Kebun Jeruk Garut Anuwani,ChIJ6XCJXnsjaS4R-FladCvIF8Q,0.0,"['tourist_attraction', 'point_of_interest', 'establishment']",0.0,"[{'height': 809, 'html_attributions': ['<a href=""https://maps.google.com/maps/contrib/108293118025203599500"">A Google User</a>'], 'photo_reference': 'AUGGfZnux1vU-mmO5CPCda0KDQoSNE4P9aSvmb1cjhdpdjQ7CNmcFByXdMPwxc0fozfcvSu5MMxPb_kqJpF4YXTtXUysM-FKddAbYZiG6tBipYT_FfIcOcgDSKwQYJlpnizjd34t663SPRwIO7bZBZstJ5RnPXX94maiGATyBrS1XSioYQdx', 'width': 1440}]",-6.637312499999999,107.7370625
"GP3M+9FR, Kaunganten, Cikaum, Subang Regency, West Java 41253, Indonesia",Sasak gantung kawunganten tua,ChIJkVsp2bY_aS4R_vddbmO9WQo,3.3,"['tourist_attraction', 'point_of_interest', 'establishment']",4.0,"[{'height': 2576, 'html_attributions': ['<a href=""https://maps.google.com/maps/contrib/100138516058778419634"">A Google User</a>'], 'photo_reference': 'AUGGfZkYAAFKyxHO3spSQ4cctsf8GyzbaGwKmtSuOPDSgsY186RWHzdM0ahBKrq-WtblqVfXehli-fpQ47cCrL_B-9JMa71Q5RlMatwvhKOfayitmPDcNn1Amx0yjhXECCg3oj7X8Tyy6wQU5qf_t65GlOcKr37GvvtCq3nhbgttISJdeOT6', 'width': 1932}]",-6.4965049,107.7336405
"Unnamed Road, Kaunganten, Kec. Cikaum, Kabupaten Subang, Jawa Barat 41253, Indonesia",Lembur Kawunganten Tua,ChIJGb2heoU_aS4R4aX97clDAXE,5.0,"['tourist_attraction', 'point_of_interest', 'establishment']",1.0,"[{'height': 3000, 'html_attributions': ['<a href=""https://maps.google.com/maps/contrib/106057782129486572360"">A Google User</a>'], 'photo_reference': 'AUGGfZlgSWB-90K22CBS6eonnrd7t-ErE-d5DMOwKPngU0qji8wxZ62yb7NAe-kAxVomspzsLUS4TDTJzO5COb-ZJypN7OcRugos1VBpHb-lPqRMs0pu-E-jJZa6AqebZBs5gTyXRLdefemIVd5HgEplwG39suVukC8u2nrfOzP4Xid1m5er', 'width': 4000}]",-6.4962453,107.7320998
"HQH3+W76, Jl. Raya Gambarsari, Cikaum Tim., Kec. Cikaum, Kabupaten Subang, Jawa Barat 41253, Indonesia",Situs Nyi Subang Larang,ChIJNx_LGLBAaS4RMz1-H0gPiKA,4.4,"['tourist_attraction', 'place_of_worship', 'point_of_interest', 'establishment']",158.0,"[{'height': 3120, 'html_attributions': ['<a href=""https://maps.google.com/maps/contrib/102722347931666076503"">Andang Kuswara</a>'], 'photo_reference': 'AUGGfZlK-T1V_UzFlDRSuZZeR2W7BMWq1uG22isBum1IGIiOKM7dgeyMegRhs9E10kXk4dyPgY7-NFmTLSL620r-eExoyRjL4h_Gvf98dVO_bLbKFE2N4wDQKkgbqKjkQcH1Bv8O7GKeM318YVy8qb-tF4OfhNuejGj7A4_5Fgg0XB_I2xZ9', 'width': 4160}]",-6.4202129,107.7531525
"JP4W+8GW, Gandasari, Cikaum, Subang Regency, West Java, Indonesia",panaruban blok limpas Tambak,ChIJyTURs7RBaS4RBZCD9176DNc,0.0,"['tourist_attraction', 'point_of_interest', 'establishment']",0.0,,-6.3941346,107.7463341
"GQQ7+C5G, Munjul, Pagaden Barat, Subang Regency, West Java 41252, Indonesia",Wisata Air Maulana Yusuf,ChIJf3OHNgA_aS4Rm7MaaqM3D3s,0.0,"['tourist_attraction', 'point_of_interest', 'establishment']",0.0,,-6.461440800000001,107.7629493
"FP47+53C, Rawalele, Dawuan, Subang Regency, West Java, Indonesia",Pemancingan citugu,ChIJm63RMAA9aS4RUpjbKm3WnOY,0.0,"['tourist_attraction', 'point_of_interest', 'establishment']",0.0,,-6.544563999999999,107.7126395
"HP6P+W48, West Cikaum, Cikaum, Subang Regency, West Java 41253, Indonesia",nenek lampir,ChIJA88jSgk_aS4RFJ930WVy78k,0.0,"['campground', 'park', 'lodging', 'point_of_interest', 'establishment']",0.0,,-6.437601,107.7352166
"Unnamed Road, Kaunganten, Kec. Cikaum, Kabupaten Subang, Jawa Barat 41253, Indonesia",Taman Srikandi,ChIJoUtvJV4_aS4R9OW7JGst6AQ,4.4,"['park', 'point_of_interest', 'establishment']",90.0,"[{'height': 3456, 'html_attributions': ['<a href=""https://maps.google.com/maps/contrib/110561773556727342797"">A Google User</a>'], 'photo_reference': 'AUGGfZmRIvYxDArm0uL7ZdtNc5wO16j2aWvLj0_uBl-Ft7KcwlwP7EF8bw-eMn7TWCQfyNADuzEZ5ek9t-5c1Dn4dFYyiC4n-i6rX2qBdw71LXUf4sjQtQFtqhU6vHw4Mx0fR8ZdFpoNgpCsObm1BbWBJQv2-R3rNjgrpoVgdvkWu1fcBSMb', 'width': 4608}]",-6.4861067,107.7346785
"HPWV+46P, West Tanjungsari, Cikaum, Subang Regency, West Java 41253, Indonesia",Sumur Gorowong (Sumur Peninggalan Pamanoekan & Tjiasem Land),ChIJRdJjOVVBaS4R5YLqtmO_OJU,5.0,"['point_of_interest', 'establishment']",1.0,"[{'height': 3456, 'html_attributions': ['<a href=""https://maps.google.com/maps/contrib/115561023064947649827"">ANDY Williamg</a>'], 'photo_reference': 'AUGGfZlicbgPUvo27ZqIWhQYkrqsKjME1Pck8KrHnl-elW79n6dCOLjO1kFOULUdKY80FGZiPKFy-EAzppbgQFrUuaihwEFS1aEj_iiKSkngYx15SK-bjCsl-DGRqBKIW9qS7Fohy1OJnjEBqTQ5RX8cioo5Qsap5kfisMIqOETTfo-Jzg6g', 'width': 4608}]",-6.404670400000001,107.7430661
"GPRR+F99, Sindangsari, Cikaum, Subang Regency, West Java 41253, Indonesia",Saung Karuhun Kali Cacing,ChIJwxCgrMM_aS4RtVcMy2Qk2Dk,4.3,"['point_of_interest', 'establishment']",3.0,"[{'height': 1440, 'html_attributions': ['<a href=""https://maps.google.com/maps/contrib/101937203986139697684"">A Google User</a>'], 'photo_reference': 'AUGGfZkwHJayqOzk54oNY4xCvxNpwOtMJLKr93CKx_ICKB7g2XSv-EM8BNAN6ymMMV3501AClmOPLIKRGM4Tv-d-Iq3WP8ZdH1QcQdzw8INmSpyG_qji5ejdR5qfMBRjo7moE6djM3ujNPVuUq3h5ZYvi6xYA3cONwakM2Y3s3z2ciKHDms_', 'width': 2560}]",-6.4588446,107.7409746
"Dusun timbangrawa rt 06/02, desa, Pasirmuncang, Kec. Cikaum, Kabupaten Subang, Jawa Barat 41253, Indonesia",Sumber mata air ci qur'an,ChIJGw2-I2xBaS4RTw6bpybFF6g,4.3,"['point_of_interest', 'establishment']",4.0,"[{'height': 1836, 'html_attributions': ['<a href=""https://maps.google.com/maps/contrib/115004664336142796921"">A Google User</a>'], 'photo_reference': 'AUGGfZn28zwCaSHQrRvmWDj1YnQvE2NulD09SJaVYKi5YLE3J02wjj38S-8Ktdii_AthN4jotfQkPCurTaecPxbQ3LnA_uiCjGhOz7sS-Kc_L5fzPWXcaDcgCkuvBUQBN9-QtHrOMjGfJPtivRMBVMoZ34LGbA9ffcGZ8KGtak2yxfvcEUBP', 'width': 3264}]",-6.4195826,107.696912
"Kaunganten, Cikaum, Subang Regency, West Java 41253, Indonesia",Taman Arimbi,ChIJSRPKBUQ_aS4RfAgeesWmNgw,4.3,"['amusement_park', 'point_of_interest', 'establishment']",96.0,"[{'height': 2448, 'html_attributions': ['<a href=""https://maps.google.com/maps/contrib/113773988914768281343"">A Google User</a>'], 'photo_reference': 'AUGGfZkwd2Cr3WX8frw3T4Ftqxtdq5T1ONd_tMYbvNJ2u2QpuIdvgM84-xgf7tDu2d_9K4--TSgBagRkw7QmsRSikmH7VDLN-dZkQX3e0tVPyRBMZcMqVwcYQeBIcHnqQFUUvjt1PxamNU5OAZbCpv5N7odY-W7xnfX8-cKYCRnL0XIKbUZZ', 'width': 3264}]",-6.4852969,107.7357329
"HP4W+5CP, East Cikaum, Cikaum, Subang Regency, West Java 41252, Indonesia",Sasak Gantung Angsana,ChIJOyUvYCw_aS4R7yvXZGEHypU,4.5,"['museum', 'point_of_interest', 'establishment']",8.0,"[{'height': 4000, 'html_attributions': ['<a href=""https://maps.google.com/maps/contrib/104170606563362700227"">A Google User</a>'], 'photo_reference': 'AUGGfZmIVtASJjmFKgTEk83nChwHmFC4kFmKDwY9o51E-6PUq0Xq-eES0xYO-4ijDSiISInpboQ0qec-u29Ysg0hiC2olJNKaID0poKSO8U36hafSiGBLaNe8O_XP71u4gTMVqTKV1wM-xzjZu6jQ1UGBtRKfb_pZwj6eS1GCqIfW4rF5wY', 'width': 3000}]",-6.444526,107.7460849
"HP7Q+QV6, West Cikaum, Cikaum, Subang Regency, West Java 41253, Indonesia",Stasiun Cikaum,ChIJKXoapmA_aS4RTMRVZRZhHJ0,4.3,"['point_of_interest', 'establishment']",266.0,"[{'height': 2256, 'html_attributions': ['<a href=""https://maps.google.com/maps/contrib/113997490451043819584"">A Google User</a>'], 'photo_reference': 'AUGGfZnkyLUJz6vSogDz9MoqK-i19Sh1TlMGCcGfjDoQ53QJNF6h_mwEzsKC3CLnZwFF19hwRNUUfNu4tLMx9DDIUCfEaNDIiWUX_qTQqHWrkl-sN9uFahcbOZhG2DVNmaL-Ozk2UppSSaFFVTB7w4PJ9u3d9otyC072NMlhLQ7vbRAqPL2M', 'width': 4000}]",-6.4355804,107.739618
"Jl. Sukadaya, Sukasari, Kec. Dawuan, Kabupaten Subang, Jawa Barat 41271, Indonesia","Sukadaya, Desa Sukasari",ChIJc-ZgSMY9aS4RviVncG-N7BA,4.5,"['tourist_attraction', 'point_of_interest', 'establishment']",22.0,"[{'height': 3264, 'html_attributions': ['<a href=""https://maps.google.com/maps/contrib/112772237836203598626"">Yandi Dwinandar</a>'], 'photo_reference': 'AUGGfZkfDGW0-YIou5NCq4bin6_6AaQ99AjSf5piJTyZzXx4tsMe2wi92SUnQKkt7IXiHsru95iq-eULbEOdPtmmPvsU834IvHZrtdofDeoFX7a5p2vI6dXJ5ASPN7TUvFbuamGzgJNLrauYvXFg7fD3JZEk22a6sGB9YDoTkBac_dNV12g-', 'width': 2448}]",-6.5457124,107.7226558
"HMCX+PV, Pasirmuncang, Cikaum, Subang Regency, West Java 41253, Indonesia",Patilasan KIRAMBAT,ChIJ87bl6PVBaS4R5JOo5m5PHh8,3.0,"['point_of_interest', 'establishment']",3.0,"[{'height': 2304, 'html_attributions': ['<a href=""https://maps.google.com/maps/contrib/109760880978939922271"">A Google User</a>'], 'photo_reference': 'AUGGfZm1jCUKmHSUX_DGn0_WbMhPsYIsafc9JW0_-dM6QWtLIZ7zf4sSv0XEUa_HJA_8BeW3BuZCT5gCLpIo7GwBLUw7zqSO5hqyJtWqeWImzrpFwepre1ynkP-312jx-l-YUlmCfAkxPlCJiiJbSi92gVcQ1it-vIyw40-0zwHk5hRa5Fpg', 'width': 4096}]",-6.428221,107.699688
"CMMM+G7J, Cisampih, Dawuan, Subang Regency, West Java 41271, Indonesia",Danau Cinta,ChIJw2ws1m89aS4RIhuoGjWLKZY,4.1,"['tourist_attraction', 'point_of_interest', 'establishment']",31.0,"[{'height': 1836, 'html_attributions': ['<a href=""https://maps.google.com/maps/contrib/103392200174088869577"">Pipid Syachrul</a>'], 'photo_reference': 'AUGGfZnDEDie6LOuv_tC3E6Dgo4HUxiRpj8puKRf7Hv6YZcrUrtYZbR-3oap4jvHLa5Dd2nZ3XKw1bEpgK0rwz-Dgu_-3w_eSUjibqxmwTdGCVH-BCZXYK0jA01T2_FyN4yeuOFPiqOaXM3Qfq_ktKG6To2_oFgHZW9lraUZOfQnL9XRJKFT', 'width': 3264}]",-6.5661692,107.683149
"GQP4+J6Q, Jl. Raya Bend., Bendungan, Kec. Pagaden Bar., Kabupaten Subang, Jawa Barat 41252, Indonesia",Mekar tani lV,ChIJC92mC58_aS4RMSnL2f6S9SI,5.0,"['tourist_attraction', 'point_of_interest', 'establishment']",1.0,"[{'height': 900, 'html_attributions': ['<a href=""https://maps.google.com/maps/contrib/100302796372391718062"">Galih Gumilar</a>'], 'photo_reference': 'AUGGfZnb65wcvJIxorfM_l_t2lyR774BLjM7BLRldSA0ceW1507M8vl6daJOZZyvisu9EPEcSVFW08yVyl1HIMktHQccAUfTg8jUSvVxXakYtblUobQBLgdKPl9xf1vf2BM6pKpqrxePPOSzjNr7eu61HJXsQDxHWix65YoVhF_cITYjQ526', 'width': 1600}]",-6.4628888,107.7551281
"FMGG+QF4, West Kalijati, Kalijati, Subang Regency, West Java, Indonesia",SITU CIKALIJATI,ChIJdbhvQwA9aS4RQCrooEvtZWA,0.0,"['tourist_attraction', 'point_of_interest', 'establishment']",0.0,"[{'height': 2352, 'html_attributions': ['<a href=""https://maps.google.com/maps/contrib/116139515959602947084"">Didin Rukmana</a>'], 'photo_reference': 'AUGGfZlKXmj3Tk6Gf8eUWKxsIzpxF5V4yuWmAFOh_K3dXwu_UPXQGne0gtpF6xZTI2F0hanyAYorFd5BzJfpefSmXg7DTTO9OBmg_C0XS3nBH3xeNW_y66-2P5v6e3sfdJcCEYYml27nDPxF9-JIde_ZeOr8XOIF_86VLZtnMxb8CJgaxo-D', 'width': 4160}]",-6.52372,107.67639
"JQJ4+85G, Mekarsari, Cikaum, Subang Regency, West Java 41253, Indonesia",Madi siti,ChIJbS-cDwBBaS4RznkZUM9mUDw,0.0,"['campground', 'lodging', 'park', 'point_of_interest', 'establishment']",0.0,,-6.369175599999999,107.7554237
"PV93+CFH, Mundusari, Pusakanagara, Subang Regency, West Java 41255, Indonesia",JALAN BLOK BAYEM,ChIJreOP3wFFaS4RCWeGA_dI2Os,5.0,"['tourist_attraction', 'point_of_interest', 'establishment']",1.0,,-6.2814317,107.8537484
"HP4V+F52, East Cikaum, Cikaum, Subang Regency, West Java, Indonesia","Desa cikaum timur , cikaum girang",ChIJ-R93dq8_aS4RA-Uw37lxJmA,0.0,"['park', 'point_of_interest', 'establishment']",0.0,,-6.4438736,107.7428952
"GM4Q+VV8, Wanakerta, Purwadadi, Subang Regency, West Java 41261, Indonesia",Rumah pribadi,ChIJfe6UFAA_aS4RE3sQSd5xaRc,0.0,"['tourist_attraction', 'point_of_interest', 'establishment']",0.0,,-6.492918299999999,107.6901237
"GQ75+CVC, Cidadap, Pagaden Barat, Subang Regency, West Java 41252, Indonesia",Sawah sae,ChIJNY5wWzY_aS4RlwNil5Rb35E,5.0,"['tourist_attraction', 'point_of_interest', 'establishment']",1.0,"[{'height': 1280, 'html_attributions': ['<a href=""https://maps.google.com/maps/contrib/107106779033078733779"">Saefudin Saefudin</a>'], 'photo_reference': 'AUGGfZnejzVbe1FaD1yPjkWftrhYtEx6hky6PXT03xSTJIFSxPGLALktPB6TTW_a_GZMPjy6gRPEPYrThsso0f6ttfu--FeKy6KVwDyJH9aeAkUFDEbsA-fO_X3qRvVK95WCn-sLu_BEtVdZ5LQoVPDCKR9bYiEm-xr3TIIo9aPxIMp2qeFH', 'width': 720}]",-6.4853355,107.7593686
"CPF3+FG, Margasari, Subang, Subang Regency, West Java, Indonesia",Pertanian Mandala jati blok citugu,ChIJbcupnkc9aS4RhR4QDsmTnNo,1.0,"['tourist_attraction', 'point_of_interest', 'establishment']",1.0,"[{'height': 1080, 'html_attributions': ['<a href=""https://maps.google.com/maps/contrib/103317677925814949405"">A Google User</a>'], 'photo_reference': 'AUGGfZlYJ3Cr9hRTHNMyBu5CZHj99Ns3YtQkIyBeRGf5qAa3jNdjQDC8o2d_U4I6uV5lSo9rnhz3OFXM66KXCXOmLB93XSupazvV-OMAWohipRqniSjDS9VOIkVlOGE8suCIX5Xoll1eHf3lfywvlcbQzbltZToa7AXlIw0x_tF6P8S9uhXO', 'width': 1920}]",-6.576312499999999,107.7038125
"PVC2+GC6, Mundusari, Pusakanagara, Subang Regency, West Java 41254, Indonesia",Jalan Blok Cigeger,ChIJ2zv1FQBFaS4R6q3o8iwYT6M,0.0,"['tourist_attraction', 'point_of_interest', 'establishment']",0.0,,-6.2787226,107.8510045
"Wanakerta, Purwadadi, Subang Regency, West Java, Indonesia",VILLA KAYU WANAKERTA,ChIJVWX_Uyw_aS4RiWevHsofUbw,5.0,"['tourist_attraction', 'point_of_interest', 'establishment']",1.0,"[{'height': 1816, 'html_attributions': ['<a href=""https://maps.google.com/maps/contrib/117169785120123634134"">Gun Aryo</a>'], 'photo_reference': 'AUGGfZmgDy6E9n7Xi8ng-MR37yWj8yM0nVOPAGXRq_zt6a96JsbBRsai4zCQ0JLWk91_MNrF8yUfs9_9k7M79WfVe316ei4myy4STugwEtavSWNSo56hjtJjV5yfNWLtTYaixZwF-zsn2k_OWJEWqvqm2Nuprmh478XhRqzBjX5oLZ56xIc_', 'width': 4032}]",-6.4909346,107.687572
"JRGW+H8M, Jatimulya, Compreng, Subang Regency, West Java 41253, Indonesia",Tempat ngala pare,ChIJW7fxA8pHaS4RWYOyidyyDvs,0.0,"['tourist_attraction', 'point_of_interest', 'establishment']",0.0,,-6.3735342,107.8457887
"PR7C+FJV, Pamanukan, Subang Regency, West Java 41254, Indonesia",Cibynyaican,ChIJASmDYNtFaS4RpARGL83Ui6w,0.0,"['tourist_attraction', 'point_of_interest', 'establishment']",0.0,,-6.2863184,107.8214739
"HM8M+M88, Pasirbungur, Purwadadi, Subang Regency, West Java, Indonesia",Kolam renang,ChIJZc7CfpE_aS4Rz1NV0RHcHVc,0.0,"['tourist_attraction', 'point_of_interest', 'establishment']",0.0,,-6.433332999999999,107.683333
"GH3V+F7, Cipeundeuy, Subang Regency, West Java, Indonesia",Pertanian terpadu,ChIJLTmKByEVaS4Ra6gWeji6d1M,5.0,"['tourist_attraction', 'point_of_interest', 'establishment']",1.0,"[{'height': 2340, 'html_attributions': ['<a href=""https://maps.google.com/maps/contrib/115284689855459531281"">A Google User</a>'], 'photo_reference': 'AUGGfZl0gEAaz3LBLMIsa43Sk9V-yBvoZ2-mnFDgk11c3i6_Zfo45FiMqLScEmecQ6zTmsKoKH8kCZj0JA3Ee2weRp7zWfCkJ22wSHdu-lkUET2aPI1HJu3PVT6Es_vqulIL1j9wewpElJW6P0cBydWLL1WSrbN_W75S-YEfXuU75CMGUn_2', 'width': 4160}]",-6.496277699999999,107.5932101
"Cimayasari, Cipeundeuy, Subang Regency, West Java 41272, Indonesia",Ulin De Situ,ChIJJ_KYBR0TaS4RjL4PYGXai0c,4.4,"['tourist_attraction', 'point_of_interest', 'establishment']",462.0,"[{'height': 1536, 'html_attributions': ['<a href=""https://maps.google.com/maps/contrib/114277986942011131992"">andri kanza</a>'], 'photo_reference': 'AUGGfZnUt6hdmmQ64nbWn3cWyn_Rsm6Y3Ae82mU-Mb9uNpXjc8MgKUJuIDZiMdAlO-zMV73pB7HhHoLJR5O6S3L0YyActQlRcblTWW7e-MU5cmx3-mzpZ07NB5-raxUTQD1Y8M8Cbf_7p7-e25i792miLaqAU3xVKKix5GqfpHW259aBX7vx', 'width': 2048}]",-6.5148819,107.5696155
"FJR6+7X8, Lengkong, Cipeundeuy, Subang Regency, West Java 41272, Indonesia",Cigunarra Farm,ChIJRQNMFPgVaS4R5K6SudkIH_I,5.0,"['tourist_attraction', 'point_of_interest', 'establishment']",1.0,"[{'height': 4032, 'html_attributions': ['<a href=""https://maps.google.com/maps/contrib/102206698951939115344"">A Google User</a>'], 'photo_reference': 'AUGGfZmaP_ImP_dgI70jdbuhUzNuUoFwuVzcCksLLzplrx_ajGxCjyD2FJXwtkXSGsStbR3ydTvMVy4pRPQMmkBzP0fRXlDVWfBf5RCh1E-NuJr1BzoCHMV7fdqIUxbZhLIbA68sa3YnEn-F_IQusTSzUdcgGO5DRDOb_94Vc1o_a9By8R__', 'width': 3024}]",-6.5090124,107.6126224
"Jln. Cigoong, Karanghegar, Kec. Pabuaran, Kabupaten Subang, Jawa Barat 41262, Indonesia",Cigoong Village,ChIJs6t0iKhraS4RkARvGk4HIgY,4.5,"['tourist_attraction', 'point_of_interest', 'establishment']",29.0,"[{'height': 2184, 'html_attributions': ['<a href=""https://maps.google.com/maps/contrib/108318295976782900337"">A Google User</a>'], 'photo_reference': 'AUGGfZlziHXC40VLUjLyxMtcJexiuV4OoTExjTFrIJ5FA4pLPwDrqDT1oMbjn9xfGeCmoZ-WTy_dOeKKq6svoImz7iqLSSdlAjeHA7WmGQ-WzGNogOou36awxsu95EU0eyNdo7l0dKgGv7HPp9WEbMYz8c9OcLJLOM8Z9o9WXl4V98RIURJy', 'width': 4608}]",-6.4205548,107.6472291
"GHRJ+J4J, Kadawung, Pabuaran, Subang Regency, West Java, Indonesia",Sumur Tamiang,ChIJcyfSjFIVaS4RJ4OKt6R1UY4,5.0,"['tourist_attraction', 'point_of_interest', 'establishment']",3.0,"[{'height': 2448, 'html_attributions': ['<a href=""https://maps.google.com/maps/contrib/104341935538911035576"">A Google User</a>'], 'photo_reference': 'AUGGfZlbtwmRvnBeT4BrQvsB5X51q0CBftfNz3emQ1JsUPcOOVpwi8spSqGj9Lqz-D-SjniZgA6ZtkgSXsAHiTJJAmcJTv48GH4JGbjbfpe6fpnS-kYAfh-7rwtn8FJSxLKmQCcwVVz7ibyVKX46mjHNWZS7kxDfBXjOFxOEdn8R47RogqYF', 'width': 3264}]",-6.4584032,107.580251
"HGRV+8C, Tanjungrasa Kidul, Patokbeusi, Subang Regency, West Java 41263, Indonesia",Spot Hunting Tanjungrasa,ChIJA7LPVqxtaS4RiEU_phJAQB4,4.8,"['tourist_attraction', 'point_of_interest', 'establishment']",17.0,"[{'height': 3120, 'html_attributions': ['<a href=""https://maps.google.com/maps/contrib/109980427079673638341"">A Google User</a>'], 'photo_reference': 'AUGGfZlffcViaiy9ArygO4et5efCGDxRr6Cr7XISjPI7Pb1YSFIauRe7bgqFHujXAC1vzRCYMsXtcnI1ziYf-v7rYqSR1LXA6z-ZTfAoZ6JYjwfsNLsiEsZ2QirHK0pYWZvGaVhc2RaAh-7lsgKPKgw4GhIM2uxYLRjl5C1rc5LUUY9EbNr6', 'width': 4160}]",-6.409204099999999,107.5435503
"GJJR+RVX, Caracas, Kalijati, Subang Regency, West Java, Indonesia",Pemancingan Syariah,ChIJOUVgPDUVaS4RvKlHFF3rMrE,5.0,"['tourist_attraction', 'point_of_interest', 'establishment']",1.0,,-6.4678928,107.6422488
"8MM2+93X, Jalan Raya, Dayeuhkolot, Sagalaherang, Subang Regency, West Java 41282, Indonesia",Cimujah Valley Eco Park,ChIJ-beuF7cYaS4RPmk_hRL62ww,4.4,"['tourist_attraction', 'point_of_interest', 'establishment']",27.0,"[{'height': 1840, 'html_attributions': ['<a href=""https://maps.google.com/maps/contrib/100728297555184836037"">cece winarto</a>'], 'photo_reference': 'AUGGfZlkx8VmnVNXBw9EdwDdN_xRZcybYHdPcOiHX8eICYDvohbuEnOkVet3RwsUR7_WsbMepNjSbDw5dkM0MHu3CV_433JCQYqpjowRACD9PS6D2LCxat9YFhVV3BkcGNvBH1ZUvZ2FhHvW_Q4-q1ZSMUe_yuJB2xMYANachj_Zyzi3EGHS', 'width': 4000}]",-6.6665249,107.6502304
"Jl. Sagala Herang, RT. 11/14, Sagalaherang Kaler, Sagalaherang, Kec. Sagalaherang, Kabupaten Subang, Jawa Barat 41282, Indonesia",Water Tourism Nature Parks,ChIJL3pIn68YaS4ROmBa5Qgf8-s,4.2,"['tourist_attraction', 'point_of_interest', 'establishment']",996.0,"[{'height': 4160, 'html_attributions': ['<a href=""https://maps.google.com/maps/contrib/100118494528191866085"">Nurul W</a>'], 'photo_reference': 'AUGGfZnBxh9Po3qAPV7AQAFeGfiQSdkQPsrcHQI6gWNSVr92edACFsOSdQXp-ZQqtupHjtJhZupYH6cSZz7yeQiDHT20xgzAm1XnX9BGrHyWblioCsfb3Fg9gwHdSWpBPodhB2Ca1psPqNFs-KbiitlcDCnkFgKK8Rt5M_yEroi2VX7LHZa_', 'width': 3120}]",-6.6751239,107.6597852
"Unnamed Road, Jalupang, Kec. Kalijati, Kabupaten Subang, Jawa Barat 41272, Indonesia",Curug Luhur,ChIJK1oJVqsXaS4Rw9X1KsiTXRU,4.6,"['tourist_attraction', 'point_of_interest', 'establishment']",7.0,"[{'height': 4000, 'html_attributions': ['<a href=""https://maps.google.com/maps/contrib/108599222170365282519"">Iin Solihin</a>'], 'photo_reference': 'AUGGfZnSQwp2C35tpZMzBBQhc8iHWqpPxuDB9q08rjrsv0kZd7KkFD4HaHl448IXe0yjum7L_bX4De8gTqcoLj1Ot1M7NymtwlLMSGDYTu8h0JgJWEJcSGBxANmNBgPP03k2hKsEfdOx97Vpq7FsGCgrH2PRQLZ7o9ClavtIcvcWQTRNvODu', 'width': 3000}]",-6.5400882,107.5969417
"8JMV+6HX, Dayeuhkolot, Sagalaherang, Subang Regency, West Java 41282, Indonesia",TAMAN WISATA ANGGUR SP Grape,ChIJlUK3m2MZaS4R_Z8lcCbKI2A,4.5,"['tourist_attraction', 'point_of_interest', 'establishment']",58.0,"[{'height': 4000, 'html_attributions': ['<a href=""https://maps.google.com/maps/contrib/108816200457266133957"">Dedi agrospora Dedi Agrospora</a>'], 'photo_reference': 'AUGGfZkSM4EMpHl_wh6F7GUZq0HwHMs1u-2e_p8CBNSd6b-mYdJJNcer2Wil8F11mflsJslCsLTs01vW6Gt0kQQBg5_JFfHrbXL5D171fJW2c_6ApNhH1HIG1uG8sPDNmsfbHdq7bTK_edWqDYbBs0q8KYsc71acTdWVQokTRzMsFyq0uLDV', 'width': 3000}]",-6.66697,107.6441833
"Kp. Cigorowong, RT.10/RW.03, Dayeuhkolot, Kec. Sagalaherang, Kabupaten Subang, Jawa Barat 41282, Indonesia",Cikahuripan Cigorowong,ChIJyRtfZwAZaS4R5r11vSzubvI,4.7,"['tourist_attraction', 'point_of_interest', 'establishment']",10.0,"[{'height': 2250, 'html_attributions': ['<a href=""https://maps.google.com/maps/contrib/100683653827783793344"">Vahn Aguztyans</a>'], 'photo_reference': 'AUGGfZl-W1jLcDIhRaif09rOtP82haSUH4_O9q-3W79k9mdZxPwucwKic8mc9Nqpm_bP8CGeRa-gsX01KGvpkXsDmuAsvFZeevkjwg7FP8w-TRl5jIzzToa9UExM94_Sl0IoGvcxdWx6stC7PrGZnuggZyO8KNE8ZeuaWhCRDsuQjROrQJyt', 'width': 4000}]",-6.6795735,107.6341966
"Kp nagrog, RT.02/RW.01, Kertamukti, Kec. Campaka, Kabupaten Purwakarta, Jawa Barat 41181, Indonesia",Al Hidayah Agro Estate,ChIJbVS5W8oTaS4RLMNI8e6aXr4,5.0,"['tourist_attraction', 'point_of_interest', 'establishment']",1.0,"[{'height': 3024, 'html_attributions': ['<a href=""https://maps.google.com/maps/contrib/112522128477931390967"">A Google User</a>'], 'photo_reference': 'AUGGfZlVRn_MRV7Zq71ZnysrijyOwkYIzvN0kUeHiJznb4eIYq56zzvTATVwRLRt_86k9Wde-Z6exsTNoo7GnRgJhyC1V6t93gYhKx-yTNbmk8xRFGz5IKf5b_k--9n0kuGZMIqKrX0vjN1rBcKrlOlyzNjyyu8lFkqv-SEJlmHYgvkG0x-V', 'width': 4032}]",-6.4750248,107.5304418
"Jl. Brigjen Katamso No.18A, Dangdeur, Kec. Subang, Kabupaten Subang, Jawa Barat 41211, Indonesia",Planet Waterbooom Subang,ChIJWbJgyI48aS4Rz5giqf9QOw0,4.2,"['tourist_attraction', 'amusement_park', 'point_of_interest', 'establishment']",1710.0,"[{'height': 2976, 'html_attributions': ['<a href=""https://maps.google.com/maps/contrib/107994456081282341456"">A Google User</a>'], 'photo_reference': 'AUGGfZk6-XokpFDhA1QyCxrHf39pWg0b8f-WassRx3-9mC-vssMDH_BJ0tvyCyyJn7K377JKns4K-QYOIa7hQqbkTSRvqG5MxiSfBThZlcslhaxorlHgi-nlWuWR49sIDjuQCk8GjN6Bnn8XvGWiswDH7tfYrTwY7J-6Hc1DI8fg2Fiuds6n', 'width': 3968}]",-6.5585676,107.7483226
"Cicadas, Sagalaherang, Subang Regency, West Java 41282, Indonesia",Taman Wisata Air Rumah Kayu (TWARK),ChIJL0PH0AkfaS4R-iXePTRXIes,4.3,"['tourist_attraction', 'amusement_park', 'point_of_interest', 'establishment']",99.0,"[{'height': 2340, 'html_attributions': ['<a href=""https://maps.google.com/maps/contrib/101722339634490967174"">Dafie Buthlan</a>'], 'photo_reference': 'AUGGfZlpfRms98mQ2WXKPMz0j3-8ydJlbPaBK9l0Iv-CKhq8fvxZdQEqCtfVnLn7b0Nl-3BbVh0_WHm2Y6jM6uQnB3TZxtR3I5bOj8wOpIlXR3NMcxl5tQ1q2s2WyCfmkwaBlOg5e9X0dG6MubtE2UZWLZf9NOMa3Q3agfvsKw9_FObBtEHx', 'width': 4160}]",-6.7212953,107.6367816
"Batu Kapur, Curugagung, Kec. Sagalaherang, Kabupaten Subang, Jawa Barat 41282, Indonesia",Wisata Alam Batu Kapur,ChIJVYhQzYEYaS4RzYgUvNijuGU,3.7,"['tourist_attraction', 'point_of_interest', 'establishment']",258.0,"[{'height': 2508, 'html_attributions': ['<a href=""https://maps.google.com/maps/contrib/105809642553061551340"">A Google User</a>'], 'photo_reference': 'AUGGfZkqrYhZ4O6D6RQaypSWOCRga3J5onBhP8CTjWoSA7c_ZrgKGVQVBDULM0vXfVcXfQ7yBaQdEPwFXIOxwEo6W3fHgcmhC4FzReexr2E1XVH3albdznDDSDUprhQafUVvl4Pdh7Q4Ef-Ae9lQsVFMs58MTIOm8UQ6UBQCl-iQUqaUnTKe', 'width': 1672}]",-6.6401734,107.668365
"West Tanggulun, Kalijati, Subang Regency, West Java 41271, Indonesia",Kolam Renang Tirta Jaya,ChIJX9WQqkkWaS4R5TADUueIGbU,3.8,"['tourist_attraction', 'point_of_interest', 'establishment']",58.0,"[{'height': 3000, 'html_attributions': ['<a href=""https://maps.google.com/maps/contrib/108416319015015693203"">Kolam Renang Tirta Mulya</a>'], 'photo_reference': 'AUGGfZl0aUEDEhKnFIeHU-IiRP2sW3X9NiwXFxzGHhUYNw_TUWsvBA3lB_KgydLggm4EWth39GNkIwTqZueVnnX5sOx0b3wnGYu3ONW9IiiM9dXqWP6ojKL_oOwGegy0G4dA-BVyzbL6R8Wf0kJIF4jwj3eAL6M1Z8h4ZowYVfyxeQI7u82a', 'width': 4000}]",-6.5498056,107.6422967
"CHW9+28C, Cimayasari, Cipeundeuy, Subang Regency, West Java, Indonesia",Cimayasari,ChIJY6COLgARaS4R1BM4nI1MIPQ,0.0,"['tourist_attraction', 'point_of_interest', 'establishment']",0.0,,-6.5549332,107.5682677
