formatted_address,name,place_id,rating,types,user_ratings_total,photos,lat,lng
"Unnamed Road, Lumika, Kec. Bonehau, Kabupaten Mamuju, Sulawesi Barat 91562, Indonesia",Hanan city,ChIJW0uh5y_1ki0R6GzwmGCQ0Mw,4.0,"['tourist_attraction', 'point_of_interest', 'establishment']",1.0,,-2.4763992,119.3741617
"FF53+PM, Kondo Bulo, Bonehau, Mamuju Regency, West Sulawesi, Indonesia",Salubanga,ChIJh_95HHRZki0RiykvaqWWAvw,4.6,"['tourist_attraction', 'point_of_interest', 'establishment']",9.0,"[{'height': 2016, 'html_attributions': ['<a href=""https://maps.google.com/maps/contrib/108446375698595433414"">A Google User</a>'], 'photo_reference': 'AUGGfZmNXJ8c59TYEtcaWxLne2X1dOWjaDb1MeMe6-RTRuQ0hHwyPloYh3J40MmIYahjmaYtD5hvgUAqLwOnOlb4VXhGl7rCfNnRvWUsrD2i576sDLFblMds4oqTuAEJP5FzCUl-o4bRDvCtpA3sl-C7nA-ef-ETtW8wySyGnqpnReqyn484', 'width': 4480}]",-2.5406658,119.4542733
"9534+MG5, Jl. Poros Mamuju-Mamasa, Keang, Kec. Kalukku, Kabupaten Mamuju, Sulawesi Barat 91561, Indonesia",Bukit Peca,ChIJYxH-Iw_jki0RKxFZgDRBa5I,3.3,"['tourist_attraction', 'point_of_interest', 'establishment']",3.0,"[{'height': 720, 'html_attributions': ['<a href=""https://maps.google.com/maps/contrib/108279594928117163556"">A Google User</a>'], 'photo_reference': 'AUGGfZkEFeXSNCyDH0_iIWFKwbhDx8qU9kgCQzkkO3gnUNJoHJNhKeqAxMjU5zm1TeT-NTjVILKllK5hLfg6p2HUclVxAFaKKIvcuutZ8YJFM4GthpiZgVId5L7tVYerNstKGAYvn3yKu0dyVC2LYbnA7ilC7hm98n5Y4V7zcyqGKz14OB3Y', 'width': 720}]",-2.6458605,119.1563585
"GFRJ+2WP, Kalumpang, Mamuju Regency, West Sulawesi 91562, Indonesia",Wisata Tanete Paken,ChIJLdrbLABfki0R5FVzQ3x-EV4,0.0,"['tourist_attraction', 'point_of_interest', 'establishment']",0.0,,-2.4599122,119.4823278
"949R+484, Unnamed Road, Uhaimate, Kec. Kalukku, Kabupaten Mamuju, Sulawesi Barat 91561, Indonesia",Air Terjun Malta,ChIJ8y1LIf3lki0RW-xKVAmNQmw,5.0,"['tourist_attraction', 'point_of_interest', 'establishment']",1.0,"[{'height': 4624, 'html_attributions': ['<a href=""https://maps.google.com/maps/contrib/104385403177276611056"">A Google User</a>'], 'photo_reference': 'AUGGfZn6ZqW5ZhbN8fo8NQI38U-1NkuZR8NSxOzBdurFOJKf82pduFFSpKSupB0ieJ1_78iZ6SO51aRGmoVs1SaNpC4KX9P3Sil1pMuRRzzOMzwLWHNBZPvVT9a16xeEWS1ybUPPi590THjJYvkT61KhZSyEcQAb3GGbNcYWOZfOID9InoPG', 'width': 3468}]",-2.6322421,119.1408233
"66WP+CCF, Tabulahan, Mamasa Regency, West Sulawesi, Indonesia",Tabulahan,ChIJ5-rIWgADky0RiTIKZOYNK3s,5.0,"['tourist_attraction', 'point_of_interest', 'establishment']",2.0,"[{'height': 540, 'html_attributions': ['<a href=""https://maps.google.com/maps/contrib/103129972015510739354"">A Google User</a>'], 'photo_reference': 'AUGGfZmrh8Gikj8xe88vwz-0Nyr03hNkTV7IlFkyYhoKnSXlFHxWqvOCWKWgA7yOFaK54Qr_dhsPH9jDsjZWMNo5O3GP27o9fBvhoRCYm_lS7-oOyHLxBJwlb_5tG_wTr1n0QPz9rxqVtYH9ssYKFF7Z_kD4Aju3eRZgDgZznEepmbbKOvE', 'width': 720}]",-2.7539348,119.2360494
"767F+FQ, Periangan, Tabulahan, Mamasa Regency, West Sulawesi, Indonesia",Air Terjun TAMELLAUTU,ChIJW2r5IgAdky0RMeq3vXiGYg4,0.0,"['tourist_attraction', 'point_of_interest', 'establishment']",0.0,,-2.7350824,119.2238816
"767F+FQ, Periangan, Tabulahan, Mamasa Regency, West Sulawesi, Indonesia",Air Terjin Tapeduri,ChIJyz8ZgE8dky0R8dfxJNrb1XM,0.0,"['tourist_attraction', 'point_of_interest', 'establishment']",0.0,"[{'height': 4160, 'html_attributions': ['<a href=""https://maps.google.com/maps/contrib/100494713847845864714"">januarto marrabang</a>'], 'photo_reference': 'AUGGfZlzpdKr0oVAHjDJoYHkdufU2G-Xu9TQ74Kgha_7ZjJa6dnz1U6e9gs1u00JvE4RNOAlJYBgYchCMr_LwArjRRfAylh4Tpkgh36pTIfKjXu1GfiiRcX7VJvS0CpiG7UTYRq_H3veGHBMvnNsqLj-xrvH3cI66m-BRhySJnGvaBVXChvu', 'width': 2340}]",-2.7363399,119.2244137
"C3HX+PRF, Sondoang, Kalukku, Mamuju Regency, West Sulawesi 91561, Indonesia",Air Terjun Sondoang,ChIJnUe9QSnmki0Ruj04uPRr-kM,4.3,"['tourist_attraction', 'point_of_interest', 'establishment']",25.0,"[{'height': 1900, 'html_attributions': ['<a href=""https://maps.google.com/maps/contrib/106320924738578779514"">Nanang Temanggung</a>'], 'photo_reference': 'AUGGfZkK4uL-M-dxVhsU-8vFYtWk2xEM5Gb7SaWYlFNU6aNmWbRlDaatiF5hhQyo5nA5FUw5Z0_AUtCrzVPVNPWY7kPxoZp2Qh9Esf4NfDV-a1QaUbIT-FAn5I8qd2YrE7Bvu3muXlvzumZsiFakD_ZhyYr6Pijig-W_njcXwq7IRxuN8A7I', 'width': 1520}]",-2.5706895,119.0995394
"7687+7V9, Periangan, Tabulahan, Mamasa Regency, West Sulawesi, Indonesia",TAMPAKURRA,ChIJq8VJegAdky0R9EsMVE2yb_0,0.0,"['tourist_attraction', 'point_of_interest', 'establishment']",0.0,,-2.7343345,119.2147236
"Q7CH+3X, Bojo, Budong-Budong, Central Mamuju Regency, West Sulawesi, Indonesia",Sarang bajol,ChIJNyOePACFki0RKr1yxAZqRig,0.0,"['tourist_attraction', 'point_of_interest', 'establishment']",0.0,,-2.2296472,119.2810887
"Pammulukang, Kalukku, Mamuju Regency, West Sulawesi 91561, Indonesia",Limbong Ka'daro,ChIJrzDeKV3nki0RLJ9sHgm6jDs,4.8,"['tourist_attraction', 'point_of_interest', 'establishment']",4.0,"[{'height': 1440, 'html_attributions': ['<a href=""https://maps.google.com/maps/contrib/104105090998726403567"">Moh Iqbal Iqb</a>'], 'photo_reference': 'AUGGfZkXEc2k8fiTYDOWfa7kDhiX24hoRSXA0NfVG98TOb0fhNUNRjfViBM0YF--Syfv0cVvxPmEeYWBmt52YkdgQqe_Xd8iHgnr2F2ON1YCaQdxBDJNi-SroTOg7NWd-rk6nicW7cYEtB1gt_WtSqnv5oEq6JQvN9YCwuKjyTZhJ_kVZtjp', 'width': 2560}]",-2.6097881,119.0583285
"8579+7R5, Lakahang, Tabulahan, Mamasa Regency, West Sulawesi, Indonesia",Puncak tantolem,ChIJM1mENwDjki0RcufrtnJiMTk,0.0,"['tourist_attraction', 'point_of_interest', 'establishment']",0.0,,-2.6868724,119.1696047
"J766+7G, Kalonding, Sampaga, Mamuju Regency, West Sulawesi 91563, Indonesia",Air terjun batu karoppa,ChIJBRfCo5GNki0RiR1eEeVYiJA,4.7,"['tourist_attraction', 'point_of_interest', 'establishment']",3.0,"[{'height': 4000, 'html_attributions': ['<a href=""https://maps.google.com/maps/contrib/102796538947338234230"">A Google User</a>'], 'photo_reference': 'AUGGfZnM-hFIeY_LxqOHyiJDjl1t6-nmICuy3GcUrOjCdsCESRwqqIv_AfBfM7h-623_NbOaU_QaeWKRwjsUPXE0eVE_RHmop9_KuiFLoch9Nyz63XARMAmkP46Snh2zqCCO4kqDxq0_ivM10-fIIJzolCP0gA_oOfq6330iJ5Z6cOT5FYx8', 'width': 3000}]",-2.3893214,119.2613547
"M8VH+HV, Rantemario, Tommo, Mamuju Regency, West Sulawesi, Indonesia",Nila babon,ChIJySqtHQCJki0R9t8YuTazzUc,0.0,"['tourist_attraction', 'point_of_interest', 'establishment']",0.0,,-2.3060043,119.3297068
"P84F+HX, Rantemario, Tommo, Mamuju Regency, West Sulawesi, Indonesia",Kebun durian made,ChIJ-Q96QwCPki0R6Qk2c187WW4,0.0,"['tourist_attraction', 'point_of_interest', 'establishment']",0.0,,-2.2935554,119.3249965
"G485+HCJ, Kabuloang, Mamuju Regency, West Sulawesi, Indonesia",Pantai Kabuloang,ChIJUU-10lvrki0Rn3zgG0Q7j9w,0.0,"['tourist_attraction', 'point_of_interest', 'establishment']",0.0,,-2.4835302,119.1085064
"P76C+J3R, Buana Sakti, Tommo, Mamuju Regency, West Sulawesi 91562, Indonesia",Kubun durian lokal,ChIJEzQZEACPki0RgKDqXfUiz5g,0.0,"['tourist_attraction', 'point_of_interest', 'establishment']",0.0,,-2.2883912,119.2701296
"H46V+RC2, Papalang, Mamuju Regency, West Sulawesi, Indonesia",Lelo papalang,ChIJY2r7GADtki0RztShRAUEuTY,0.0,"['tourist_attraction', 'point_of_interest', 'establishment']",0.0,,-2.437976,119.143501
"Q9X6+42F, Pasappa, Tanete Kalasoppeng, Mamuju Regency, West Sulawesi 91563, Indonesia",Limbong Dewata,ChIJu0bF1lGBki0RCUCSeL-wfKQ,0.0,"['tourist_attraction', 'point_of_interest', 'establishment']",0.0,"[{'height': 1280, 'html_attributions': ['<a href=""https://maps.google.com/maps/contrib/108302115413961501917"">A Google User</a>'], 'photo_reference': 'AUGGfZmETJogYi2i9c2e1i28NdacToAIHz_ujMbM0FpddffiMlQ2rM2P1FkF8rdZUc4VrolplYqqnVGWmyq4su8DCACcXhD10RGj59aZsGNp8mgB1LTF-eaqEk_S1rhCu0Fhl-m59PBHf-ljebrG7wvz5OdBIHt2Q6NW1KE6ij5RKcHTmhXZ', 'width': 720}]",-2.2021772,119.3600339
"G33F+Q6, Kabuloang, Kalukku, Mamuju Regency, West Sulawesi 91561, Indonesia",Tanggul Pantai Salupompong,ChIJEffymHXrki0Re6IAYUETLsY,5.0,"['tourist_attraction', 'point_of_interest', 'establishment']",4.0,"[{'height': 4000, 'html_attributions': ['<a href=""https://maps.google.com/maps/contrib/117507558103483606803"">A Google User</a>'], 'photo_reference': 'AUGGfZmBHxlOPkx5IJIbONNHHiytzVuzwCfVlyco-95kYz5AeTjRMEuCZ2hczfg1QnsZEToO85O_nLR2Zajo8NEwjNCCjNjw57Ntu1wCASVhf0ejVQJbDZh-5RX1GbGrMXFCaJmO5wV4gNKNi_LlWgKPvPjIuJjg65B-QMjqbUpd5E6C3DjJ', 'width': 3000}]",-2.4956105,119.0730244
"F72X+Q25, Bonehau, Mamuju Regency, West Sulawesi 91562, Indonesia",Home marsan,ChIJcSG_RwDxki0Re_uo52UgmP4,0.0,"['campground', 'park', 'lodging', 'point_of_interest', 'establishment']",0.0,,-2.5485312,119.2968383
"827X+4X4, Sinyonyoi, Kalukku, Mamuju Regency, West Sulawesi 91511, Indonesia",Negri Atas Awan MARANO,ChIJ8zJvKBrhki0RCnr7ZrPGvrs,3.7,"['tourist_attraction', 'point_of_interest', 'establishment']",10.0,"[{'height': 720, 'html_attributions': ['<a href=""https://maps.google.com/maps/contrib/102040655605777223058"">Faisal Malik</a>'], 'photo_reference': 'AUGGfZmaieEJSI96XtF3xdzIsI0WMzJldjAajS1UTxa-eX5KBImg5EN2gQ28QZ-hrG8rqVmUX7r-9wop-FbaifyHlY-1yhhEMrOBSXgh4ms7NrPKZGly-OQ7FzVrB68IDBJZaEPiYUHgQ8ScBxXxshQTP86piVq1l9d0cFs2b1JYiBqQvBXi', 'width': 1280}]",-2.6872448,119.0499682
"65H8+Q94, Kecpalliabu, Malatiro, Kec. Tabulahan, Kabupaten Mamasa, Sulawesi Barat 91373, Indonesia",Airterjun podiba,ChIJM-dBOZkdky0RTgvPBNUWmDQ,4.8,"['tourist_attraction', 'point_of_interest', 'establishment']",4.0,"[{'height': 4032, 'html_attributions': ['<a href=""https://maps.google.com/maps/contrib/110642338889648590012"">Ariyadi Arief</a>'], 'photo_reference': 'AUGGfZkO9AwEKIgmGGjFk8kqwFMyox9Ks-RuWqXbY1HaqCTfXw1h0rKCMioXfnabiZOTZOJ2VIlak1tSDdY_mc8LGMseLrZuI0_ihUHyc_86a_pJKnCuI9rGdr4n3z3Dy5WWg63pIns1rJ79UDFm6xTi_ZpyglxGbeL_Q_VvuISofnEcpMlH', 'width': 3024}]",-2.7706095,119.1659449
"G83V+CQ9, Tamalea, Bonehau, Mamuju Regency, West Sulawesi 91562, Indonesia",JEMBATAN BONEHAU,ChIJ6V0kxaP2ki0RYnQsC8oBuN4,4.6,"['point_of_interest', 'establishment']",5.0,"[{'height': 774, 'html_attributions': ['<a href=""https://maps.google.com/maps/contrib/109753255175563048252"">Darmansyah Azis</a>'], 'photo_reference': 'AUGGfZnbx1ImVGiKamf83s_mpMY3yG7WrNwzf5FDlHXbWme0Qr6-vk3G5A3Ax6VgLhT1Ly8woj-ccsWAv1SuskXKQpVsy0ksInmomj4jJBgcRxvAxjmK3X2d4-5i1myYGlYYq3yh9K6ndNe3t4nicClff1vj1-A-3bFHfCCpDf2U4cexHv91', 'width': 1032}]",-2.4964714,119.3444861
"J6CX+XG, Kalonding, Sampaga, Mamuju Regency, West Sulawesi 91563, Indonesia",Karanissang,ChIJGxMBke2Nki0RuTSWNV1m2NM,4.0,"['tourist_attraction', 'point_of_interest', 'establishment']",1.0,"[{'height': 3120, 'html_attributions': ['<a href=""https://maps.google.com/maps/contrib/115026922321848650332"">ali Limink</a>'], 'photo_reference': 'AUGGfZkO-ShdUTgrFGQATf6X8eQcRtyygp4z3Sg-ny63VWDrYHJf9wu5EBtQ8fFOqAcXGu72dgq_WTrDB_dL7aNX0iQmJLljVNzZz2FXc7ZCOazBbQXOcSZdC3KWVIQc1y3KlzoIR95zJyn1mDgSi9ZAa-1ZORNKHvUiJ7Ekn1VhyrOCuqnY', 'width': 4160}]",-2.377545,119.248836
"CJ28+HQ, Siraun, Kalumpang, Mamuju Regency, West Sulawesi, Indonesia",Ratte Kaseong,ChIJXZ1xcABPki0RqNkH1lXA_5g,0.0,"['tourist_attraction', 'point_of_interest', 'establishment']",0.0,,-2.5985762,119.6169164
"G4PG+5V5, Unnamed Road, Belang-Belang, Kalukku, Mamuju Regency, West Sulawesi 91561, Indonesia",Pantai Tae Manu Belang-Belang,ChIJB0Lzb5_rki0RNU4LRZWFyJI,4.5,"['tourist_attraction', 'point_of_interest', 'establishment']",97.0,"[{'height': 5472, 'html_attributions': ['<a href=""https://maps.google.com/maps/contrib/113719206033722865064"">Faisal Reza Sukmawan</a>'], 'photo_reference': 'AUGGfZlSaOaZXJJq5WUuMjRuxh8uMcrHH1pGrba20kwSrtXT0ma6N4R5qlm5MUPUTjdlgEqj4g2EzstccaNX9v5qe0ShhD_qZM6VEDmBRybh1i28EgGsFTArkRFCjM3VCkKrRTcmJ-FrtafQapnxoxBd78_GTm1TpzL4eyqGj7wmaqK0UwKV', 'width': 7296}]",-2.4646198,119.1272315
"P998+87F, Kakullasan, Tommo, Mamuju Regency, West Sulawesi, Indonesia",Wisata batupapan,ChIJ8cXdfwCHki0Rp27OzbokZlw,0.0,"['tourist_attraction', 'point_of_interest', 'establishment']",0.0,,-2.2814763,119.3661617
"45GM+4H7, Dusun Alla'salu, Salutambun Tim., Kec. Buntu Malangka, Kabupaten Mamasa, Sulawesi Barat, Indonesia",Tanete Mokkom,ChIJH-dHUQARky0RnGl16Gl0QZw,5.0,"['tourist_attraction', 'point_of_interest', 'establishment']",1.0,"[{'height': 3120, 'html_attributions': ['<a href=""https://maps.google.com/maps/contrib/103390278924161621929"">A Google User</a>'], 'photo_reference': 'AUGGfZk38R71BPqO9CmFpgz-nUlf2zEk_n64LjAEkUFfVJaooi9BJp_zqiURl8lHygfPgzSdCFHHEobC8F4pPIggpj2NE7L0kRgQghRTcJg_Gz2mFhazhQAgN2RXRnJca90O53RZNVdA8OKuw1TqVUyH9ZGnN8Th7Tw4rLIlaNcq8CfWqzDe', 'width': 4160}]",-2.8747223,119.1839308
"Q78J+63, Malino, Tommo, Mamuju Regency, West Sulawesi 91563, Indonesia",Mancing santai bosku,ChIJ5V9wfnuFki0RJ0ptWlHYhOg,4.0,"['tourist_attraction', 'point_of_interest', 'establishment']",1.0,,-2.2343911,119.2801584
"J48R+5CV, Dusun Tawaro, Bonda, Kec. Papalang, Kabupaten Mamuju, Sulawesi Barat, Indonesia",Pantai Tawaro,ChIJvcCeWB6Tki0RDaXpt8h5ZbI,5.0,"['tourist_attraction', 'point_of_interest', 'establishment']",1.0,"[{'height': 2448, 'html_attributions': ['<a href=""https://maps.google.com/maps/contrib/102066157518521502792"">A Google User</a>'], 'photo_reference': 'AUGGfZkN6oWLyrG2SOoCkF6Y2zYdcrapQueijJnvuOyUXQwkTq1oxhB4msod-XS9Sfb6cQecDmY_v3_RKUnYu1vIUSYsTAwgrbxvUqGuka3q1Cxc-MFZC0ieX6WHWLxrg6DgHA5tlR0JFIuAUfAjFVlhT7J_dFCdBleicue0KMD2g2B4_plc', 'width': 3264}]",-2.3845145,119.1410567
"J4QP+H8, Bonda, Papalang, Mamuju Regency, West Sulawesi, Indonesia",Pantai tawaro ujung,ChIJaZDM3GGVki0Rp-RzZhsvybs,0.0,"['tourist_attraction', 'point_of_interest', 'establishment']",0.0,,-2.3610102,119.1357744
"39R9+8C, Mambuliling, Mamasa, Mamasa Regency, West Sulawesi, Indonesia",Tanete Pa'Tondokan,ChIJFYgKg7UJky0RYQUgBSY9L7g,5.0,"['tourist_attraction', 'point_of_interest', 'establishment']",2.0,"[{'height': 2448, 'html_attributions': ['<a href=""https://maps.google.com/maps/contrib/102395603906323035102"">A Google User</a>'], 'photo_reference': 'AUGGfZn1rMbPuzPTqBC-VJVoPwpdAlPFDCpqDhpu9LlJe6RmNsvLbe5atdOdlwbZp8RdEkogoGfD6lzv__an4RxxS8UWg_4y_zS9qSGcdDTOAa0hltrcbf8EF7o9s9wmEgZpscELvb-eZcsfr2O-smvYJCFK2xsoUIhq_4qpDoFf_ICJ4_Vk', 'width': 3264}]",-2.9091947,119.3685402
"G4HC+MJW, Pulau Taimanu, Kec. Kalukku, Kasengkaang, Sulawesi Barat, Indonesia",Rumah ambatron,ChIJE4VhXwDrki0RgoAnxE7Of2E,0.0,"['tourist_attraction', 'point_of_interest', 'establishment']",0.0,,-2.4707607,119.1215862
"P4QR+PM2, Kombiling, Pangale, Central Mamuju Regency, West Sulawesi 91563, Indonesia",Pantai manohara,ChIJfbLCRQCbki0RFo9OBGN1x5Y,0.0,"['tourist_attraction', 'point_of_interest', 'establishment']",0.0,,-2.2607293,119.14164
"56JC+Q54, Ranteberan, Buntu Malangka, Mamasa Regency, West Sulawesi, Indonesia",Air terjun maksahuham,ChIJr2FicgAbky0RjE-YGnvVp9w,0.0,"['tourist_attraction', 'point_of_interest', 'establishment']",0.0,,-2.8181135,119.2204548
"M77Q+M9, Saludengen, Tommo, Mamuju Regency, West Sulawesi, Indonesia",Air terjun salumadingin,ChIJnWvZKICPki0Rz2wnmrtfHkU,0.0,"['tourist_attraction', 'point_of_interest', 'establishment']",0.0,"[{'height': 1691, 'html_attributions': ['<a href=""https://maps.google.com/maps/contrib/107603386918261561114"">A Google User</a>'], 'photo_reference': 'AUGGfZl8HsIEr9MfRCxC9GZOJUOfCsuI0MmcauqsabcSTtakiu4Z8L0jtU9GVGNAkmzX9CGRVLfbdSqa1rAaKt7UCUkvJWfKJNJVey6caQRN1nuUzgbxPHzITPV3Y97-3qaoGsK509iOHTzZYJdPyGq5QdCcYYTg9wiZ6TnSkWi3_g7XDEdJ', 'width': 699}]",-2.3357888,119.2884595
"97G8+8Q4, Dusun Lumiko, Banuada, Kec. Bonehau, Kabupaten Mamuju, Sulawesi Barat 91562, Indonesia",pekuburan dusun lumiko,ChIJ8fLfg677ki0RzSZBlms8WrY,0.0,"['point_of_interest', 'establishment']",0.0,,-2.6242289,119.2669438
"H4XR+G89, Dusun PANIKI, Bonda, Kec. Papalang, Kabupaten Mamuju, Indonesia",Pantai simfoni,ChIJkSLjI16Tki0RbzHkJEc4jEo,5.0,"['tourist_attraction', 'point_of_interest', 'establishment']",2.0,"[{'height': 1280, 'html_attributions': ['<a href=""https://maps.google.com/maps/contrib/100943215876467732496"">A Google User</a>'], 'photo_reference': 'AUGGfZl74DYN4jP8qJqeMPD0tWQ5tY3bMlaUsmVMk9l0IW-qxmLA4XCixabnw6IaIhw3p087WGJJ3nsCVjmlGyxVrEx_6vneBgsV1WMPlrq-H9Je0p9SKlxsKhit3N_hzeWCKOo-YUVDFJEty7nxFm-Po3WHIiQVoCoFWqEawdzVQboYExdM', 'width': 720}]",-2.4012129,119.1408702
"39JF+VPG, Mambuliling, Mamasa, Mamasa Regency, West Sulawesi 91362, Indonesia",BANUA LAYUK LOKO - MAMBULILLING,ChIJmfgAvrQLky0Rv7rDvQ3-TOU,5.0,"['tourist_attraction', 'point_of_interest', 'establishment']",4.0,"[{'height': 1472, 'html_attributions': ['<a href=""https://maps.google.com/maps/contrib/112841709036534145685"">Andereas Ubro</a>'], 'photo_reference': 'AUGGfZmShuvnDxTqjAxub-za-ZhCyC4LiOIEVE33oGWskCgnTDMH3XvloMzm6fo3qpGKddS7cWSUOnYQPKmC-O7yNYEkZXmeTL1NmUVeez63-szwgCobFRiNmNAqX0MqDrWBP2AclJGvUlreeSXGtrXTt0All3rrJ7S1wIGL4nUIC2pKuCj3', 'width': 3264}]",-2.9178221,119.3743165
"R93P+G7, West Leling, Tommo, Mamuju Regency, West Sulawesi, Indonesia",Hobby mancing,ChIJg02wdQCBki0RIc93z-uH0pk,0.0,"['tourist_attraction', 'point_of_interest', 'establishment']",0.0,,-2.1962244,119.3856429
"P4WV+R9, Kombiling, Pangale, Central Mamuju Regency, West Sulawesi, Indonesia",Pantai desa kombiling,ChIJzQKyvPSbki0R-sV_V4s8SD8,0.0,"['tourist_attraction', 'point_of_interest', 'establishment']",0.0,,-2.2528989,119.1433818
"R98W+H4, Saloadak, Tobadak, Mamuju Regency, West Sulawesi, Indonesia",Perkebunan Kelompok Tani Kahar Musakkar,ChIJH1oC-zaBki0RxrrWujVf_n4,5.0,"['tourist_attraction', 'point_of_interest', 'establishment']",1.0,"[{'height': 1080, 'html_attributions': ['<a href=""https://maps.google.com/maps/contrib/104160465237208966556"">A Google User</a>'], 'photo_reference': 'AUGGfZlKk90fGId3w2UL19HaAIDUKrJfCK3s8lkL6VSVW0lYXPAvcwos1W5GZ8x3oAkK1i1zyTzrcyjuPodXwpJRT5n_MF6qAgUptCwp8qKJiHe_P5xeKndjcDC38NRdFnsCNqZmaG8trDyPCau244xnGqGhk3ra9UamI8Us7h6aZXw3Lt-D', 'width': 1920}]",-2.183598,119.3952543
"Pantai, Kombiling, Pangale, Mamuju Regency, West Sulawesi 91563, Indonesia",Cafe inda,ChIJf9TVmBmbki0RbLLJnW72kfQ,0.0,"['tourist_attraction', 'point_of_interest', 'establishment']",0.0,"[{'height': 2076, 'html_attributions': ['<a href=""https://maps.google.com/maps/contrib/115969327749620698776"">A Google User</a>'], 'photo_reference': 'AUGGfZmqjV4-EFVDe3v36VenKseIQizFsxlNK-IaRYjpfLMKdSgvoD4v1eYxEnEZCidly45D3zyGWGuFA-pP3fzGYFMP1RU8EBD2XoLdYjdsO3SH6DoMDR4LkkYJjUuB_RABD1lqITMY0BRV4O5zjnYPVaJABd_NjQaKJNAbjHYZNFtU9hBX', 'width': 4608}]",-2.2555568,119.1421846
"44CR+RV, Kalabe, Aralle, Mamasa Regency, West Sulawesi, Indonesia",Kebun Dominggus,ChIJjcBmIgARky0R0K5FhP3w6YI,0.0,"['tourist_attraction', 'point_of_interest', 'establishment']",0.0,,-2.8779486,119.1421342
"R5VF+4RJ, Kamansi, Lumu, Kec. Budong-Budong, Kabupaten Mamuju Tengah, Sulawesi Barat 91563, Indonesia",Pantai Kamansi,ChIJBdkiZImdki0RD6z8ymX6VKA,5.0,"['tourist_attraction', 'point_of_interest', 'establishment']",1.0,,-2.1571518,119.174529
"Salumanurung, Budong-Budong, Mamuju Regency, West Sulawesi 91563, Indonesia",Permandian Ziling,ChIJS1E871ydki0RCaMX0tKnZ2g,4.3,"['tourist_attraction', 'point_of_interest', 'establishment']",31.0,"[{'height': 6000, 'html_attributions': ['<a href=""https://maps.google.com/maps/contrib/101788704547150094539"">jusriadi adhy</a>'], 'photo_reference': 'AUGGfZlEhSU9lGZgBbeP95r3fSeOsYunFWmi3bY0YTNfBr1879AUk7j4sRm1tfL2liPUuJg9EWSx3TPLLy5SZ4K73PsheuXYOIpKn-ZZ9ovYTn9URdnjF8Pn9i-bSUx4jA0g5vZMaDUDYdrmna4DTFWwSXn91CJyrxjY1zZeFhdKtGYScjaw', 'width': 8000}]",-2.1782589,119.1970897
"G9CM+V4, Lumika, Bonehau, Mamuju Regency, West Sulawesi 91562, Indonesia",Banua Batang Mappu,ChIJx2oPyKH1ki0R_poiO0GfvNI,0.0,"['lodging', 'point_of_interest', 'establishment']",0.0,,-2.4777526,119.3828689
"45W3+3Q7, Panetean, Aralle, Mamasa Regency, West Sulawesi 91371, Indonesia",DURIAN KABAE,ChIJyxGKEzQRky0Rdo9QaPOcXsI,5.0,"['tourist_attraction', 'point_of_interest', 'establishment']",1.0,"[{'height': 900, 'html_attributions': ['<a href=""https://maps.google.com/maps/contrib/105650407907954688525"">John Tandi</a>'], 'photo_reference': 'AUGGfZk9nSvQxo62bniXApoqL0uWlCU9T_sUynNlW6inSX49vkWr14g2gwKoDZtt5rtodZL0Ni6rf5GS2rM6SZVlZdS-i-rAmU6fVsQM5vy8HzxxeB7JoaZeeEEEZWj_fEvRm64lqNMBUaTX66zACzCYGGwhvzrin3ZoBiBlWYM5O9XjcBfL', 'width': 1600}]",-2.8548409,119.1544152
"39HP+X82, Unnamed Road, Rambusaratu, Kec. Mamasa, Kabupaten Mamasa, Sulawesi Barat 91362, Indonesia",Citol Hill TONDOK BAKARU,ChIJWQ5QCkoLky0RkwjpkWt3npY,4.5,"['tourist_attraction', 'point_of_interest', 'establishment']",68.0,"[{'height': 3000, 'html_attributions': ['<a href=""https://maps.google.com/maps/contrib/100648185893545423383"">Rizky Satya Pradhana</a>'], 'photo_reference': 'AUGGfZlx_qv646Dh2OXI-PQE0tQVDVcEOSWJFtErFMoKnsXjKxhiZpu9zWilnZujsKKp6QT_KsDXw6iaAMVcItSuY4zbF-Hp_f0WR4CKeRDMN7gffcvF0Wkwp3bsw7miBYU4Mhb00xeqyh75-T1ePO4hAJE37f3972wmRXjwzNnf6lFR-6xb', 'width': 4000}]",-2.9201041,119.3857807
"Q4PX+J9, Lamba-Lamba, Pangale, Central Mamuju Regency, West Sulawesi, Indonesia",Area Wisata polo pantai,ChIJW90cOwCdki0R2b_FHl-iIZ8,0.0,"['tourist_attraction', 'point_of_interest', 'establishment']",0.0,"[{'height': 1080, 'html_attributions': ['<a href=""https://maps.google.com/maps/contrib/101165718633876515632"">A Google User</a>'], 'photo_reference': 'AUGGfZkDnzZwJ_AMlfiufQe0dDoRnIw4sW3jiy_oV75OT2qakQvgNTgk0pe01ovRYx_5JAg74T3wIqJSsOZfQQd25PiY7mPOCzaHdoehNSoy6A89CsgEHrsENGTe1crehPc5FNamQc8HA9O7inp1jrAtd73BMXsdDGOJLhs_9BetQCOQYoou', 'width': 1920}]",-2.2134991,119.1483965
"3773+FXG, Ulumambi, Bambang, Mamasa Regency, West Sulawesi 91366, Indonesia",Air Terjun Sambabo,ChIJGcCnBJYNky0RAUmqjHPgyzw,4.6,"['tourist_attraction', 'point_of_interest', 'establishment']",32.0,"[{'height': 3120, 'html_attributions': ['<a href=""https://maps.google.com/maps/contrib/104459371831122629709"">Aldi Anwar</a>'], 'photo_reference': 'AUGGfZmzL1t0J-rG1tFE-yRLVJYpa0NJmi1o-IPgjOKUCURrV8cFm0sKfgefING9yRGcHj3FF_ATOikrVdiX1GOiDAb_oBNTjqTAEPUCf9itqRTsmKVgXJdNcizNyrZM-wwq23RiIVEVtgsqtI51CSTMlq7djAkAPY2fW2N1uCxU5fHp8Mkk', 'width': 4160}]",-2.9363248,119.254954
"Tondok Bakaru, Mamasa, Mamasa Regency, West Sulawesi, Indonesia",Gerbang Destinasi Wisata Tondok Bakaru,ChIJe2YbhMcLky0RUa30Mn2iNbo,0.0,"['tourist_attraction', 'point_of_interest', 'establishment']",0.0,"[{'height': 2322, 'html_attributions': ['<a href=""https://maps.google.com/maps/contrib/102245698287663472849"">farid</a>'], 'photo_reference': 'AUGGfZm5cGHNDh92jqjm0S_wySdYFGasErPzvY6EjTlUlQ6hLV5qrVIz-HPpNDDMpYrWpSd0ZncPMy8VIYPtjzIPm_XNHO2jtIng6gRZoq2X5qO4XL09qEJ5-WT3eBGtvZ4JfxwU8BOErXVnJwjQGKbaZXpawYzwWZ5ghU52M0ueSmd5KN5s', 'width': 4128}]",-2.9240366,119.3828226
"55MF+V3, Taora, Buntu Malangka, Mamasa Regency, West Sulawesi, Indonesia","Tugu Pahlawan ""Talora""",ChIJu7uA6Xcbky0R5_hcCSBHjD0,5.0,"['tourist_attraction', 'point_of_interest', 'establishment']",1.0,"[{'height': 3060, 'html_attributions': ['<a href=""https://maps.google.com/maps/contrib/104847805803451863127"">A Google User</a>'], 'photo_reference': 'AUGGfZlGM8FhiNI0cx0x6g7w16350VXVN7mEmhpvJNFwWCtPNPsVKGqnjI5fHILylJ9Q53L09RSUu8XfHULntkmtueT--hmeG2FFOh4vO7LroH15cqaI9N9x8zO3dfPhaKQF5Fhf8Ta3EIOZRNvD8PxTwNAeBb2SHONe2hcwFiGg5TRgN1g7', 'width': 4080}]",-2.8153053,119.1726802
"R6R4+CJ2, Kire, Budong-Budong, Mamuju Regency, West Sulawesi 91563, Indonesia",Taman Wisata alam salansang water park,ChIJv9hVjZVjjS0R32-_dogpYBo,5.0,"['tourist_attraction', 'point_of_interest', 'establishment']",2.0,"[{'height': 6000, 'html_attributions': ['<a href=""https://maps.google.com/maps/contrib/100266331646852475518"">A Google User</a>'], 'photo_reference': 'AUGGfZn5vboxCxIxNQ6-wX89Cq_2t9DhJ3LILogT5L6wourYReGgb78-bxXIZMBBjYRfmdvyzQoRGZ9NESgEKMsYMzf89HbLeYP85p7W9RqViGWNBzGj6Z0yKTZ1Wk-IIgQ2THAen7JOiOti1lWrw6kh39twkyhFyTHzCAwuoFH-lQk8sgI6', 'width': 8000}]",-2.1589833,119.2065096
"55P4+73Q, Buntumalangka, Buntu Malangka, Mamasa Regency, West Sulawesi 91373, Indonesia",Air Terjun Sumua',ChIJA24liCsbky0RVB14WtacPfk,4.3,"['tourist_attraction', 'point_of_interest', 'establishment']",22.0,"[{'height': 6144, 'html_attributions': ['<a href=""https://maps.google.com/maps/contrib/104215041176629355395"">A Google User</a>'], 'photo_reference': 'AUGGfZkbFreMSREQJuyustsZj6kmFaNzk8kD7t5Q6EmfsoCE0wqRTq8tNl7jdqKvh7AeCQNJMZ2ufB6XAqg57-uIJ01Y_PfXt61MTtjQkjZQqUmsp-JfJBDnvBuOiRfhKE5Y6rGu2Cb-lKVHiBN-uQs35aKQsdRQi-nlX1sWV2te9pb4PYQf', 'width': 8160}]",-2.8142816,119.1552482
"C2HM+4C8, Sinyonyoi, Kalukku, Mamuju Regency, West Sulawesi 91561, Indonesia",Pantai Lombang Lombang,ChIJIZ6tkk3dki0RklC__I1WcDU,4.1,"['tourist_attraction', 'point_of_interest', 'establishment']",282.0,"[{'height': 2340, 'html_attributions': ['<a href=""https://maps.google.com/maps/contrib/115342392233785920290"">Aan Dwi Permana</a>'], 'photo_reference': 'AUGGfZl8tYaZ76HvcAunc8Sh1O5NJEudAqook6iGKNkjA9h-iwOk8fY-dFgIv9q5NT2rZSO80eaEUcxHUSNOwLJN_qZ24TmtVMYktDd-JzF4cKZq9BeBwyEWnd9dmVTptYgQS5U1FXPVTUtRelN46gekgd_mKa5D4-qNZxAgmU2-U-anNpNV', 'width': 4160}]",-2.5722242,119.0335866
"F2FM+HFV, West Kalukku, Kalukku, Mamuju Regency, West Sulawesi, Indonesia",Wisata Pantai Galung,ChIJ-WVXT2XCki0RrSCWry8xaZk,3.0,"['tourist_attraction', 'point_of_interest', 'establishment']",11.0,"[{'height': 3096, 'html_attributions': ['<a href=""https://maps.google.com/maps/contrib/112797493728394134831"">Dion Prahasta</a>'], 'photo_reference': 'AUGGfZlkyetV7XYpeloLVRxrxHY_3-xufeM7m-Bh7tIAq6D1CNfqp75yuhmVa2CLEOrnNbD-3C_W-qc6Or1BSa6KwDL0En8pKK98DrWRQvUD5k52eqPvSvzpNQyrNCSt9sbgpo9tzCCfaWefXk04dl6ewyPxzxUwBl2h4bKw0El8DpkFaTzf', 'width': 4128}]",-2.5260244,119.033657
"92RH+HJJ, Bebanga, Kalukku, Mamuju Regency, West Sulawesi 91561, Indonesia",Bukit Jati Gentungan Mamuju,ChIJmTPm-Jvdki0Rn4W-jZgEmqg,4.2,"['tourist_attraction', 'point_of_interest', 'establishment']",113.0,"[{'height': 3120, 'html_attributions': ['<a href=""https://maps.google.com/maps/contrib/108784042045054309937"">A Google User</a>'], 'photo_reference': 'AUGGfZlP4xxUu-BNnwGMxF0lBncFn0SKijRO8TUl1LO24wcdsvtFk5WGDa3bf5kjnV-ZVxgA6HJz33pe-1zox_MmpyhXvvj9QYqmuOLYGQlvIJsSkNuZFJwzhTZU9sudE7V4h0aeOZjvLpA_gFpuDoQugbxAlreRA0imQKLN_uJwtUx-NRNf', 'width': 4160}]",-2.60853,119.0290023
"92VH+WQX, Bebanga, Kalukku, Mamuju Regency, West Sulawesi 91561, Indonesia",Mesjid Gentungan,ChIJUTnW6Z3dki0Rb0Ou_XUJsb8,4.7,"['mosque', 'tourist_attraction', 'place_of_worship', 'point_of_interest', 'establishment']",6.0,"[{'height': 1469, 'html_attributions': ['<a href=""https://maps.google.com/maps/contrib/110103004745294158154"">bastinus bistolen</a>'], 'photo_reference': 'AUGGfZmeudQlZgmL_WggeGCuqUS_fT3uJgBLilUV4eFevzLLCUqtM8n7aGuhqYSryMsCCHDJEqAsdnxY9uVEtv7yZcKLz_VJJRLJyVZfM1x7eL58iNM9CXX6MV7Xjq2bVWZ8nVCHw5CWNmdVGaXgzD4taCAZC8Ujmzn7xgCp5wWXKlH--SI', 'width': 3148}]",-2.6052321,119.0294283
"9X55+5PC, Tadui, Mamuju, Mamuju Regency, West Sulawesi 91514, Indonesia",Wisata Mancing Karang Lamotu,ChIJsUo3Bozfki0R37FlE_TIpY8,4.8,"['tourist_attraction', 'point_of_interest', 'establishment']",5.0,"[{'height': 1080, 'html_attributions': ['<a href=""https://maps.google.com/maps/contrib/107881268713903136343"">A Google User</a>'], 'photo_reference': 'AUGGfZlLghYZYJFb92vZMKTYSt9_5xA_MTFWgwZmRbz1vVVb8e42IBL2RGBO4aFEyT2KRog-GRetGIbUYhwg-fkfn9CT0-qMNzX7uX2dTW3NBAl-fqqr3RWbZsN47EFjPd7BFO2O0Vd6Abid3Q4HFcYkM1fZgRP11UERdsWQyw6AutYW6OSP', 'width': 1920}]",-2.6420583,118.9592716
"8W32+XG5, Rimuku, Kec. Mamuju, Kabupaten Mamuju, Sulawesi Barat 91511, Indonesia",ANJORO PITU,ChIJJ8n3vmDYki0RAfReAdmP254,4.4,"['park', 'tourist_attraction', 'point_of_interest', 'establishment']",101.0,"[{'height': 3000, 'html_attributions': ['<a href=""https://maps.google.com/maps/contrib/109554163721834487526"">Yui san</a>'], 'photo_reference': 'AUGGfZltdFRYa7i-o1qu3qkvnVlKMw4kdxFC1KYyONdFCgVeZ8Ab98Dp3qbD-2Pf986IpMA-FPcFKSSK7fXe_WOok2eHa4URxm2jqMr9M9KmsKhUAVimEjmg7SrExrAxirt3dT0hwzCZL4bZkPsm1WVNjW30tPPbS3qQrn9MoYYmCIohbV8D', 'width': 4000}]",-2.6951068,118.901354
"7WWC+8HX, Mamunyu, Mamuju, Mamuju Regency, West Sulawesi 91511, Indonesia",Air Terjun Tammasapi,ChIJd902ZprYki0R-l3qM4glql8,4.3,"['tourist_attraction', 'point_of_interest', 'establishment']",101.0,"[{'height': 4160, 'html_attributions': ['<a href=""https://maps.google.com/maps/contrib/116815814695612855825"">Asni Makdum</a>'], 'photo_reference': 'AUGGfZmzVil1eGOed7GPOETL74HSlPCfAmnO4KcVpGAF1hoXm3BV_DqziYSTct_-qpnuksQTCl42GKezdKNdY8XTCqAnZClVYqDAkKnmsLLuobk-IrEhIqE5JxSU_VbrEMRt87TfE5C9qHTYonzbF0FIFs3dQhjTRdlHPl0l4xMfYmShZOrX', 'width': 3120}]",-2.7041408,118.921493
"8W32+RRF, Rimuku, Kec. Mamuju, Kabupaten Mamuju, Sulawesi Barat 91511, Indonesia",Puncak Mamuju City,ChIJEYYfy1_Yki0Rj1XsHjIt2Ao,4.5,"['tourist_attraction', 'point_of_interest', 'establishment']",348.0,"[{'height': 3000, 'html_attributions': ['<a href=""https://maps.google.com/maps/contrib/106845511371271405686"">Novrizal Herdananto</a>'], 'photo_reference': 'AUGGfZkcSS5TV7XGt-cDx__aFDrgehqaC6NI_HBL5h7J4dFT72C1uZJS0T_Aq7pg8EEFsBh1M6qhIhsz41JGYEkyGc0N7SwpdXEBd7n7yKK2UXF-SZjTbu-qnXmfgUFzKuvH17Aatq1jlJsX14hctJloLVU42Y4jgsugiroUVqk9ZgxqgLIp', 'width': 4000}]",-2.6954326,118.9020477
"Karampuang, Mamuju, Mamuju Regency, West Sulawesi 91511, Indonesia",Wisata Pulau Karampuang,ChIJ4fT8Wh3bki0RU5ud6ugPZFw,4.5,"['tourist_attraction', 'point_of_interest', 'establishment']",54.0,"[{'height': 3000, 'html_attributions': ['<a href=""https://maps.google.com/maps/contrib/105269050278636041423"">A Google User</a>'], 'photo_reference': 'AUGGfZkbdXU2QFLeF5C7pQLbhAHsmlwwRyQIKddqrq9iM4CLfCdsnYqG1BnpvMayIB6XDNMfwcln3kiTexLEzjxtJlxbv1xGitAXg8kso_iu3dtyWd6qJapVonQrg90r51DOZO7BvyB2CYkKelWQscCjbWp1aeAwBNZpB6odw4OucMtXoTIc', 'width': 4000}]",-2.6237297,118.8943129
"Strait, Jl. Yos Sudarso, Binanga, Kec. Mamuju, Kabupaten Mamuju, Sulawesi Barat 91511, Indonesia",Anjungan Pantai Manakarra,ChIJjTBq2rDZki0RGax81Kex6L8,4.4,"['tourist_attraction', 'point_of_interest', 'establishment']",2148.0,"[{'height': 1583, 'html_attributions': ['<a href=""https://maps.google.com/maps/contrib/110162217127948218217"">A Google User</a>'], 'photo_reference': 'AUGGfZmGMTfLL9WJ24XispMDAqJIrKfhuiGSX9s1mU2K2Q-sSYqBWsDMjQuBluvEy7MGFTXsocFgUmL4PvkKmIcze1S3piV-Ki6NqQ-DEgEt-2mf12Jud-jD8ax5SKtUii56teANldbmEooW1redfPry1fu2mIHnaq6VMV-OLMJoLkBvHsS8', 'width': 2640}]",-2.6703963,118.889166
"Tapandullu, Simboro Dan Kepulauan, Mamuju Regency, West Sulawesi, Indonesia",Pantai Malauwa,ChIJpRSazQnXki0Ra4LH3MeZVuI,4.5,"['tourist_attraction', 'point_of_interest', 'establishment']",77.0,"[{'height': 2268, 'html_attributions': ['<a href=""https://maps.google.com/maps/contrib/106203905988357828733"">yonggris lao</a>'], 'photo_reference': 'AUGGfZnexU43ZQl9ugcGC3cFHnRluFdOb9clIzXrqNMaJ6JV3s6o1lEIE3as1mr5OMDuh9Wpf6T9RAHtvTxq_v3hZ4gNOUfRpsL9gS7ldOOVvrqRliIRBNxoFxW4GvU1xfPK6cijkN0vFLWjU0xR9HHD5v-wnXcqpKOLwR8wf_CDxx1rnNm0', 'width': 4032}]",-2.6722154,118.790386
"8W66+9W6, Karema, Kec. Mamuju, Kabupaten Mamuju, Sulawesi Barat, Indonesia",Rumah M.Arifin,ChIJ_0kjdgDZki0R5i8lMIGNNQg,0.0,"['tourist_attraction', 'point_of_interest', 'establishment']",0.0,,-2.6890911,118.9122239
"7WQ2+W2, Karema, Mamuju, Mamuju Regency, West Sulawesi, Indonesia",Kebun Alpukat Kamila,ChIJ9Vm7MQDZki0R4Hb5b3iUL3E,0.0,"['tourist_attraction', 'point_of_interest', 'establishment']",0.0,,-2.7101322,118.9000686
"7VXG+X3G, Karema, Kec. Mamuju, Kabupaten Mamuju, Sulawesi Barat 91512, Indonesia",Air panas begejekan,ChIJK-Z9xHHZki0REVx0BtvmqYI,0.0,"['tourist_attraction', 'point_of_interest', 'establishment']",0.0,,-2.7000747,118.8752162
"Jl. Tamasapi, Mamunyu, Kec. Mamuju, Kabupaten Mamuju, Sulawesi Barat 91511, Indonesia",Wisata Istana Hutan Mamuju,ChIJFQ4uRunZki0RWqO8hr-sJU8,5.0,"['tourist_attraction', 'point_of_interest', 'establishment']",2.0,"[{'height': 3000, 'html_attributions': ['<a href=""https://maps.google.com/maps/contrib/105410167061107411398"">Bryan Sehati</a>'], 'photo_reference': 'AUGGfZl_Qn5gMySRSzHtThgUecvd31kCTYEsfdfjZIeoRkYWpyvqHhrpq1-m75H7PXo6Ply90gwV5VQeMJJvrLxdJa6LjNybjQa6bjJvub7yRcZg8gw-udaia4UgN5250sL6xlonvfEyWFE1Wxc2BEzrbglcSd56fGDTsBstoKFJRR5JDWhq', 'width': 4000}]",-2.6983299,118.9194136
"8QHR+HPJ, Tapandullu, Simboro Dan Kepulauan, Mamuju Regency, West Sulawesi 91513, Indonesia",Wisata alam malauwa,ChIJvyGOcADXki0RpfDnTlsJ1Bo,0.0,"['tourist_attraction', 'point_of_interest', 'establishment']",0.0,,-2.6710493,118.791766
"9V8H+9J7, Unnamed Road, Pulau, Karampuang, Kec. Mamuju, Kabupaten Mamuju, Sulawesi Barat 91515, Indonesia",Karampuang Island,ChIJW9AIfWLbki0RrW_paR22KlQ,5.0,"['tourist_attraction', 'point_of_interest', 'establishment']",6.0,"[{'height': 3008, 'html_attributions': ['<a href=""https://maps.google.com/maps/contrib/117198777508996433290"">A Google User</a>'], 'photo_reference': 'AUGGfZkS3IK2wNRZwb8zCX-UyQqWXWW75FmFlIINc-_6T5chTSG-uLl-JFrsEBmfMJbFnyp4y5Oful7CCUurQ7NDENZWmSmgYbFLVb4pRPBVHtLevZeFIIrdD2UYKhwzG7NMgW9nHdwIsKDPpHpP15hFn9soeVaqacIZegbOpeGwnFm99eF_', 'width': 4016}]",-2.6340865,118.8790585
"8Q2H+FGQ, Labuang Rano, Kec. Tapalang Bar., Kabupaten Mamuju, Sulawesi Barat 91352, Indonesia",Tanjung Losa (Bikini Bottom),ChIJzQNccOQrky0RciAsQyOTN3k,4.4,"['tourist_attraction', 'point_of_interest', 'establishment']",14.0,"[{'height': 2736, 'html_attributions': ['<a href=""https://maps.google.com/maps/contrib/113719206033722865064"">Faisal Reza Sukmawan</a>'], 'photo_reference': 'AUGGfZmG564iBXWuJnzjjcv5Dbbe522AIfc_sFF4VEV1ZHxf3YCx71YsLIS8GaVCZIhotQIMLL2-bEKUzb5iXnsbsoTmuT5T5uhiFMpKcKswpaDLet0ZbAnTkRHENXdUKcWNBdvb7fO3bGrUS8OuKzP00btaT7oVYbaYTWyeiYkeE33U4Np6', 'width': 3648}]",-2.6987981,118.7788672
"V99W+3H5, Saloadak, Tobadak, Central Mamuju Regency, West Sulawesi 91563, Indonesia",Puncak sunrise saloadak,ChIJw_gupOJ_jS0RG2tXC8Pgzl0,4.5,"['tourist_attraction', 'point_of_interest', 'establishment']",6.0,"[{'height': 2416, 'html_attributions': ['<a href=""https://maps.google.com/maps/contrib/113587662902135428968"">A Google User</a>'], 'photo_reference': 'AUGGfZnnQ1pnPAUHr9pNZd0c9ruPod0ulSi3ccBDp8-UcNUjxC-UWRc_eKJVkMrwS7pjNkcZPsCO8rxG_DkUqQIY49bHzWQ7Mwflu3BEctVohAOxsH282UWkwfXFO9-GBWDTAjup2bf9jdDnb5vSHbLJFRxHQhLzFSv0WfygD2oClmVE6FPK', 'width': 3840}]",-2.1323257,119.3964864
"9V9W+V57, Unnamed Road, Karampuang, Mamuju, Mamuju Regency, West Sulawesi 91515, Indonesia",Kawasan Bakau Ujung Bulo,ChIJCYZOJEfbki0RVCUthPi7mZ8,5.0,"['tourist_attraction', 'point_of_interest', 'establishment']",2.0,"[{'height': 4160, 'html_attributions': ['<a href=""https://maps.google.com/maps/contrib/114553235153369428395"">Risman jhi</a>'], 'photo_reference': 'AUGGfZm2G09nCVLm54Sj1iQxPAKniizNzGseQg2QZWBMZt3yCqwSNmIlHA5fIlw4pbqZtdGWLCxBOU-jtLn8FBLK9Nudd432EXO8Kq8k1S0GuqBqHvdrYUz5KaR4SlRoI-RqLb6DCL1Ul3jeQ3rB2Sz97Qc6EUUk0WeN9xDHJBEeKJDJnTyC', 'width': 3120}]",-2.6303447,118.895435
"PANTAI LANDI, Kabupaten Mamuju, Sulawesi Barat, Indonesia",SHIP DOCKING,ChIJq9J5HY3Xki0RbHoHjVTL7X8,0.0,"['tourist_attraction', 'point_of_interest', 'establishment']",0.0,,-2.660476,118.8538998
"8W57+Q6G, Unnamed Road, Binanga, Kec. Mamuju, Kabupaten Mamuju, Sulawesi Barat 91511, Indonesia",Wisata Sungai So'do,ChIJkQFy5PPYki0RPUh_iAGqU6E,4.2,"['tourist_attraction', 'point_of_interest', 'establishment']",157.0,"[{'height': 2698, 'html_attributions': ['<a href=""https://maps.google.com/maps/contrib/109284093043686460668"">Nurul Rejeki</a>'], 'photo_reference': 'AUGGfZlntHUzT51GU7xUAwhOg7gVdpnAUyZGnT_hZHSVEi_KvgWByEN173PnYu957JzL5nhz3ADFlPqo3RrNHGprCjHxPSd_j1l1IZZYQXx_XQj9sSCNBrJLMVUe15hADOQvLcUsNLC0xw4eIzDiQtUetPOZEKw7rHCyqr4j_RaFjUcqIx6l', 'width': 3947}]",-2.6905644,118.913082
"8RRX+5WV, Jl. Abdul Malik Pattana Endeng, Rangas, Kec. Simboro Dan Kepulauan, Kabupaten Mamuju, Sulawesi Barat 91512, Indonesia",Rangas Beach,ChIJxUghReDXki0R0a3cZG4hoq4,4.5,"['tourist_attraction', 'point_of_interest', 'establishment']",88.0,"[{'height': 3472, 'html_attributions': ['<a href=""https://maps.google.com/maps/contrib/113007431759344956110"">Aitok Rajai</a>'], 'photo_reference': 'AUGGfZkqQCMCGetE9AANT2wQrtSHOTwmfE9QrhQkR9TT-oJ6o2zZpqMO8jhJUQld1Lb3w8EDuPU9cVnReyTS9wjbytsiFFGV7i5rxYOm_Nq0JoatRFx1fridYb1_QBuVhO79jk70VHCuqAGKW0mzTUeVpVQeQ_UmhkqQHUkRxawcEKMVw1wx', 'width': 4624}]",-2.659518,118.849784
"RFMF+P9F, North Leling, Tommo, Mamuju Regency, West Sulawesi 91563, Indonesia",WISATA SUNGAI SALOTURU,ChIJ7-dC921_ki0Rg3AOA4KNPgs,4.5,"['tourist_attraction', 'point_of_interest', 'establishment']",2.0,"[{'height': 4160, 'html_attributions': ['<a href=""https://maps.google.com/maps/contrib/109947259523722034364"">Efry wer</a>'], 'photo_reference': 'AUGGfZkOFRxAM1ICoIZw5UZ_kbGEYwS9HEdt_SrfZIkYR8rga8a7Tn3OxxqQvoWDUCKqfVHrswk2BwNTRp8OR-vFZmcZkTT7CI3AahmCKRc5ZS2rHGfwxRopzwKkfra-h0zUDUBskQlnUZO9Ucp8JyFjsJOA3Rec88B1px57_sXfyS9Hyr6j', 'width': 2340}]",-2.165676,119.4734367
"2C94+VGP, Kambunong, Karossa, Central Mamuju Regency, West Sulawesi, Indonesia",Taka porget,ChIJb4jFTAB3jS0RZaYz3DOQr1o,0.0,"['tourist_attraction', 'point_of_interest', 'establishment']",0.0,,-1.9802984,119.4063234
"Unnamed Road, Karampuang, Kec. Mamuju, Kabupaten Mamuju, Sulawesi Barat 91515, Indonesia",Wisata Batupute Liutang,ChIJ2wFSHf7bki0Rr2qenKfk-qM,4.8,"['tourist_attraction', 'point_of_interest', 'establishment']",4.0,"[{'height': 2604, 'html_attributions': ['<a href=""https://maps.google.com/maps/contrib/109284093043686460668"">Nurul Rejeki</a>'], 'photo_reference': 'AUGGfZlKj_x63ZNNu22wENQrPNfFSbuli-hrA1BFFpkqfdnErMjOf70ZULs4c1ulODXcRp5vuYySNDFD7dy_S8NWwakD1oqpxhw0Iba6V23e0OSaWfUJgkcMy52lVGx9xHBXleLOxunxJLl7aPiSj54PAG85S83_otxl0Xm6ZuVgjM4cQkDu', 'width': 4624}]",-2.6325599,118.8786856
"49H2+7JF, L A. R A, Karossa, Mamuju Regency, West Sulawesi 91563, Indonesia",MANGROVE SALUBIRO KAROSSA,ChIJZ7usD5l1jS0R1S5GcX5iMbU,4.0,"['tourist_attraction', 'point_of_interest', 'establishment']",68.0,"[{'height': 3000, 'html_attributions': ['<a href=""https://maps.google.com/maps/contrib/101704475285242447949"">Iqbal Habibie</a>'], 'photo_reference': 'AUGGfZmoqfJbAhvQ0oCkXq76cCbKAPzd8Rwd-I4GxDCa3Qk381E8vVY1FWzuzzKOA3HwNXTkYsgB3Ckl27QxmtoQBioaL-IGiQMdE3Fb4JGJ-I9iSf9E9bVXd_fFrIit19R-BS_U5nXVD1N79CZpN2BstkmviAOQorYw2xWzbF-Bo4fo5a1o', 'width': 4000}]",-1.8718176,119.3515624
"W95G+6H, Tobadak, Central Mamuju Regency, West Sulawesi, Indonesia",BENDUNGAN KATAKAN CINTA,ChIJSVfxPAB_jS0RoTGQ_8ufluE,0.0,"['tourist_attraction', 'point_of_interest', 'establishment']",0.0,,-2.091994,119.3763886
"282F+Q2Q, Jl. Poros Majene - Mamuju, Kambunong, Kec. Karossa, Kabupaten Mamuju Tengah, Sulawesi Barat 91563, Indonesia","Puncak Salupangkang I, Mamuju Tengah",ChIJG8TYZR9xjS0RqJTNLvXq-eo,4.5,"['tourist_attraction', 'point_of_interest', 'establishment']",2.0,"[{'height': 1920, 'html_attributions': ['<a href=""https://maps.google.com/maps/contrib/117598958860672871291"">A Google User</a>'], 'photo_reference': 'AUGGfZkTV14RvUI2oLJFq4ON2j8KMVMFuf0SA7I-YPfzRwp17xCY4_177zt5VOAJepSxFJo1QgXFvy2i4AwH-f4_T4tBYU3egkl1ub2Z-2ac3_WH0UQHK6BHfGWOTnwxPkqfPtVMnPWR-52mhRnLGG8sUSQyg3homAGuM6vGG1bUwHxWN4qC', 'width': 1080}]",-1.9980478,119.3226103
"Kambunong, Karossa, Central Mamuju Regency, West Sulawesi 91563, Indonesia","Air Terjun Butang, Mario Pulana, Salulekbo, Topoyo, Mateng",ChIJ186hQ26djS0RVmGI2QQVAys,4.9,"['tourist_attraction', 'point_of_interest', 'establishment']",10.0,"[{'height': 4712, 'html_attributions': ['<a href=""https://maps.google.com/maps/contrib/113718249284520766368"">A Google User</a>'], 'photo_reference': 'AUGGfZm5349sQsmYOoOJ3w96p7QazbQ2TFDn6MOkrOsRDfmNSD8G2G6hDvAwg_WG1ufEKByJJVArUIeJH-Q7v_2R-MdZ1jkkAfLuRFxzvuFjVrsC7ULlVGE0s6fao7v9qm34mI2yq1wAZwI2MpGzEWfrXw7HBnZECBnpcoODgFpzpplTbrnh', 'width': 3922}]",-1.9812318,119.4336253
"X88M+Q4, Tabolang, Topoyo, Mamuju Regency, West Sulawesi, Indonesia",Salupangkang 2,ChIJpVriNhV5jS0RT3_8kn1aYVk,0.0,"['tourist_attraction', 'point_of_interest', 'establishment']",0.0,,-2.0330434,119.3328708
"7QCH+3X, Lebani, West Tapalang, Mamuju Regency, West Sulawesi, Indonesia",Wisata Batu Lombeng Desa Lebani,ChIJoWCu0fIpky0Rjc3NvzDfjNo,4.5,"['tourist_attraction', 'point_of_interest', 'establishment']",21.0,"[{'height': 2736, 'html_attributions': ['<a href=""https://maps.google.com/maps/contrib/113719206033722865064"">Faisal Reza Sukmawan</a>'], 'photo_reference': 'AUGGfZkX-dW9g4VsqgQ8nGSI1418e6fK4JcK1s_xvSbiv6HNED7C7O4UJvtQFH-91j_EU6tJYJVMvwaywOOWttfIf0BwOtLd1bObbEs1WOLNKDrCx7_efqiVEBWHRYBO6RuPpUZT1-HeqFGy17fgAd8suxTafctXzGjpmF44iWbUF3vW7y1J', 'width': 3648}]",-2.7298095,118.7799264
"V9JX+2XC, Palongaan, Tobadak, Mamuju Regency, West Sulawesi, Indonesia",Air Terjun Batu Bolong'nge,ChIJU9idH0B_jS0Rj5r1uJmAD6U,4.0,"['tourist_attraction', 'point_of_interest', 'establishment']",1.0,"[{'height': 1024, 'html_attributions': ['<a href=""https://maps.google.com/maps/contrib/108087825378024378415"">Azka Farzan</a>'], 'photo_reference': 'AUGGfZnoWaKUVnpDburMCUCU-ikhGlcI54CY1pc0Lx6Y4FMkWGI6ADBF9t255hlpGpq7iEnuFawuU1swPLZTo0INcrSaqlYBVMWS7O-Vbr4NgffzPHHxC5Rje8Pz4wGy4QLev7eJf0mAR5yBt4Pn6uBFhSYpDnZz9DO_bddKnAODjD1cIBsw', 'width': 1024}]",-2.1199264,119.3998804
"V9H7+76M, Mahahe, Tobadak, Central Mamuju Regency, West Sulawesi 91563, Indonesia",Pg Ruben,ChIJh1sddPJ_jS0RrDEVOaGoo_o,5.0,"['tourist_attraction', 'point_of_interest', 'establishment']",2.0,"[{'height': 1920, 'html_attributions': ['<a href=""https://maps.google.com/maps/contrib/103903520430227082005"">A Google User</a>'], 'photo_reference': 'AUGGfZmIYuYjxHdDNNPyNnf6ci84sgaiNxYiUHGh43RoccODOlf2kI1-CUjaBnwdi4AbTei-h4NRzCVD_WL2RDtocWjqyp-Q2_strcmXjElEIR2NV_Br4yWIdVqzbIZSHy4Tb_5o5qIzrcc9zlAHc2qHtyATzK1Fwj7a78txBXRB2er1CI8T', 'width': 1080}]",-2.1217963,119.3630426
"W6F3+GGP, Babana, Budong-Budong, Central Mamuju Regency, West Sulawesi 91563, Indonesia",Penangkaran buaya babana,ChIJV0KngBdljS0RHKT-A_5nrco,5.0,"['tourist_attraction', 'point_of_interest', 'establishment']",2.0,,-2.0765232,119.2026237
"Jl. Yos Sudarso No.13, Kabupaten Mamuju, 91511, Indonesia",Gong Perdamaian Nusantara - Mamuju,ChIJM0L3flHZki0RozZgHB22YNM,4.3,"['tourist_attraction', 'point_of_interest', 'establishment']",3.0,"[{'height': 3000, 'html_attributions': ['<a href=""https://maps.google.com/maps/contrib/109554163721834487526"">Yui san</a>'], 'photo_reference': 'AUGGfZllhP1x5B9vCp_OLYpsxUfEltCpNaEnf6XQmJ6kOWDBNun_MHM1EyZEQpylXrVG_mjoq-wSvl2hv4OKPtkmmyMU4660RQ4sk0kFiY0TWBNaCass88YHZM1CB2gtASjF7VkHdNEQlWlcYYPhRuTMFD29fr-JXZy9ggkaJr9UtxvA8B5R', 'width': 4000}]",-2.6709099,118.8896116
"V59R+MR, Kire, Budong-Budong, Mamuju Regency, West Sulawesi 91563, Indonesia",Pantai Kire,ChIJJ5-ls1NjjS0Rl_meRDXoCx4,5.0,"['tourist_attraction', 'point_of_interest', 'establishment']",1.0,"[{'height': 4160, 'html_attributions': ['<a href=""https://maps.google.com/maps/contrib/109262395768258746180"">A Google User</a>'], 'photo_reference': 'AUGGfZlGrgL5NwaDVIiQDXjH5tNcmNJQbUxOjHLp1ASUbmzX_QLOYp5dK0U9cUXhj2xE0VpP9fk1qQsSesWSG_HX-mqcAvsg4fLwlVt34u7MblbvsjFSL6zg94_NaSrK2GRGVUtaAiAroDHDFK7LxLIs4ywRe9QxdiUL6_ohEyPR4ijSlPIc', 'width': 3120}]",-2.1299996,119.1914332
"W9VX+5P, Salulekbo, Topoyo, Central Mamuju Regency, West Sulawesi, Indonesia",Rumah perintis salu mabulang,ChIJg-nscVZ5jS0RYvi2gQcHYg8,0.0,"['tourist_attraction', 'point_of_interest', 'establishment']",0.0,,-2.0570915,119.3993101
"M4QG+CC8, Sampaga, Mamuju Regency, West Sulawesi, Indonesia",Pantai Sampaga,ChIJKcc3jZiXki0RWwXVpTdyR_k,4.6,"['tourist_attraction', 'point_of_interest', 'establishment']",5.0,"[{'height': 3264, 'html_attributions': ['<a href=""https://maps.google.com/maps/contrib/110005853078665140921"">Ismail Nur Hidayat</a>'], 'photo_reference': 'AUGGfZnhi0RvOfx0yidg2vynYqUG7YeUvdfJa1wjWSmEDL3J140-DHmsCvUpcF-8-1O6SDj6O-IQ6G7T5SaKZfCZKi0cc4Ou6zFbigV3ygVL3k34EHhUcTR8FDWqrkSNwseiW5kEirQGY7jNKssjoO5NnyAfBPGarIcy0-gXWoMaUSk8WtpW', 'width': 2448}]",-2.3114748,119.1260919
"Jl. Andi Dai No.5, Binanga, Kec. Mamuju, Kabupaten Mamuju, Sulawesi Barat 91511, Indonesia",Simbuang,ChIJNzno5JPZki0RXinKSBsLlGM,0.0,"['tourist_attraction', 'point_of_interest', 'establishment']",0.0,,-2.6771012,118.8987119
"8VH6+RR, Kec. Simboro Dan Kepulauan, Kabupaten Mamuju, Sulawesi Barat, Indonesia",Pantai Hijau Simboro,ChIJsUdHSQDZki0R2jEXq2gynzk,4.1,"['tourist_attraction', 'point_of_interest', 'establishment']",11.0,"[{'height': 4032, 'html_attributions': ['<a href=""https://maps.google.com/maps/contrib/100526833034802608373"">awwalini maghfirah</a>'], 'photo_reference': 'AUGGfZkSe5QmJVeWQ2nnsjjCqIi0lAEEXj82pObLpywUMxJ7WtIZFtCR8-JURZagV_ssGmHdXDUl3G__Kj2wMfs8oFjtbv_tE3raCNgdZ8yQcV5XEJ1ztJH38yr3fVH_ApW-36BRQWsfygDrl9-nm7h2zSIIdSu-pWTQd0bQMjiv52er3M0', 'width': 3024}]",-2.6704267,118.8620459
"9R24+XPV, Sumare, Simboro Dan Kepulauan, Mamuju Regency, West Sulawesi, Indonesia",Wisata,ChIJIXMkYQDXki0RGVfNR7JOhz0,5.0,"['tourist_attraction', 'point_of_interest', 'establishment']",1.0,"[{'height': 4160, 'html_attributions': ['<a href=""https://maps.google.com/maps/contrib/101693259750329421772"">A Google User</a>'], 'photo_reference': 'AUGGfZkHNu5EEmJwCU36k0Cxmq4tX_ACP1ZeXi1rj6eIqWS4WRBwvMNDVLX4z49c2qnDTi0cirPugj9UaqE1iKhpZ-2uvQf4rNldEuhHOg-sICMOm2Ubi8k3DAxSCdcZ_uo3LYjyAeQkon_CU8-e5ehp_Y3LD-hbcl-An8OGqrtiG-Eee4_S', 'width': 1872}]",-2.647435,118.80672
"6VJJ+QH, Botteng, Simboro Dan Kepulauan, Mamuju Regency, West Sulawesi, Indonesia",Kebun HR,ChIJm6y6NwAnky0RK9pFJoE0fRI,0.0,"['tourist_attraction', 'point_of_interest', 'establishment']",0.0,,-2.7680493,118.881442
"Jl. Poros Majene - Mamuju, Botteng, Kec. Simboro Dan Kepulauan, Kabupaten Mamuju, Sulawesi Barat 91512, Indonesia",BUKIT NIZAM,ChIJhWjrNiwpky0RblfOzEQOe5s,4.8,"['tourist_attraction', 'point_of_interest', 'establishment']",5.0,"[{'height': 3456, 'html_attributions': ['<a href=""https://maps.google.com/maps/contrib/109465451807419080596"">askur Nahdia</a>'], 'photo_reference': 'AUGGfZmvrRTYWg2ZxQNa-diOq2jKiAnbLaDRJPQ_tFlY78kDWXKKrFMCi3okPf4Z9BbIYeG2maxlYsSrsb93afWjL6uys2i3u3o0dY6oByxBT0SDBoxmarNOrHjCd5u962q5QQpHaOgpFRsNjfsKHapbGZOPQ3o5pBCPMrAUKCWfz-h-AJq3', 'width': 4608}]",-2.767351,118.8572434
"6VH9+8W5, Jl. Poros Majene - Mamuju, Botteng, Kec. Simboro Dan Kepulauan, Kabupaten Mamuju, Sulawesi Barat 91512, Indonesia",Perhutanan Sosial,ChIJ1W93wTYnky0RaLKQY1l-fSE,0.0,"['tourist_attraction', 'point_of_interest', 'establishment']",0.0,"[{'height': 4000, 'html_attributions': ['<a href=""https://maps.google.com/maps/contrib/109154761101413255490"">Immank Gimpe</a>'], 'photo_reference': 'AUGGfZmHpFwiyjYhdXn57USvBvw3GwxihChoknHsw2yo7jYzAffwwEyRkgGmWSPjmzmpC-UXSDaDTINuRbId2slS1-y0NLOThMGJ8i525A7NSKXambFfHrGZ9Gx97LjNLQfCCKau8IneHEsn9L42fZaAECYt1CAvz6e8Dlmj5uWyYPtJnisz', 'width': 3000}]",-2.7717424,118.8698464
"8RRX+F6G, Jl. Abdul Malik Pattana Endeng, Rangas, Kec. Simboro Dan Kepulauan, Kabupaten Mamuju, Sulawesi Barat 91512, Indonesia",PANTAI LANDI,ChIJIZied0fXki0Ry0AZZ-_jpKI,0.0,"['tourist_attraction', 'point_of_interest', 'establishment']",0.0,"[{'height': 3468, 'html_attributions': ['<a href=""https://maps.google.com/maps/contrib/104387008131673440226"">Asri Lovers</a>'], 'photo_reference': 'AUGGfZmDgb59BjDmAAIfA6FlQYa1r15gDWAyVZAYklQtrAS2HdbfSQ0FU3YL6k_6Yk3r5P1ng5E1Uak-MSbfqHv3az7cexbz7e5LO6ELzbivrTlbH1xnRjhkVlSExVg7xF8rK_BvOaoRoXu6iTMYnPxG59l5j1CuBvGJirIPxD340o_LTZ8b', 'width': 4624}]",-2.6584468,118.8484783
"8QMW+GV9, Unnamed Road, Tapandullu, Kec. Simboro Dan Kepulauan, Kabupaten Mamuju, Sulawesi Barat 91513, Indonesia",Sudut asmara Tapandulu,ChIJ5aXKHsnXki0ReEfzSUGNkes,5.0,"['tourist_attraction', 'point_of_interest', 'establishment']",1.0,"[{'height': 2304, 'html_attributions': ['<a href=""https://maps.google.com/maps/contrib/101205675850273803393"">syukur setiyadi</a>'], 'photo_reference': 'AUGGfZlgys4KsUi9ASJrQLBpR6Pjk5Kp8VGRE4ZweMX8yD1Obbe5pJPLV0wja2XFpSEwPfD0rMHQwSCPZ1_1MvKRH9gWNqegzrJ8q2GrUsrx_duAh9Nd8EavXj7aK8JAGfP7fW85rOFdDqIGHzkHR5-NXCWdGRAhBOjrNxOp2bKpROgy0kVV', 'width': 4096}]",-2.6662004,118.7972494
"7V78+GJV, Salletto, Simboro Dan Kepulauan, Mamuju Regency, West Sulawesi 91512, Indonesia",Objek Wisata Sungai Ende,ChIJBVF9io4nky0RoY9rR3JwLkE,5.0,"['tourist_attraction', 'point_of_interest', 'establishment']",3.0,"[{'height': 2160, 'html_attributions': ['<a href=""https://maps.google.com/maps/contrib/109963126411940618918"">farid esdm</a>'], 'photo_reference': 'AUGGfZkqTF62eKd5gF0HiOtkzzPA7c5IrvwfNicAR1-VeJNq7tLhKjvfhFfIpIdchAqz_xh302W038Qx_iBbA7ANl0P-pNREETo2JLn3NIHjWjxdnvY4jt_5gkB4biCfILe4BqWQY6ssfsErYiz5WSIE5sb1gknW8KXSFN4pbr9R_uwWnRcx', 'width': 2160}]",-2.7361499,118.866547
"8RXV+379, Pantai Panorama, Rangas, Kec. Simboro Dan Kepulauan, Kabupaten Mamuju, Sulawesi Barat 91512, Indonesia",Pantai Panorama,ChIJW_FDBfHXki0Raw52wCUqPy8,4.5,"['tourist_attraction', 'point_of_interest', 'establishment']",2.0,"[{'height': 4032, 'html_attributions': ['<a href=""https://maps.google.com/maps/contrib/111268838309850069464"">Sagita Inggriani</a>'], 'photo_reference': 'AUGGfZk8AsIeFElGMH6FCBEO6CcPlGIqJ4_Q5rLqzdt97e2lilr7EauvjlHnpGaZOEuTjZdIY1OpHSCGwBM2lkqhw9rPUYzsGTpcQI1mz6eGsRJd01agy2DB1wADTkyxjwJw_REj2jSWAnxG6wBsjmjvfEzIOCnj10fmlyJzcc_MyNVI1g8B', 'width': 3024}]",-2.6523316,118.8432379
"8QHR+JP9, Unnamed Road, Tapandullu, Kec. Simboro Dan Kepulauan, Kabupaten Mamuju, Sulawesi Barat 91513, Indonesia",Wisata Pantai Tapandullu,ChIJ3WPQI7bXki0RE3ylXDzAb74,4.7,"['tourist_attraction', 'point_of_interest', 'establishment']",136.0,"[{'height': 2268, 'html_attributions': ['<a href=""https://maps.google.com/maps/contrib/117205717910077976353"">Frans Rattu</a>'], 'photo_reference': 'AUGGfZk1dEaBgB8csKcB8V1smsHeukemMqW3uM48bFzFIeA2nCIIAX7ixCZAjyUTVq0DBAeObDholxeJBlNY5kkDjwjwJy8Ll1-uit4mLY4TzlZl-aLcK-Eu04oebX9D2uax073_dfF5Aud-1bJebSCvv_DfyUiaD1TBadWhq9nLKNNRBLPE', 'width': 4032}]",-2.670964,118.791852
"9R24+9V9, Kanuangan, Sumare, Kec. Simboro Dan Kepulauan, Kabupaten Mamuju, Sulawesi Barat, Indonesia",Gedung walet Husain,ChIJF7B-XwDXki0R2GRo7vRt-q8,0.0,"['tourist_attraction', 'point_of_interest', 'establishment']",0.0,,-2.6490894,118.8072399
"8QJV+837, Malauwa, Kec. Simboro Dan Kepulauan, Kabupaten Mamuju, Sulawesi Barat, Indonesia",MAMUANG COTTAGE,ChIJm6eto4fXki0Rc7ZFVUSu_NI,5.0,"['tourist_attraction', 'point_of_interest', 'establishment']",1.0,"[{'height': 3072, 'html_attributions': ['<a href=""https://maps.google.com/maps/contrib/105302961334964836812"">Amriel Qhuu</a>'], 'photo_reference': 'AUGGfZmgc0HDUp30vI12_dM8qHSD2gENps0797_W6O_yEa4coizYOX_emf_ALUIMDEDP00CfpmGxS_-g0zo-oNdtoi0SmIhPLiREKXPZHhtSH61FS3r0DSB8e-udp6DDuIRzl4QwUdjl70zVZtdY1PffGqMMuUq3ZFwmXt8uMu_tgNl2ozCA', 'width': 4080}]",-2.6692125,118.7926719
"8V37+9CR, Jl. Jend Gatot Subroto, Simboro, Kec. Simboro Dan Kepulauan, Kabupaten Mamuju, Sulawesi Barat 91512, Indonesia",Gerbang Kota Mamuju,ChIJybZ3bx_Yki0RIdQH3Gu9nak,4.2,"['tourist_attraction', 'place_of_worship', 'point_of_interest', 'establishment']",153.0,"[{'height': 2304, 'html_attributions': ['<a href=""https://maps.google.com/maps/contrib/109362853080425588916"">Ma&#39;ruf Machmud</a>'], 'photo_reference': 'AUGGfZmBvOiHkWV6RZiliQj0OWDlT3a0-KiC61G6_A_BlEZlqRbf-Ln3mz3iWYUZT8A5cfmTlsbCFDad550BZlsLquEVHIosaECvGZDs_dEd5X6aolDi4RoWLSAf8hq5LkfPE8dAtUN6TWF1604CdbNTcGp7XSVpoSaYO3Nza8KlN7NWaPqr', 'width': 4608}]",-2.6965204,118.8635104
"Tapandullu, Simboro Dan Kepulauan, Mamuju Regency, West Sulawesi, Indonesia",Tapandullu Beach,ChIJ8xRxqO3Wki0RA3TZcK-ZJOA,4.3,"['tourist_attraction', 'point_of_interest', 'establishment']",290.0,"[{'height': 3024, 'html_attributions': ['<a href=""https://maps.google.com/maps/contrib/110391186358055561927"">Ikhwan Mahmud</a>'], 'photo_reference': 'AUGGfZl3K_2cAM4OvNP92p81u2eBUDcP7i6owD6nj7IkaH4k5hEx7wOQx6YRRU0C1FD1rDzgyJKtvWISAOwoeFg9DcZdiTLkijG8izLcXM7JUrKBshDclloQnPdLo63pS_lGUQ7FewwPtZ80A4ChEiUEkxSMZHfxcQLPrzDpffo2rX7FJYI3', 'width': 4032}]",-2.6692129,118.79267
"5R2W+2H6, Tampalang, Tapalang, Mamuju Regency, West Sulawesi, Indonesia",Arteri pantai Tapalang,ChIJvb8Wvzkvky0RXUYbi1TJeu4,0.0,"['tourist_attraction', 'point_of_interest', 'establishment']",0.0,,-2.8499696,118.8463811
"5Q79+JP, Dungkait, West Tapalang, Mamuju Regency, West Sulawesi, Indonesia",Rumah Mawan,ChIJe9y3K3Ivky0RC1g8JtX6Pys,0.0,"['tourist_attraction', 'point_of_interest', 'establishment']",0.0,,-2.8359223,118.7692464
"Tampalang, Tapalang, Mamuju Regency, West Sulawesi, Indonesia",Binanga kacci-kacci by Ta Adhnan,ChIJP-RS3gIvky0RNvy46oyGzOk,5.0,"['tourist_attraction', 'point_of_interest', 'establishment']",4.0,"[{'height': 1682, 'html_attributions': ['<a href=""https://maps.google.com/maps/contrib/102501380567635853672"">A Google User</a>'], 'photo_reference': 'AUGGfZnfvPCz0DR0GfCDmkAS_WXOgL6-OWiUhTEP5lA2HlZBeDztJflxmSXa6HO6plwwzVCAFpss-7Gj_1E9XpjNXuIHihU8G23UvZ6eBL2KL_8l_gnnvIZwdYQShK1RxSra1DnZ4A6AKVfGlY-xJ6mrOvE2p40cLemP5-Jzb6RJcGOQ58uF', 'width': 2990}]",-2.8512913,118.8513375
"8Q4H+2GJ, Unnamed Road, Lebani, Kec. Tapalang Bar., Kabupaten Mamuju, Sulawesi Barat 91513, Indonesia",Tebing harapan Tapandulu,ChIJc5GQpC_Xki0RHKtVY8kH2oA,5.0,"['tourist_attraction', 'point_of_interest', 'establishment']",2.0,"[{'height': 4000, 'html_attributions': ['<a href=""https://maps.google.com/maps/contrib/103903069540397284526"">Irsan Uciha</a>'], 'photo_reference': 'AUGGfZlCVDF6mflsZMLRIggQqfYuCIwwrod4hMJG3lskHyDk8DJJzCCBOSIit55SsZ9_bZbHhdHLutwF0Jpb5A2tgRx-ay1pk6b2CGFmxVlk_hb-Z48xllsU7wE0g3GB8D5NmXWdTXEGjTBzWrsEaGpg3gGZQ3GSeIr4TrZRB_GAgAQyP3M6', 'width': 3000}]",-2.6949165,118.7787559
"8Q3J+P2M, Lebani, West Tapalang, Mamuju Regency, West Sulawesi 91513, Indonesia",Pantai Asmara Tapandulu,ChIJwzaEVSTXki0RNvTdDyeBhE0,4.7,"['tourist_attraction', 'point_of_interest', 'establishment']",6.0,"[{'height': 1152, 'html_attributions': ['<a href=""https://maps.google.com/maps/contrib/101205675850273803393"">syukur setiyadi</a>'], 'photo_reference': 'AUGGfZlmovlRkC0GuZyOI7k87EkqqqntM5rhpBL8M4_JPY_K9-lVJS9DwBZXoJdf8ZOmR3t9TJ7t4wcwsKvQftWuaKbGdYjYh_z9VgMFIqwCqARBC7B2DDxYxzY0DxzhNBpYyI7NwCT8a6BBS2pUdhw6eCFIcd1dSzf2WDX1V9cdIFg_Ki-V', 'width': 2048}]",-2.6956688,118.7800317
"6Q37+G8, Labuang Rano, West Tapalang, Mamuju Regency, West Sulawesi, Indonesia",Pantai labuan,ChIJceBaDKktky0RFW1NPAU67n4,0.0,"['tourist_attraction', 'point_of_interest', 'establishment']",0.0,"[{'height': 3060, 'html_attributions': ['<a href=""https://maps.google.com/maps/contrib/116523417915590800842"">A Google User</a>'], 'photo_reference': 'AUGGfZm-2nw8BKHMbKwLtIWxkJLoJzT_9wkejK7TNoxjGxIORsRihsMPzxEUXpi-uUZM9OWvxAUgDgJ-eYJXFdBphsYnvx4NJQQWjuoR4IiccDiFMYipRj-U04x0rgUqTphZ5MPQ8riMi2MvjD-mPGsKdXH-DtBwVb2cJJCfQ5y86ArW2aDp', 'width': 4080}]",-2.7963202,118.7624659
"4QM9+8PH, Dungkait, Selat, Kota Makassar, South Sulawesi, Indonesia",Tanjung Ngalo Mamuju,ChIJlQ2UCvcxky0R_1TXQ4RADlQ,4.4,"['tourist_attraction', 'point_of_interest', 'establishment']",89.0,"[{'height': 4512, 'html_attributions': ['<a href=""https://maps.google.com/maps/contrib/100488296485915807747"">Bintang Timur</a>'], 'photo_reference': 'AUGGfZnAdSdXCH1XNztfZF2ENFr5hxKnmWiKQtCZPy7jPNubFdbtk_zR4bcWUbXV4jAm3H3HX3HCeUSvoRJGdCvVaWAXdNK1ka05ZlP8_2eqoxyyf8-QWj25ulE6SRHZn9NfJ5KZzHaAmagpSsAfttuXukFz7Hecr96Vs_nWbHBSZj5rzAk', 'width': 6016}]",-2.8666905,118.7693474
"4VX9+4WM, Galung, Tapalang, Mamuju Regency, West Sulawesi, Indonesia",Kolam Renang kuridi Tapalang,ChIJXbAJ8JMlky0RKHhDCyjIGIQ,5.0,"['tourist_attraction', 'point_of_interest', 'establishment']",2.0,"[{'height': 960, 'html_attributions': ['<a href=""https://maps.google.com/maps/contrib/107470837410027409885"">A Google User</a>'], 'photo_reference': 'AUGGfZnpfyfNqEbIRVYP6nukjF9OCU38CjRYbfhmBwM-8WClER6J9fXsPoyUWrLMNSKV0PuPG8Y_ul636AwWMqPLIqpw8mPsEq_VAiIaUqzQRS73aidFv1f_TPqJaEUTJyu0rLm-he45kBhj3TD2FjMV51-TUACYtgsvKJJ2T6md0moawtfE', 'width': 1280}]",-2.8532031,118.8701559
"6QH6+PH6, Dusun Koroma, Desa Labuang, Kec, Lebani, Kec. Tapalang Bar., Kabupaten Mamuju, Sulawesi Barat 91352, Indonesia",Wisata pantai Losa,ChIJ3Yr0RIMrky0R_h2K_KHfgwc,4.2,"['tourist_attraction', 'point_of_interest', 'establishment']",5.0,"[{'height': 1970, 'html_attributions': ['<a href=""https://maps.google.com/maps/contrib/111003552650193268244"">A Google User</a>'], 'photo_reference': 'AUGGfZkGyK_2SvAYS5uGqfB45haMSwQvsp7TqPVGEVrIXuCkjJYd2TNTNBRtuxZDCfeo_H9Hf7WBIUgFA7tDzQPWX7lQZ1FGLHWOuIK211FmPGz8MLPqd3FtpvAxDemO8trIJqUekPVVGO3INgyZHbgQ3vG3IWvAf2cyVcG2JW0S4ud-etB6', 'width': 4160}]",-2.7716891,118.761963
"4WV4+VM4, Rantedoda, Tapalang, Mamuju Regency, West Sulawesi 91352, Indonesia",Limbong Dehata,ChIJw4zvfSo7ky0R860Umf798YI,5.0,"['tourist_attraction', 'point_of_interest', 'establishment']",5.0,"[{'height': 3072, 'html_attributions': ['<a href=""https://maps.google.com/maps/contrib/112947265993661866772"">Asrulgabir 1994</a>'], 'photo_reference': 'AUGGfZmVjI1BMVq8y1bpsVqhE9zHp6Wb5INrFekCJXBHFqjxIctBCjMGHlItM-Mw8vgc472ExGHjLLhszUCuQotYG5MsbyCAPx3bDfW3I7XuEB5_QYbWwDjpJs_JeZ9i124o0CoN3Xet0PBQ3lnqToxBL3tKWawvf0JJIYnGYImwmrhuI4VA', 'width': 4608}]",-2.8553572,118.9066908
"4RX8+2Q, Pasabu, Mamuju Regency, West Sulawesi, Indonesia","Wisata Dusun le,be",ChIJQQPOMAAvky0RfWM5XR7Jgeo,0.0,"['tourist_attraction', 'point_of_interest', 'establishment']",0.0,,-2.8523947,118.8169741
"4RW3+Q8, Dungkait, Mamuju Regency, West Sulawesi, Indonesia",Pelabuhan Dermagah dungkait,ChIJG5pEixwvky0RuygKrzDL2y8,4.0,"['tourist_attraction', 'point_of_interest', 'establishment']",6.0,"[{'height': 2992, 'html_attributions': ['<a href=""https://maps.google.com/maps/contrib/115159097034470632457"">Andrew Lee</a>'], 'photo_reference': 'AUGGfZl9MXvoBgEmCgw5zIbfQzjD_dSfwl2VilA-3teFlzsTTXoXr9b821jOwz78u8b5kVDTlWPJvPIPeHcvxfaz1P1mBOFOZ7q3hxTGxCbE0PKjW62ZKiEH1I0mxUJYtqws4pLnwxhiKU_Izb8sdSPvYPyPYR_DGmtbOF5PeVNRaMwoCC2K', 'width': 2992}]",-2.8536022,118.8038523
"7VW8+2GG, Kasalai, Serasa, Pati'di, Kec. Mamuju, Kabupaten Mamuju, Sulawesi Barat 91512, Indonesia",Sungai karema,ChIJOQUX23DZki0ReT6gWXEWV0I,0.0,"['tourist_attraction', 'point_of_interest', 'establishment']",0.0,,-2.7049482,118.8663384
"4W45+82C, Kasambang, Tapalang, Mamuju Regency, West Sulawesi 91352, Indonesia",Air Terjun Timbu,ChIJoXChLVo7ky0RussYNiI3yck,5.0,"['tourist_attraction', 'point_of_interest', 'establishment']",2.0,"[{'height': 4000, 'html_attributions': ['<a href=""https://maps.google.com/maps/contrib/105298138760239271253"">Firmansyah Muhammad</a>'], 'photo_reference': 'AUGGfZnmn4zwxpHrj3sWqkr9-04rYIZIgL_Tnb3cWrKiRcNlqSLB3VJZ1hAD4JM53tPy3ks5tcZlGFMNd552FZCpwZgEjXcAdNYn2hofX2BGGzlFRFOzkQYhpndq-U87sQJQzb6dMrw-F2aKuL6xBmfkF5ilVGDklHwtB4g1iuCo1XSeLFyF', 'width': 3000}]",-2.8941933,118.9075181
"4V7P+62P, Kasambang, Tapalang, Mamuju Regency, West Sulawesi 91352, Indonesia",Pantai Kasambang,ChIJF_TfHPU6ky0R_FzPrsFXTZU,4.8,"['tourist_attraction', 'point_of_interest', 'establishment']",18.0,"[{'height': 2448, 'html_attributions': ['<a href=""https://maps.google.com/maps/contrib/107253766169386833597"">A Google User</a>'], 'photo_reference': 'AUGGfZkxXApEb6hM-ludnAQjyzsndXgSW4-bB3oJtZ8WpukHNvNEe_Q7fbnN__WT19ZM1lGzzgEEd76nZhd1AOD3ELidSXB-T7suR6UA7YuAZ0yqet03xTnefBTColeIhA0pxBAkVm-qfLG2iVT9EHtdXHiL5Ou7eOZt_w-ZzrqS7qgZykFa', 'width': 3264}]",-2.8869096,118.8850794
"4V4P+3M, Jl. Poros Majene - Mamuju, Kasambang, Kec. Tapalang, Kabupaten Mamuju, Sulawesi Barat 91352, Indonesia",Pantai Marurinding,ChIJLf5T48w7ky0RNdmlNVshteY,3.8,"['tourist_attraction', 'point_of_interest', 'establishment']",16.0,"[{'height': 2448, 'html_attributions': ['<a href=""https://maps.google.com/maps/contrib/105298138760239271253"">Firmansyah Muhammad</a>'], 'photo_reference': 'AUGGfZnPt9kSliyLs12M5pRhhp-txA2wPE7xeR2SxeQwAZ48yIpZxiDCAmETEK5TCPcVjL5lkXNnIk2HZHVX5wGQrJ3hVTQfbgoRO8wCfUejbFbhdT_oX1p1jruK05HF6KMBcdLTjcpAmyvSsykTRQ6uEqPhhA2o6id9zkyCCkZHoDkf5vtZ', 'width': 3264}]",-2.8913919,118.8861901
"Jl arteri no 1Kabupaten, Kabupaten Mamuju, Sulawesi Barat, Indonesia",Pantai Jalarangas,ChIJq0V0qNnZki0RUmKilqYfII4,5.0,"['tourist_attraction', 'point_of_interest', 'establishment']",1.0,,-2.6784465,118.8793874
"4W9V+G9, Taan, Tapalang, Mamuju Regency, West Sulawesi 91352, Indonesia",Sungai Taupe,ChIJI2a5w787ky0RhdbmjTCpYwQ,0.0,"['tourist_attraction', 'point_of_interest', 'establishment']",0.0,"[{'height': 4000, 'html_attributions': ['<a href=""https://maps.google.com/maps/contrib/116932495764428371406"">A Google User</a>'], 'photo_reference': 'AUGGfZnV0Gk3TX89Xjc9C1tkx4kllcx_kbEZssy1VvDkmRWK6mIRJRfUvogV4aKo-t3yqr88Vm2mt_G_H3iua9xAMKCStNuEEKL5E_JiXK6mZ2CGstUQl56C0eixrYxPyBZEq_2bUl6o-tnn2eb4VU5q9fpZdeL6K4EhJs002F3Dblp-trA0', 'width': 2252}]",-2.8812098,118.9431763
"5Q8M+6HF, Dusun ngalo, Dungkait, Kec. Tapalang Bar., Kabupaten Mamuju, Sulawesi Barat, Indonesia",Bukit Ngalo',ChIJUxW_0l0vky0REvRpVG6pKEk,0.0,"['park', 'point_of_interest', 'establishment']",0.0,"[{'height': 8000, 'html_attributions': ['<a href=""https://maps.google.com/maps/contrib/111374912467704308073"">A Google User</a>'], 'photo_reference': 'AUGGfZmQSCaF22juinjRhvKoRojKEwna0H27QUmBeVn2FX2MbgangUd7bd7wOByzJccXfX3rJFO30T-uLAp0EywMbsdcshdVKjuAnqW-hb-b3wckQikulRqEGlMBLidQB7_fcU3b6wiAixOGi_jsMQZvPl1lGLZbbiAp3WmwuJqmb8_Seo1j', 'width': 6000}]",-2.8344302,118.7839274
"8V4F+262, Jl. Soekarno Hatta, Karema, Kec. Mamuju, Kabupaten Mamuju, Sulawesi Barat 91512, Indonesia",LYWANZA POOL & RESTO,ChIJ7TO9yMfZki0RV8fyRSAueTA,5.0,"['tourist_attraction', 'point_of_interest', 'establishment']",6.0,"[{'height': 2252, 'html_attributions': ['<a href=""https://maps.google.com/maps/contrib/104706373748721149367"">A Google User</a>'], 'photo_reference': 'AUGGfZno7hgEcWzki97DWm7Z1b_Ep1HIsarprC7QKfEReW1JnU6HCqY7UK6x0EYlH09xbDfzScYJ8miyHHg3z3EM_AlR6NvyjWvUExLBvZBmdW11nuzduUbFP1WUS4vMdMxNP_WrUszb56Q2nSjGZpW3830uArTt_qWxRQPJHAGcTm9dBDlw', 'width': 4000}]",-2.6949892,118.8730269
"5R6J+5HH, Pasabu, West Tapalang, Mamuju Regency, West Sulawesi, Indonesia",Puncak Tukda,ChIJfQZlGQsvky0RrZSVaKp4XDk,5.0,"['park', 'point_of_interest', 'establishment']",1.0,"[{'height': 960, 'html_attributions': ['<a href=""https://maps.google.com/maps/contrib/113353461821049503226"">Basri Ujung Bundu</a>'], 'photo_reference': 'AUGGfZnRlAjj2naffUmYWdaergxDds33AXUlv2sB2BtmIVtuGfrzm-iFScMnxkSx0s1o4SKqCGM2bBI3uObBtFQZy28_PBN7zskKi6Nk00o9tKhlEroJR1J_OfQTm2IZZtuuXMEGtOZa91GCsnp2TJmDDkwR8AZty6Jb42oPG_HefRqSrRkw', 'width': 720}]",-2.8395554,118.8314761
"8VCJ+V52, Rimuku, Mamuju Regency, West Sulawesi, Indonesia",Tepi Laut Mamuju,ChIJ29qWc-HZki0RIec9DJAyMMc,4.8,"['tourist_attraction', 'point_of_interest', 'establishment']",8.0,"[{'height': 3120, 'html_attributions': ['<a href=""https://maps.google.com/maps/contrib/101908482462534037602"">J Moleono</a>'], 'photo_reference': 'AUGGfZmCK3xH4yjXk0Ncov-92ideFKQlFDSCiUfsBPVYMWeyUx8QTsVFz6yLBMQiPGIYwKlXWujAYpuCCFRgDn4ygAtfcq9lnZyDTN3JarXIQyCEDQdonhIRLzSTpZE1J4Cz1SfaIa2V7K1H-QtenfV8SRWvtGCIzkCHjebDjgbxip2bWbUK', 'width': 4160}]",-2.677864,118.8803761
"5QWG+5RX, Labuang Rano, Tapalang, Mamuju Regency, West Sulawesi 91352, Indonesia",Bukit Teletubbies Tappalang Barat,ChIJY0Az5ucvky0RF7yLnZCjGeo,0.0,"['park', 'point_of_interest', 'establishment']",0.0,"[{'height': 540, 'html_attributions': ['<a href=""https://maps.google.com/maps/contrib/112970490651982274615"">A Google User</a>'], 'photo_reference': 'AUGGfZnRCnb093LFMK62Zx8NyYbmASiH9UmGhbk4XHrL_SAYMCC3knyOF-hotUOUDEU58Uw541gZir_rLfEFLIOrYj0k_5_0YpU6pot-YLdAfPcfTJGuyDXcZSqBTl7cTKm6OPY6ajyjVJNcoodYMb7fxs3tSZ3b2Q13CnfzQ39AH6eQrvPc', 'width': 720}]",-2.8045073,118.7771027
"5X7R+59J, Kopeang, Tapalang, Mamuju Regency, West Sulawesi 91352, Indonesia",Wisata Air Terjun Batta'ang Balo,ChIJ0WggWhcjky0Rs8zQuLmkmso,5.0,"['tourist_attraction', 'point_of_interest', 'establishment']",1.0,"[{'height': 1220, 'html_attributions': ['<a href=""https://maps.google.com/maps/contrib/116932495764428371406"">A Google User</a>'], 'photo_reference': 'AUGGfZmoVjK83YhphWNXQCpPA1Kt4qz8baWOpuxDMe5KRbc2s3tTMWrb9Y9cHNCDz7oMLXGAAVHJM7wFHZH-C2hDEeRu2AzOpghiGIzDE-cP-bxaPtqY7bQxYMmbgFSDRo7T1oNFtl1yZfbWsiyVQz-XdbRAz1RNUzHibsfg2zIhENoHTd0V', 'width': 720}]",-2.8370476,118.9908885
"4WF2+97G, Kasambang, Tapalang, Mamuju Regency, West Sulawesi 91352, Indonesia",Arabetteng,ChIJ_9jhOwA7ky0RKWw5MrzGiJY,0.0,"['park', 'point_of_interest', 'establishment']",0.0,,-2.876769,118.9005423
"3WX3+J2, Taan, Tapalang, Mamuju Regency, West Sulawesi, Indonesia",Tapokki,ChIJhfOawyY7ky0RG24XuoyJwUs,0.0,"['park', 'point_of_interest', 'establishment']",0.0,,-2.9009364,118.9025831
"4W93+JGC, Kasambang, Tapalang, Mamuju Regency, West Sulawesi 91352, Indonesia",Tanete Tombang,ChIJVaRJWwA7ky0R-oMtD2__GHA,0.0,"['park', 'point_of_interest', 'establishment']",0.0,,-2.8809485,118.9037539
"4WV7+8W7, Rantedoda, Tapalang, Mamuju Regency, West Sulawesi 91352, Indonesia",Tanete lumbo,ChIJzdFiZkE7ky0RLQI1fc_eOnw,5.0,"['park', 'point_of_interest', 'establishment']",1.0,"[{'height': 4032, 'html_attributions': ['<a href=""https://maps.google.com/maps/contrib/109776705723720198640"">A Google User</a>'], 'photo_reference': 'AUGGfZl5RsAhodd5H4ix7sTsWPHN0ZLgIw7IzDASxCKsYssRVb_uBU0317s1u0aTKT6OPg2czwjZIzIlHzxf8HFNTCDKWCypWFJdOEB8PcqJyip2piBM0VL0xHBYtssMnzEOwPC_PWPO7ZxJiKQAIDVUCSwOSCxN2n7wmG_sJJeYcf8mm2ZP', 'width': 3024}]",-2.8567141,118.9148033
"XJ7X+QXM, Salulekbo, Topoyo, Central Mamuju Regency, West Sulawesi, Indonesia",Bendungan budong-budong,ChIJbxQOBwCPjS0RIevWzp53Qw4,0.0,"['tourist_attraction', 'point_of_interest', 'establishment']",0.0,,-2.0355277,119.6499162
"X6G7+FWH, Unnamed Road, Tumbu, Kec. Topoyo, Kabupaten Mamuju Tengah, Sulawesi Barat 91563, Indonesia",Batu Miana,ChIJDUY3kSRljS0RNftNJduzvfw,4.3,"['tourist_attraction', 'point_of_interest', 'establishment']",48.0,"[{'height': 3024, 'html_attributions': ['<a href=""https://maps.google.com/maps/contrib/114952064275255286843"">Yudi Ahmad</a>'], 'photo_reference': 'AUGGfZlx7G6CpTk_dSj1Eugo7_AoB2f9pXHNevSHnNcDmTmLwxkFW_Isrul03m0VjROh-W8eLRNV0ab_ZWJZugalE7rT-xmKff_dQLNGmCPPEctCQe3w4eo-07MYUq7UUmtuQXj2_KjIHYVPOmIQ6Geu04F1fAD2eI0eHWH2Q4TgmDH6BRHf', 'width': 4032}]",-2.023817,119.2148516
"W962+W8X, Tobadak, Central Mamuju Regency, West Sulawesi 91563, Indonesia",Spot Mancing,ChIJh-eWLQB_jS0RGQhdrtZATtM,0.0,"['tourist_attraction', 'point_of_interest', 'establishment']",0.0,,-2.0874014,119.3507531
"Tumbu, Topoyo, Mamuju Regency, West Sulawesi 91563, Indonesia",Pantai Tumbu,ChIJDZUSZlBljS0RAyUIsZa0usc,4.4,"['tourist_attraction', 'point_of_interest', 'establishment']",78.0,"[{'height': 3264, 'html_attributions': ['<a href=""https://maps.google.com/maps/contrib/111081164816089493108"">A Google User</a>'], 'photo_reference': 'AUGGfZl1RWeFnb8rC1dPshqCtL--qD_8v6xeeJGSimufYzYMXjrSEeQj9VoWcCMImtvejChA-zLQFpoGbAHWcXb-FfgWJSuolF1aaTgomNGN7t0jB4_1369m2jS1i4cjby8fRGwh_djYi7RKzxJOtytir2GNUd9DUIB4e5O9gMvj9fK_HqOr', 'width': 2448}]",-2.0166196,119.2215951
"R574+MJV, Lumu, Budong-Budong, Central Mamuju Regency, West Sulawesi 91563, Indonesia",Pantai lumu mamuju tengah,ChIJO61BCVydki0Rr5y8cWxsXfE,4.6,"['tourist_attraction', 'point_of_interest', 'establishment']",8.0,"[{'height': 1920, 'html_attributions': ['<a href=""https://maps.google.com/maps/contrib/113623948492500403566"">Shidiq Juliansyah</a>'], 'photo_reference': 'AUGGfZnjFXyAxGKLd6UcmSn-DQkXjWevUODHgRH2Kr5wfRwLkOivnBwB8exXf4t-2lwcOWsVoN_32RtFB4BzGCxAn0XLdbSvhArUQwd1z-Qg1_LahAmCp-aAfrzhL0ZVEQTAP5tnlLX58e5-JOOhYhTNhO3Yf4GYBZ86uphvmPBFhwO7Zyzm', 'width': 1080}]",-2.185751,119.1565447
"W9RF+4RH, Salulekbo, Topoyo, Central Mamuju Regency, West Sulawesi 91563, Indonesia",Air terjun Kalando,ChIJ2SrXwyB5jS0RTEa_UNJuLKc,4.7,"['tourist_attraction', 'point_of_interest', 'establishment']",14.0,"[{'height': 1536, 'html_attributions': ['<a href=""https://maps.google.com/maps/contrib/110019615437940029210"">A Google User</a>'], 'photo_reference': 'AUGGfZkeVj8QHoJv1f_77h1VmQFUAT1MooWdqcZhIOLbKBOykLJJVAVzH8WcOdPZz17ag1UFFMsrCMU5RI9ERL1VfOEeU5qQFQA25IPmw4kaH-wNoAq7pOuXfjGzK_lBitFC_o1qE8MegWnz1cUzsDaLRA0yqfVkKYsyZSdFcxcj_DeQhROz', 'width': 2560}]",-2.0596842,119.374606
