formatted_address,name,photos,place_id,rating,types,user_ratings_total,lat,lng
"CW36+56, Maliwowo, Angkona, East Luwu Regency, South Sulawesi, Indonesia",Agrowisata Durian Dg. Baso,"[{'height': 4608, 'html_attributions': ['<a href=""https://maps.google.com/maps/contrib/114537006968673716198"">Rudi Nkri</a>'], 'photo_reference': 'AUGGfZl4T8FHsR2Ufrq_3aIb4dhXQKSi6YSlBkxvbtFFAT3UcytcJkxr8yqYufJEfqYUWgjL6lcwO23TbzptKiJhSnPd4NJSLAcj19zapWM6B_zpqG8AIhmOwnZW5FMYur4uyyyMXSTRj1nKL8-f0uw0k1cIrFd3IkehnVDsQYHHT78vEzpO', 'width': 2592}]",ChIJVe62hWxVkC0RzIBBFiyQtnA,0.0,"['tourist_attraction', 'point_of_interest', 'establishment']",0.0,-2.5970011,120.9105569
"HX82+H8, Mantadulu, Angkona, East Luwu Regency, South Sulawesi, Indonesia",Pondok kebun,"[{'height': 4080, 'html_attributions': ['<a href=""https://maps.google.com/maps/contrib/102622085374476205392"">A Google User</a>'], 'photo_reference': 'AUGGfZnxSJmAYpmnePjh1ReWOx_w_3oOyG8y8A3Nr-7hur7A8ebGaFiOEycESmoDF7x6htrITlmi3cnrjKWDu_NlfuXqZrcfuMPBVn1qqXpW1LZrr_-6nKiqPgl-EEbNJgnBPGSitY81tASs6gplg7q2c1MbRNG-AG5PmqJMdR-h2zSdMb47', 'width': 3072}]",ChIJA2MtllNLkC0RuIREIiajvNU,0.0,"['tourist_attraction', 'point_of_interest', 'establishment']",0.0,-2.4335579,120.9507809
"Taripa, Angkona, East Luwu Regency, South Sulawesi, Indonesia",Air terjun kembar,"[{'height': 4032, 'html_attributions': ['<a href=""https://maps.google.com/maps/contrib/102478719618356527476"">A Google User</a>'], 'photo_reference': 'AUGGfZmRuivNYOLmfazqQoCo1b0eq0Cg8pt5ebUQQ-jZCExhFWApXgzxViZLbbxUF4KfzHqwocOQb9VW2L1dNKradtH8R1ZSHxDYvbFdiidqeIpdQExlkREVs0QGXFt9G8EHoLhQbXWt5f1mOVZKQJt_FyXOmkAfbi_tz5HxGXjq2mBCiudT', 'width': 3024}]",ChIJ8bdxz0C1kS0R976K0s7Gh1I,4.2,"['tourist_attraction', 'point_of_interest', 'establishment']",6.0,-2.3885306,120.9072756
"935J+HR9, Balantang, Malili, East Luwu Regency, South Sulawesi 92933, Indonesia",Objek Wisata Kapal Tenggelam,"[{'height': 3120, 'html_attributions': ['<a href=""https://maps.google.com/maps/contrib/102536017871131892523"">A Google User</a>'], 'photo_reference': 'AUGGfZlX0YyQ9Gyfml0y5JvZpVjz1Sz-sUlMzbAIRJvPN3R9r2xXtKLqzLej-n7Zr8IZWxNyObS8XMFsMoUCQSgt4oEnCOSryF5QpuMleBkkjLBNlMpOcDvZ1o-xd8ueZOUyP5-SYIAMnLELTOSRoU8HoNK9Kh6BhOAVibojgCqPsvI-cpY', 'width': 4160}]",ChIJfeae_JVXkC0RTUGusL_Sq-0,4.8,"['tourist_attraction', 'point_of_interest', 'establishment']",9.0,-2.6410763,121.082125
"G4HG+HR, Matano, Nuha, East Luwu Regency, South Sulawesi 92983, Indonesia",Tugu tongku Tambee desa Landangi,"[{'height': 960, 'html_attributions': ['<a href=""https://maps.google.com/maps/contrib/118431064486929560277"">Kristovel Kadoena</a>'], 'photo_reference': 'AUGGfZmB5j6HVmgZM4ZNtufbEzz6yjEACaiuZ0_-gSYTRTtFGuko89t0Sz05IAY4rl65VTYWTS3bciou6t2o-bsq9AZuxOFbekNm0NeXJIyXsz-4q0qfOt_3VvEw_mU8Gv0pka2nT9EAn-1fqui5Yj8dB951cQ7DwQQrDio_4UJLU2s8X0hx', 'width': 720}]",ChIJNX5e9UhFkC0RS81bFvNFNDc,5.0,"['tourist_attraction', 'point_of_interest', 'establishment']",5.0,-2.4711184,121.1271425
"9M4P+JQ9, Burau Pantai, Burau, East Luwu Regency, South Sulawesi, Indonesia",Dermaga Burau Pantai,"[{'height': 1504, 'html_attributions': ['<a href=""https://maps.google.com/maps/contrib/117809341259152099624"">A Google User</a>'], 'photo_reference': 'AUGGfZlTRw6-T91fW05DHMVnjmU9lejoq4wSzMSiOjeySlRrhAKWiqSWWGwpxXPqad8wjuGHitNgzW161iYra4xmOXuThsLijBuj2BMfPPRA9oiEynblOmfQkX9nN9tiST0mESS_CiA_pSvHK_W8HoWUCcyuMAtaNJ2GrEFNu9-DCyLUlFj9', 'width': 3264}]",ChIJ-y8aISGnkS0Rx-hdlUqOUTA,4.8,"['tourist_attraction', 'point_of_interest', 'establishment']",4.0,-2.6434522,120.6869854
"9P7G+WHG, Mabonta, Burau, East Luwu Regency, South Sulawesi 92975, Indonesia",Lemo Beach,"[{'height': 3456, 'html_attributions': ['<a href=""https://maps.google.com/maps/contrib/102950362374827207736"">Hendrik Katiandagho</a>'], 'photo_reference': 'AUGGfZlCCcZnhraqYfGNS2JEvq18n3UI8u0RHzG51l_Okcc5wHRVOVR-VqQvkw1NsR3o0jOiNxeMv5fFwDmGOxiQkaHtGs1-pykRXTS-b6bHPew_QgI41KSwu24-IQBbf-svIkbCHAD84C8vcA-OVyRc0_czZILh6f88foGx0nscVt7_ecbX', 'width': 4608}]",ChIJHWTKznqokS0RI_-LWx9Dtkc,4.0,"['tourist_attraction', 'point_of_interest', 'establishment']",439.0,-2.6353551,120.7227414
"CJHW+Q7F, Unnamed Road, Lagego, Kec. Burau, Kabupaten Luwu Timur, Sulawesi Selatan 92975, Indonesia",Wisata Alam Gua Batu Putih,"[{'height': 3468, 'html_attributions': ['<a href=""https://maps.google.com/maps/contrib/105606639815625370422"">Laode Pashi</a>'], 'photo_reference': 'AUGGfZlCbj9nfN5b5f-29PugTG2u8uPXQalYwhl5b2O4HR5u6uLYUhbWujmDHDOW4qCzqm0qq3jZjKe3j_avztnne260YES6DnFWV7dlLxJXOftUZ0wJQGy9wOpTFlHP1EXVb72JYO4_ukNfYTsNwQ9Ys_19D1mVwEr5p2mGNer9dKVu0_LZ', 'width': 4624}]",ChIJ89XM40ilkS0R1667gMR0EZI,4.3,"['tourist_attraction', 'point_of_interest', 'establishment']",9.0,-2.5705731,120.6456686
"FM4G+RV, Cendana, Burau, East Luwu Regency, South Sulawesi 92975, Indonesia",Air Terjun Dusun Kelapa Dua Desa Cendana,"[{'height': 3468, 'html_attributions': ['<a href=""https://maps.google.com/maps/contrib/118292332624610538113"">Akisman 86</a>'], 'photo_reference': 'AUGGfZlyeI7JFSXGhgWrD42qtjuy8VoI9LKc7G9FxiYqp9Bcwvvt0fQcKjDIbZ1CdkwZopem2L6Ckx52TURK-y32pmxe8J7pwgM_zHNZ3-p3CtXnLuvmKKhsQ9T2byDrJ7qb7KOIzzKGymkJRmISv3f1DtLHTDOMmA9B1nUY4Sehwcefwg69', 'width': 4624}]",ChIJAeciIWilkS0RDHAsppppGhE,5.0,"['tourist_attraction', 'point_of_interest', 'establishment']",3.0,-2.5429814,120.6771836
"CPP4+W9, Lambarese, Burau, East Luwu Regency, South Sulawesi 92975, Indonesia",Bendungan 1 Lamberese,"[{'height': 3096, 'html_attributions': ['<a href=""https://maps.google.com/maps/contrib/117457184077080680398"">A Google User</a>'], 'photo_reference': 'AUGGfZlQlqJjU5nUlmu7Tgx653DJFHU_1X-dlMSgu8oaBBzaHC2kVLuqTGkkgX4vgRJeLv2l8DNYaLStpkQxd9zFEkVDS7F7TRwD8G5CGF0tHY7IJgNgUFZ106LUyEOCKeBhj2f4bMS4ZHJy9cgvfGQ_y7hlNyXxSxzFvXHroSTdYAkLOeAB', 'width': 4128}]",ChIJd2WmAs-lkS0RGVuq00qmLrs,5.0,"['tourist_attraction', 'point_of_interest', 'establishment']",2.0,-2.5627153,120.7059855
"FMMV+4P8, Cendana, Burau, East Luwu Regency, South Sulawesi, Indonesia",Permandian Air Panas & Arum Jeram,"[{'height': 1599, 'html_attributions': ['<a href=""https://maps.google.com/maps/contrib/111745963615961213045"">Ina Adyt</a>'], 'photo_reference': 'AUGGfZkonXumV0xEllbZJg4Qj1cxL5uQN0oOqm6_9RcvsbNk5B1ehzL9VShazsnQufd1986M1nO4SCH2LoLgkYDs5q5KAuFQUpmj-wGUDT1-5KaFRfu-w4cwK6XNF8x55Io46mBrp5Ih4OsKzlUMkxkeEwGvQkOQ5SibJMi7snf5T43bD6RP', 'width': 1599}]",ChIJYZGV5LS7kS0RyK0mjC_gc6Q,5.0,"['tourist_attraction', 'point_of_interest', 'establishment']",2.0,-2.5172074,120.6943289
"CPG4+H9, Jalajja, Burau, East Luwu Regency, South Sulawesi, Indonesia",Bendungan 2 Lambarese,,ChIJ5Z3nrv-lkS0RW1yQV4zPIqM,0.0,"['tourist_attraction', 'point_of_interest', 'establishment']",0.0,-2.5735657,120.7058792
"Pantai Ujung Suso, Mabonta, Kec. Burau, Kabupaten Luwu Timur, Sulawesi Selatan, Indonesia",Pansus (Pantai Ujung suso),"[{'height': 4160, 'html_attributions': ['<a href=""https://maps.google.com/maps/contrib/106787706546909902370"">Yulia putri utami</a>'], 'photo_reference': 'AUGGfZkE04ISfff-Lhj05rmn6EPTzYzoZs-lz7L87pLHPQIBgWOFCtlHWUXqgblzCyUIMvWTQ1IBAEckYVh-Z4vtrV2H3_2qPHvjAufolZ-gQ7j58ZxaqO8_izUKo3SJxUwZyycVHwC_9NXO8uzIfYGiHXMXQJ9iCjFS81a16VPZBUowVaUV', 'width': 3120}]",ChIJg-9JN8-pkS0RUyZHwPx_exA,4.5,"['tourist_attraction', 'point_of_interest', 'establishment']",2.0,-2.6369705,120.7458699
"CR33+4F4, Bawalipu, Wotu, East Luwu Regency, South Sulawesi, Indonesia",Rumah Andika,,ChIJvWWTVACpkS0RQn4kdQ0waTM,0.0,"['tourist_attraction', 'point_of_interest', 'establishment']",0.0,-2.597244,120.803703
"CP6C+953, Lambarese, Burau, East Luwu Regency, South Sulawesi, Indonesia",Pantai suso,"[{'height': 4032, 'html_attributions': ['<a href=""https://maps.google.com/maps/contrib/106152479446913697650"">Haryati Atii</a>'], 'photo_reference': 'AUGGfZlTrN2oukRen75XA5GBIzBXN2U0ltjEOP2sQsEfrulvOg73Wk8toIpuJaHAX0XYmuGU0kUdEn2jKrqmGBeS9mhmefALPdHNHP_EF3gP7NEAXXwOwToipzG-xveA1xOTDwEx83MJrkuKus2AL4NozTwfsPTZdmlXOEsAJ50zRGnJoU0N', 'width': 3024}]",ChIJSSZFe3WvkS0RM6ideqWeERk,5.0,"['tourist_attraction', 'point_of_interest', 'establishment']",6.0,-2.5891121,120.7204197
"HRCF+47, Teromu, Mangkutana, East Luwu Regency, South Sulawesi, Indonesia",Kolam Desa,,ChIJy1UFfyy1kS0RVf2Q4w1Trjg,0.0,"['tourist_attraction', 'point_of_interest', 'establishment']",0.0,-2.4296864,120.823138
"dusun sumber sari desa, Argomulyo, Kalaena, East Luwu Regency, South Sulawesi 92973, Indonesia",WISATA ALAM PUNCAK KATULISTIWA,,ChIJHSdq2EBNkC0RnY86SB4GAJI,0.0,"['park', 'point_of_interest', 'establishment']",0.0,-2.5015835,120.908916
"East Cendana Hitam, Tomoni Timur, East Luwu Regency, South Sulawesi 92985, Indonesia",JEMBATAN GANTUNG CENDANA HITAM,"[{'height': 2322, 'html_attributions': ['<a href=""https://maps.google.com/maps/contrib/114403127383338994856"">Abdul Munir</a>'], 'photo_reference': 'AUGGfZkMFWQePA3hfo2INqeHEsf3dlnccYnhkXm-NKT5DWAtKiWiik6e8WbaE2WmUoa1_haJKWW5tg1BrL-8vrhG_C6-HroBNDVJR4mZTh-_fx1Kpcy76VR9t3ZRh_ChS7Gq7B7GXdQ1bD-ArIL16kSj5FqVFCaiYvxyvAiJlOlKOl0bX4MU', 'width': 4128}]",ChIJXe8dZbtSkC0RFUQbPxQOBlM,4.0,"['tourist_attraction', 'point_of_interest', 'establishment']",9.0,-2.5309843,120.9125015
"HQWW+MJ3, Jl. Trans Sulawesi, Kasintuwu, Kec. Mangkutana, Kabupaten Luwu Timur, Sulawesi Selatan 92973, Indonesia",LORONG PERMANDIAN UELANTI,"[{'height': 958, 'html_attributions': ['<a href=""https://maps.google.com/maps/contrib/115053741641217635248"">Admin DNS</a>'], 'photo_reference': 'AUGGfZnajSAOXvv4HsXIjjqtDV0NzO-ODmapuBRqczgLTuipFraeY8uSOS0HEf4_rLEUG_64_OGMbsh-9Jfqo_q9SczyohoNtd42kMoJExNM7vQBj8XY_7yIA9R8qgBMWAPu7onYIhVaLZJlJj3_7B0xXU-P-Vy1E5uUSFFz__zUAM94gni8', 'width': 1280}]",ChIJXxv_GNq3kS0RZlRESl1xAmc,4.3,"['tourist_attraction', 'point_of_interest', 'establishment']",7.0,-2.4033582,120.7965563
"HR75+36G, Jl. Trans Sulawesi, Kasintuwu, Kec. Mangkutana, Kabupaten Luwu Timur, Sulawesi Selatan 92973, Indonesia",Sungai LAIMBO (palpad),"[{'height': 1920, 'html_attributions': ['<a href=""https://maps.google.com/maps/contrib/109436962835739663168"">A Google User</a>'], 'photo_reference': 'AUGGfZk4COE8TYLds6IpB5tRmAOsHciNCdTSVs0A0xEjXCXstyjbbHyMbqSITxjKQ5FIYb3hnsDPmG4st_u8NfFutk650KnTsbyt5Txml_j1xmfB50J0pc8mgbt1V4jiQKzC2UCE0chEDH-ZahbggvGbd64iLRTKMtfI8OOmSB0CZLOY1Rfg', 'width': 1080}]",ChIJK6CxPBi1kS0RyaX72vu8384,5.0,"['tourist_attraction', 'point_of_interest', 'establishment']",2.0,-2.4373108,120.808077
"HQ9F+68C, Unnamed Road, Kasintuwu, Kec. Mangkutana, Kabupaten Luwu Timur, Sulawesi Selatan 92973, Indonesia",Peremandian Malela,"[{'height': 4160, 'html_attributions': ['<a href=""https://maps.google.com/maps/contrib/101987552079303123999"">A Google User</a>'], 'photo_reference': 'AUGGfZmWlDNFgBVa-mUudQBQTYUFKK-XZ2K2HVe2Wfb34apW9LtI6d0-__6YNXKmDdjOgCC2wk8jo2B5-tddmahKHME9PUiarKMGU92BuSHcmm9qvqN2BbyfZwqdlfrUeYXN-A_iy7126tXRDYAna4TBkkt1aZj5E2X7AwsIErN6Qdo2ij4n', 'width': 3120}]",ChIJj2w03_e3kS0R_rnzNtAZtrY,4.5,"['tourist_attraction', 'point_of_interest', 'establishment']",19.0,-2.4319368,120.7732681
"FRG9+J25, Lestari, Malili, East Luwu Regency, South Sulawesi, Indonesia",Yanto,,ChIJ_WxEwuutkS0RHgGFsBsdDUU,5.0,"['tourist_attraction', 'point_of_interest', 'establishment']",1.0,-2.5234761,120.8175544
"FRRH+WMM, Bangun Jaya, Tomoni, East Luwu Regency, South Sulawesi 92972, Indonesia",Taman Walet,"[{'height': 720, 'html_attributions': ['<a href=""https://maps.google.com/maps/contrib/108223908940354765750"">Sekdes Bj</a>'], 'photo_reference': 'AUGGfZlpZLc1LIk3abfCt0qrUAD-yqoXRMHTLfVA1XENYS8eoIs7rxJYwPTiPbiq-ahir9AYJxa92VADICAPJuo7SDr2usT3eWk8Eo-RGgYcpb7mk7DENPZZJAlYqj7DfkbmRuvHQBJxI_yvYNLGsy-ZsupssJu4EQHqrH-J-rG1GThOvRMS', 'width': 960}]",ChIJfRL_6M-zkS0RQhuKIsSE8_w,3.7,"['tourist_attraction', 'point_of_interest', 'establishment']",3.0,-2.5076565,120.8291766
"HR66+542, Jl. Trans Sulawesi, Margolembo, Kec. Mangkutana, Kabupaten Luwu Timur, Sulawesi Selatan 92973, Indonesia",PALISU PADANG,"[{'height': 4160, 'html_attributions': ['<a href=""https://maps.google.com/maps/contrib/102241615202996016195"">A Google User</a>'], 'photo_reference': 'AUGGfZnXur8oGZzPfn9t56MfD3M0hXN2xcSQfL5WwUtweC2vc3UOT5jZ8YT5VZ9tB_3jI7Y8W0_CXUzB7awHdrNCugNe9vTxBk72U4_Keb3CLbQ0bR20d5CQcJ77aVIRpbkySt3WZMRTq0DfrYDK5UgQODAfOvdEm0UB3uTUy25U2Rlas5ZO', 'width': 2340}]",ChIJBz0VfT61kS0R4Snm3qo_OnI,4.5,"['tourist_attraction', 'point_of_interest', 'establishment']",2.0,-2.4396211,120.8102798
"HQC9+25G, Kasintuwu, Mangkutana, East Luwu Regency, South Sulawesi 92973, Indonesia",Sungai Malela,"[{'height': 3060, 'html_attributions': ['<a href=""https://maps.google.com/maps/contrib/112854591431574729728"">A Google User</a>'], 'photo_reference': 'AUGGfZlR-emMfRZDjYR-Xc2sM5YM1irOTYHKZ6tfrT3afJDIhwjWb1NeUm7BF-tnpLAllLhIbzZXkzRlEs25iTaAGlE2exx2ubIjnkcJH6kitaXID7zww3MiXgbxF5zz-A3dQH5wYdnqFoOzT5XoAXHbzAC8iI4YN7sdm-95_wQdKHtNthKh', 'width': 4080}]",ChIJscl29fC3kS0RQwYmHxjazdQ,4.5,"['tourist_attraction', 'point_of_interest', 'establishment']",8.0,-2.4299399,120.7679389
"GQ2Q+XP3, Balai Kembang, Mangkutana, East Luwu Regency, South Sulawesi, Indonesia",WISATA PEMANCINGAN PANORMA INDAH,"[{'height': 1200, 'html_attributions': ['<a href=""https://maps.google.com/maps/contrib/110193709649359014756"">surahmat pantan</a>'], 'photo_reference': 'AUGGfZksd3Zqw6mhBjYgqfQObVC9xSQ5X9tz5RaQp_4jb2HEyf3ZbNiS1pjswBI-9qQmq2Modb8UXs0I913_157drA0kWoHXK_q1YpfVWClHYXWmXZeT3xzRwKMi-mkOOco9iVCyixhcbGEZnMYXLKeqTE5zXJ6yrB_0TjIG4wqT4jSXijWN', 'width': 1600}]",ChIJW7hznyKxkS0RCs8W1J_HHf0,5.0,"['tourist_attraction', 'point_of_interest', 'establishment']",5.0,-2.4976213,120.7893059
"GR48+7GV, Jl. Tambang C Lrg. 4, Wonorejo, Mangkutana, East Luwu Regency, South Sulawesi 92972, Indonesia",Pemancingan etan rowo,"[{'height': 486, 'html_attributions': ['<a href=""https://maps.google.com/maps/contrib/112732730190044504387"">eko pramono</a>'], 'photo_reference': 'AUGGfZmsA5u-MT2yQ0C6Qa279ExublBfVl0oY-zx4gp35irzUxqQsnlULCqn65JjHY5QAb9spikep0W1dkPjLsr4NGDxtJ2GHBTRDgpiq9lEZxIZey2WEgrVsUjA0CDWUeo0dJkQU0DpfUYhu7MynM5sTlcT67DY8O4zkOGzVqLYEyvzeysZ', 'width': 1080}]",ChIJsUb6OPazkS0RSfxfm0-7NE4,5.0,"['tourist_attraction', 'point_of_interest', 'establishment']",2.0,-2.4942725,120.8162954
"GPCP+WPM, Unnamed Road, Kalpataru, Kec. Tomoni, Kabupaten Luwu Timur, Sulawesi Selatan 92972, Indonesia",Wisata Permandian To'liang dan Goa Tengkorak To'liang,"[{'height': 948, 'html_attributions': ['<a href=""https://maps.google.com/maps/contrib/106509035983911854784"">A Google User</a>'], 'photo_reference': 'AUGGfZk7gaqUTLYILfWA5mGW849Kto-17lyTvyqJlCn6JFElhm2tR8RM5Q-gdbPpEDAs1Q9yrpz2AttgGwGRztcuz5YLnUlxuv5SzCVGmeATzeUp7AP-0u39pdq8MvkiZPQ5RFUHbE9s8s0lAtXDJZPvSxfPGxCI1W3_2jU6cZLXSyhcveKf', 'width': 1054}]",ChIJQxhU8iCxkS0R77TYvnWWeyc,4.8,"['tourist_attraction', 'point_of_interest', 'establishment']",6.0,-2.477672,120.7367962
"HQVQ+XFJ, Unnamed Road, Kasintuwu, Mangkutana, East Luwu Regency, South Sulawesi 92973, Indonesia",Permandian Alam Uelanti,"[{'height': 1080, 'html_attributions': ['<a href=""https://maps.google.com/maps/contrib/111816580798691421346"">Ibnu Basyier</a>'], 'photo_reference': 'AUGGfZkqIOAGphDJU8-5IuMKQIC7N-HzoK8PMCirlG7xrX39rhtvZdXhosAnj6OiKewNs2RBrsSjJUDuhfAWIaw-CJWgZGONshRYCaRqSxhJ_LwuK12FFXGDAC7rSXWcHznHyXMA5G3izRLE8W9VpbdhdB4UPdkpIM7RZxkorqaNmYQXmngj', 'width': 1920}]",ChIJUfzAS863kS0Rqx2HxQMG3z8,4.4,"['tourist_attraction', 'point_of_interest', 'establishment']",65.0,-2.405028600000001,120.7886336
"GRX7+CMX, Margolembo, Mangkutana, East Luwu Regency, South Sulawesi, Indonesia",Cagar Alam Kalaena,,ChIJ751o_6O1kS0RmojH2d_1i60,0.0,"['point_of_interest', 'establishment']",0.0,-2.4513751,120.814246
"FR38+8G2, Tadulako, Tomoni, East Luwu Regency, South Sulawesi 92971, Indonesia",Taman Nirwana Park (Tilung),"[{'height': 960, 'html_attributions': ['<a href=""https://maps.google.com/maps/contrib/109559965238202830750"">A Google User</a>'], 'photo_reference': 'AUGGfZlDDb-0yMrS2b0yRQLg5f7NzZ7xUEES5NQdS_BU1cQzolbT94rNgVqGfQo6k2r2gJn_lkQ9ON5r8uedRiPBsxoos_BQH7RvYDx-aWIaEce1CspXs4nBbyCkXRaU6lNYQwX-CBGHb5yTz19Zpqddd12JiVlg0kIaY-0tCQvfOgVTek9u', 'width': 1280}]",ChIJxYiS3FKtkS0RnTaDGEsfaAU,4.3,"['tourist_attraction', 'point_of_interest', 'establishment']",80.0,-2.5467291,120.8162648
"G2RG+4P7, Parumpanai, Wasuponda district, East Luwu Regency, South Sulawesi 92983, Indonesia",Sungai Bengko',"[{'height': 5760, 'html_attributions': ['<a href=""https://maps.google.com/maps/contrib/111838455607828994615"">Icchang Icchang</a>'], 'photo_reference': 'AUGGfZltCyi9ijkT0w1o20utcq_j2OjaG_0CPxE04POp5Ys1MnLEM53YQdbnXyHKxeM5t3jceUCUwZ9Q_2G8wpGcG0CJZtAtg5CeAToXagBuk5MQq7wju6ZCTdEPEUUq_HJng7BnqncZWlXydCWGa1gwkrKTjVntIPdJsJn4U2X98v46Bqo0', 'width': 4312}]",ChIJ1ZTZaUBPkC0RkbjcUBkoOLI,0.0,"['tourist_attraction', 'point_of_interest', 'establishment']",0.0,-2.4597206,121.0267884
"G3HF+67V, Dusun Birono, Parumpanai, Kec. Wasuponda, Kabupaten Luwu Timur, Sulawesi Selatan 92983, Indonesia",Mata Air Birono,"[{'height': 1800, 'html_attributions': ['<a href=""https://maps.google.com/maps/contrib/106026951925454005535"">Nasruddin Nakir</a>'], 'photo_reference': 'AUGGfZm0NrVWn-A403LiYIW5K4l651qQ8zfVkYGsSoay0zgkaGVE3M4kFRO2FzMRfVW3vy021YASjVHxUuCE8HcSrT5rm2EPuoR2phlZ75NvYnc1w4VwKYU_bEAA8bjwP_GA2LT1OINQcl_1u9RgIBY0l6Kab8ovVavE7DVBeGclRwCPgDU8', 'width': 4000}]",ChIJBcWR1oJPkC0RtdO5NQj-kMo,4.3,"['tourist_attraction', 'point_of_interest', 'establishment']",3.0,-2.4718872,121.0731628
"GP9F+9WC, Unnamed Road, Kalpataru, Kec. Tomoni, Kabupaten Luwu Timur, Sulawesi Selatan 92972, Indonesia",Wisata Jambatan Pasokoran dan Curung Pasokoran,"[{'height': 720, 'html_attributions': ['<a href=""https://maps.google.com/maps/contrib/112071401515239612643"">A Google User</a>'], 'photo_reference': 'AUGGfZngF1thTP1qquI2ytLl1I6cw8sqvnIa0O-vkfNlzgPB5q0VmRrGBQkg06_89t7xp4Y6unlUGrVJP_PgUl23H2e-_DyezdMWQQoopQ0_emHpkqNyBXXBhq2PSLrXN654pmuyye7pOpfa0xsC8YZwMs8XX6TxW53Q2rFBsTewLVo5UMaa', 'width': 959}]",ChIJUVKDqMGxkS0R3nviBFKgenk,4.8,"['tourist_attraction', 'point_of_interest', 'establishment']",4.0,-2.4815749,120.724781
"GRVW+GRJ, Pertasi Kencana, Kalaena, East Luwu Regency, South Sulawesi 92973, Indonesia",Pertasi Kencana,"[{'height': 1280, 'html_attributions': ['<a href=""https://maps.google.com/maps/contrib/116077958594615685622"">A Google User</a>'], 'photo_reference': 'AUGGfZkLJ4r05LLkSpG0thPRguWp2lgXPR2lEolsNhveDeBFr2n54C7ViC2ok95FGfg5NKD97crc-jDYwOrnMHRZ2MyPG7UXbuPHPb-_YGDNLoO9ct5jzoZqMPCriXmvlh6Z5uHlDykc0ONtdM_hXmmvOoVoEQcIdfFFnAYX0yyu6lzvOof5', 'width': 720}]",ChIJn2SdawyzkS0RRXHfu7-KX5M,0.0,"['lodging', 'point_of_interest', 'establishment']",0.0,-2.456168,120.8470252
"H699+J6X, Matano, Nuha, East Luwu Regency, South Sulawesi, Indonesia",Sungai Laa ngkomea,"[{'height': 4624, 'html_attributions': ['<a href=""https://maps.google.com/maps/contrib/110982088005842537705"">A Google User</a>'], 'photo_reference': 'AUGGfZk_qXH62Ww-BEnVkHE3z8Ztkhom4wW_7efcFpCaFhUx28bGavxqURCvl_gH8kUw3dcxqHZHVcB779dbTC9yxRMjFy2z_9du1QUOWHzDDhwX0BcJDTQPDyw7gZs7BwMZWhlmplu0WoIpiqpqpef4uG1_wk2R3kVIionG-8LN4CLZEvZ6', 'width': 3472}]",ChIJG6f2nu1BkC0RpxgdC8D0aWg,5.0,"['tourist_attraction', 'point_of_interest', 'establishment']",1.0,-2.4308793,121.2181214
"GVQ3+Q78, Kalaena Kiri, Kalaena, East Luwu Regency, South Sulawesi 92973, Indonesia",Rumah Bolong,,ChIJK2NoYgCzkS0R4kaxDkZ3Jsg,0.0,"['parking', 'point_of_interest', 'establishment']",0.0,-2.4605892,120.8532096
"937W+QXM, Malili, East Luwu Regency, South Sulawesi 92933, Indonesia",ANDI NYIWI PARK LUWU TIMUR,"[{'height': 3072, 'html_attributions': ['<a href=""https://maps.google.com/maps/contrib/100576764957818206476"">Rakhmat putra m</a>'], 'photo_reference': 'AUGGfZnOWMdNv-eEmAi8UWdH2aQDVW9EtVixIXPtlP8tHIm2rCoPE7liPVAU-Pt_a2S5bocv0lB57EENrWoUko5NZbx0L43PvQxQxcq2mSzGxskEX7YuJ9zQpkUI99OSt38eDdqjrObF10aDzheJPhL_T2U3RAO4KRNZwUrghGKw3johU_fi', 'width': 4096}]",ChIJ0Sj-Yb1ZkC0RzdPro5z-zS8,4.4,"['tourist_attraction', 'point_of_interest', 'establishment']",18.0,-2.6355257,121.0974275
"83PV+MJH, Wewang Riu, Malili, East Luwu Regency, South Sulawesi 91981, Indonesia",Empang Abdul Salam,,ChIJLzemyEr3kC0RFa-F6GhUDpU,5.0,"['tourist_attraction', 'point_of_interest', 'establishment']",3.0,-2.6633121,121.0940971
"93VX+R6W, Ussu, Malili, East Luwu Regency, South Sulawesi 92932, Indonesia",Malaulu,,ChIJ96gHUgBZkC0R7auuudrkLtA,0.0,"['tourist_attraction', 'point_of_interest', 'establishment']",0.0,-2.604738,121.098245
"937W+CJM, Wewang Riu, Malili, East Luwu Regency, South Sulawesi 92933, Indonesia",Colour Bridge Malili Rivers,"[{'height': 3775, 'html_attributions': ['<a href=""https://maps.google.com/maps/contrib/105979385987811401216"">John</a>'], 'photo_reference': 'AUGGfZmId8cVgmln-H3ttnBNzbEAIP-DHRE53m877a2R5XoxZYqjIO4XbTyIAAKL1w-oETfYqFEYVnpklMqKaE4k8wjKI95rDAz4uFMD-1tBh6BPxrOECiHH7q4MLGKLZHjVHLzDFRaswNmGg_IU_mTtLdsxXfb6foVARatNGF6NikbKYmGx', 'width': 6712}]",ChIJH_uJFr9ZkC0RxnYumvRMi5o,5.0,"['tourist_attraction', 'point_of_interest', 'establishment']",1.0,-2.6364139,121.0965392
"937R+C2F, Jln, pelabuhan, Malili, East Luwu Regency, South Sulawesi, Indonesia",Wisata,"[{'height': 4160, 'html_attributions': ['<a href=""https://maps.google.com/maps/contrib/103079373096002014045"">A Google User</a>'], 'photo_reference': 'AUGGfZn-gmn9MgkFcSWXXkju4Yp9fMcqV6F6HudDXID-EYZfkFybP1Z3Dpb2N87myP6ssxliuSrIUlBB1sTeg8cINxZM7H-jYtrkw6oRLQdwcsT2UXN2iWoK91z9qP8bnu58cCxOFLURuaXpStHj80JjKfROfQC2-psqtpXTWjhNpo0AysjX', 'width': 3120}]",ChIJIWOcdmBZkC0RbmD38Zp3MZI,5.0,"['tourist_attraction', 'point_of_interest', 'establishment']",1.0,-2.6364372,121.0900366
"93VW+XXP, Ussu, Malili, East Luwu Regency, South Sulawesi 92937, Indonesia",KHDTK Malili,"[{'height': 3000, 'html_attributions': ['<a href=""https://maps.google.com/maps/contrib/106861834990557366060"">KPHP Sintuwu Maroso</a>'], 'photo_reference': 'AUGGfZl2uR2fy4lQhm2xnPTpyJkGKEfv4steb6Are8IP1GpPAyjodHczmfvVJaqitJe4tIVf4gic3VeCT9f-1Qs9GaHSOBqMAJFlp5tG_IMU4y0HvNvHsZp75Df8mOP7tVzz17ClwloC5PvR6yt27Z9g854fVui7KA-2Olb0QaEYAa7SRZ3h', 'width': 4000}]",ChIJZW2jZmRZkC0R0OtKjq0Nav0,5.0,"['tourist_attraction', 'point_of_interest', 'establishment']",1.0,-2.6050451,121.0974455
"94P2+WM2, Puncak Indah, Malili, East Luwu Regency, South Sulawesi 92932, Indonesia",CABBA,"[{'height': 3264, 'html_attributions': ['<a href=""https://maps.google.com/maps/contrib/109587735062426537130"">A Google User</a>'], 'photo_reference': 'AUGGfZkhmbuWhI8e6vX9wc_yhAa5eSW-M1-sMj_nBhnx0RYpvUrlhAu4H41LMQso8dJEpXzkMyZISgIZbMp5kKikSIWwB3J9sTL6lZYUG7qHpMNeMeZYboqXVomfSeuk651SQNQVY9Rre9jgQyIfjPp8cd2AlfHzSeqJY4-D50OY4M3laMA', 'width': 2448}]",ChIJQ0kq-WhZkC0RMc-YCn8A6ao,5.0,"['tourist_attraction', 'point_of_interest', 'establishment']",1.0,-2.6123794,121.1015053
"83QG+R4, Wewang Riu, Malili, East Luwu Regency, South Sulawesi, Indonesia",Empang Sahrim P,,ChIJmbDMBwD5kC0RzoLNO4xa_fw,0.0,"['tourist_attraction', 'point_of_interest', 'establishment']",0.0,-2.6604155,121.0752667
"C425+CGH, Ussu, Malili, East Luwu Regency, South Sulawesi 92937, Indonesia",Permandian Alam Lorong 2 Trans,"[{'height': 3000, 'html_attributions': ['<a href=""https://maps.google.com/maps/contrib/108171275004153737232"">ellyda Ahmar</a>'], 'photo_reference': 'AUGGfZmWveWJ8XlqMz0P7m5mMIHMCZ4ZJq6jcPanW16fbEih7wd1E9Hme5Q_ztT7BgfTao7mytn-9XxVVbch1HxLXuYObulezTrOkjHCREbaeZUVW3iFgiI368JL3nmSuhETruDcyyL7Fr39akjP6Rq-cdXVsl89B8ctx0P9Vy4SfRybMBAT', 'width': 4000}]",ChIJBWoKFr1ZkC0Rd14n2mUnBRE,3.0,"['tourist_attraction', 'point_of_interest', 'establishment']",2.0,-2.5981304,121.1095677
"937W+CJM, Wewang Riu, Malili, East Luwu Regency, South Sulawesi 92933, Indonesia",Ruang terbuka publik wewangriu,,ChIJS-poHwBZkC0R7yOLCuj2ZY8,0.0,"['tourist_attraction', 'point_of_interest', 'establishment']",0.0,-2.6369502,121.0961716
"85P3+3H, Laskap, Malili, East Luwu Regency, South Sulawesi, Indonesia",Bulusawah Waterfall,,ChIJA7LSNQD3kC0RUCPX2pq2K7M,0.0,"['tourist_attraction', 'point_of_interest', 'establishment']",0.0,-2.664833,121.1539955
"KHDTK Malili, Puncak Indah, Kec. Malili, Kabupaten Luwu Timur, Sulawesi Selatan, Indonesia",Air Terjun Sikembar,"[{'height': 1920, 'html_attributions': ['<a href=""https://maps.google.com/maps/contrib/106861834990557366060"">KPHP Sintuwu Maroso</a>'], 'photo_reference': 'AUGGfZkgTzNpNi-HzCJLDdE_V3OmWghvKOPFU5fVPl5B-zV6YAeZKT4yF121SkOgJijCJTrh2e507SBV3P1g56rU4UwKRTgZ2aWxZDzwapIbOexVku6N7m7029yZBr7dpar1PWFpC1Dlat_lX8jT3QQ1nj5EZP6HdchSLrnx3CpExD18eg47', 'width': 1080}]",ChIJEaBKdSlZkC0R7B2UYNIEd7g,0.0,"['tourist_attraction', 'point_of_interest', 'establishment']",0.0,-2.6170208,121.0935767
"8344+R6, Wewang Riu, Malili, East Luwu Regency, South Sulawesi, Indonesia",Empang Uttha/H.kasma,,ChIJw84npB_5kC0Rkx0BI4NaF9E,0.0,"['tourist_attraction', 'point_of_interest', 'establishment']",0.0,-2.692947,121.0555856
"94FP+FM3, Puncak Indah, Malili, East Luwu Regency, South Sulawesi, Indonesia",Bundaran PMI,,ChIJrSfLKwBZkC0RPwpFmNC81no,0.0,"['tourist_attraction', 'point_of_interest', 'establishment']",0.0,-2.6263729,121.1366715
"94PG+QF8, Puncak Indah, Malili, East Luwu Regency, South Sulawesi 92936, Indonesia",Kolam Renang Landmark LUWU TIMUR,"[{'height': 3000, 'html_attributions': ['<a href=""https://maps.google.com/maps/contrib/106026951925454005535"">Nasruddin Nakir</a>'], 'photo_reference': 'AUGGfZnHkVcOZTt-p7n91UgSUTj_dyZxnVa8skHFWDlAwQySrzldZglQPEiZwQ1PY9GKX7ieH7xN_e9LcnEvv5z-tJ6BX-Koi4lXOJe-sdTo2s4yGpX8qAoniuwaBbAYw1ncNb1A-61Y__HBOfg8giA5ofJ_JmN8d-8G4xhZ8k7moaXNf_at', 'width': 4000}]",ChIJhYuoi4tZkC0R7SPGMjN5ES4,4.7,"['tourist_attraction', 'point_of_interest', 'establishment']",21.0,-2.6130938,121.1262139
"63X7+8WR, Jl. Poros Malili - Batuputih, Harapan, Kec. Malili, Kabupaten Luwu Timur, Sulawesi Selatan 92981, Indonesia",Pantai Bunaken Luwu Timur (YOSUA),"[{'height': 3000, 'html_attributions': ['<a href=""https://maps.google.com/maps/contrib/115213515155997771196"">Siska Indriani</a>'], 'photo_reference': 'AUGGfZkhMsOVRszajqZmaTkaPmRb4UvfmzUHY8jWmwf30Ofn8Bm3kWbPXciX32ok1BjfG00rO_nYS3dabaAK9uPuNnfPXIJ9RNlUXTygegEucG68ZpfN8Bj74EENPF2dR_NnXJW7LZUIc_ME4xOqXxC9If8fbc_E9SIk6PAcyuITiLRVg3kQ', 'width': 4000}]",ChIJU5p9Zej7kC0RRk8mgjQ-ueI,4.3,"['tourist_attraction', 'point_of_interest', 'establishment']",38.0,-2.7516326,121.0647354
"C37Q+7V7, Ussu, Malili, East Luwu Regency, South Sulawesi 92937, Indonesia",Tugu batas kota malili,"[{'height': 4000, 'html_attributions': ['<a href=""https://maps.google.com/maps/contrib/112087510261810786180"">Muji oye</a>'], 'photo_reference': 'AUGGfZl0sYQJvDNrGpOPdqz6jg1P75cRgrfVmKwpmmp8JAOkJiEpNm_wXtU_6vhyqG-XlgsrA_cCydU9p12Y6dN_w6iGMugGG67Vrt949CqK7E290eOAmYPfEim-DHrHSRbiTkEV9YcJgz81Iev3yJJVPAvO1ImMfsCTdRiCrRGiEFepxPbq', 'width': 3000}]",ChIJwSNMZI1ZkC0Rk7Xg515Mvzg,5.0,"['tourist_attraction', 'point_of_interest', 'establishment']",1.0,-2.586517,121.0898545
"C338+F2, Manurung, Malili, East Luwu Regency, South Sulawesi, Indonesia",Sungai Atue,,ChIJYY5pzxRXkC0RCaBdwf6CtoI,0.0,"['tourist_attraction', 'point_of_interest', 'establishment']",0.0,-2.5963118,121.0650343
"C3J7+G9F, Atue, Malili, East Luwu Regency, South Sulawesi 92937, Indonesia",Air Terjun Wae Warue,"[{'height': 1081, 'html_attributions': ['<a href=""https://maps.google.com/maps/contrib/107937954152454073376"">A Google User</a>'], 'photo_reference': 'AUGGfZn9TdXnaUjv9a7Fyr69V7KaH9gmKuziLClNAa5qiMyzxtU-bqmbwHSqql9RY7S2AAEd-NCSJQjc5qMFw80AGnB-_bdCv4UzsPwKHygPc3Ipampnpg1ySO6SQGaqkCSZosUT3Q4k2PXyffXe5HWqxcDdH5WWfRkHTFHVqYmpaEHVVVk4', 'width': 1440}]",ChIJP0YgIZhRkC0REBveowuWyLE,4.5,"['tourist_attraction', 'point_of_interest', 'establishment']",2.0,-2.5686987,121.0634297
"738P+M62, Jl. Poros, Karebbe, Kec. Malili, Kabupaten Luwu Timur, Sulawesi Selatan, Indonesia",Pantai Batu Menggoro,"[{'height': 3000, 'html_attributions': ['<a href=""https://maps.google.com/maps/contrib/106805729046999609571"">A Google User</a>'], 'photo_reference': 'AUGGfZmUcBLfjMN4uCe4LK3THKExlat2dGNb4Qn2cC-RzaTB9WBqF9PNQh_aqEbzLsWP_bxQFcRK3E3Ep9zNic8CO7H-GesKsy4lN-RjTTUGVNe8PaWhm2xypcCY1AwmQxuTKJTMj7ERl1L11xGomVdNiJqzsJJ89oD81fR4RMCNJKQwuzIv', 'width': 2250}]",ChIJwwp-LNfxkC0RlmqanyrMKTA,4.5,"['tourist_attraction', 'point_of_interest', 'establishment']",2.0,-2.7333631,121.0855127
"Unnamed Road, Ussu, Kec. Malili, Kabupaten Luwu Timur, Sulawesi Selatan 92937, Indonesia",PERMANDIAN ALAM TOMPOTIKKA SALO MANGORRO,"[{'height': 2448, 'html_attributions': ['<a href=""https://maps.google.com/maps/contrib/101731795337792940699"">A Google User</a>'], 'photo_reference': 'AUGGfZnWdxO15j7e7g4nFw4u6hN5Cb5RbZG1bzn0s4eyIRrhsDmQPxNZa9OD8dpB8-6M12mvNTsg3HRTzpbf4EoMYwANq7RtVlvdrYWIquAgMwUMvjepHwslYxOicsUFKtF3ivdEZcyHT94wBbIr13VYJZDIK0omHH8uh4Z4P1pwjbEB9ka2', 'width': 3264}]",ChIJs31VOb9bkC0RK4D1GilTlDM,4.2,"['tourist_attraction', 'point_of_interest', 'establishment']",41.0,-2.571131,121.1003594
"C386+5P, Atue, Malili, East Luwu Regency, South Sulawesi, Indonesia",Sungai Atue,,ChIJWStSFINRkC0RSP6qyJ7FvhQ,0.0,"['tourist_attraction', 'point_of_interest', 'establishment']",0.0,-2.5846122,121.0618489
"9XGX+JCM, Jl. Poros, Lakawali Pantai, Kec. Malili, Kabupaten Luwu Timur, Sulawesi Selatan 92981, Indonesia",Pondok Ardhy Rhaksa,"[{'height': 1155, 'html_attributions': ['<a href=""https://maps.google.com/maps/contrib/112143396132477401756"">Ardhy Rhaksa</a>'], 'photo_reference': 'AUGGfZmVi4JBowK9Cw0G_R2Icv12PEXS3N4PI0NfhFKnFq56RsfkJctMalXviVR2DH-X8vGNY1rvDGWX6jUF_xMq35mo5Ai7ChOSFLR6dmztkffSy65L8pc5V7qf4uFoLbJbGjpVU22icZy2rrHhm05Jlqfa1toXsAllk3Iz36WoDreTc64X', 'width': 2048}]",ChIJRSqf3FpXkC0RcAlNN0EeTJ8,3.0,"['tourist_attraction', 'point_of_interest', 'establishment']",2.0,-2.6234113,120.9985372
"C223+2WG, Lakawali, Malili, East Luwu Regency, South Sulawesi, Indonesia",Podomoro,,ChIJKXl54t5XkC0R30ykE9IAXpY,0.0,"['tourist_attraction', 'point_of_interest', 'establishment']",0.0,-2.5999452,121.0048384
"C223+2WG, Lakawali, Malili, East Luwu Regency, South Sulawesi 92981, Indonesia",Tambak pak sudir,,ChIJY-9iUABXkC0RtemvengeMwI,0.0,"['tourist_attraction', 'point_of_interest', 'establishment']",0.0,-2.5999452,121.0048384
"Buyu bangke, petirodongi, Maleku, Kec. Mangkutana, Kabupaten Luwu Timur, Sulawesi Selatan 92964, Indonesia",Kebun ngkai diva,,ChIJd2Opfu_nkS0RWBKbBaU6E-8,0.0,"['park', 'point_of_interest', 'establishment']",0.0,-2.2063889,120.5125
"FR83+34J, Jl.Herman Parimo, Bayondo, Kec. Tomoni, Kabupaten Luwu Timur, Sulawesi Selatan 92972, Indonesia",KAPA Kawasan Agrowisata Pondok Amelia,"[{'height': 3264, 'html_attributions': ['<a href=""https://maps.google.com/maps/contrib/109572124099387446233"">A Google User</a>'], 'photo_reference': 'AUGGfZnacJE4e1RPgEIYwZFvwQdGXQtUlcqCNQxOxZYPdn9x_fAR1X3KMDHV6CNADBxNXo1SJO-KmL3sEt9bvQahrlhHWMlQW7JH_hpsVk6VpHMK-yObMIziWU7LDb-d8zkGSH9mFDiXm9GF9ma94w5V50I0qRGMNAhLB4ghf_k780qfOB_X', 'width': 2448}]",ChIJq-AhEh6vkS0R2-qPYUkS6dA,4.4,"['tourist_attraction', 'point_of_interest', 'establishment']",17.0,-2.5347843,120.8027522
"GR57+W47, Wonorejo, Mangkutana, East Luwu Regency, South Sulawesi 92972, Indonesia",Taman Mangkutana,"[{'height': 3120, 'html_attributions': ['<a href=""https://maps.google.com/maps/contrib/102926588748411505328"">Zulkifli Hasan</a>'], 'photo_reference': 'AUGGfZl6kG5B3QBhY8HgTUFICvBqBpzhlnfJyEX0V6mDankykReCYTpBM_6PBRCLxqjfAhH_MZqvMEZTux7XWIgG4l91E30uqIGsUBjFJfyrkxv8csJPmbe4fgqUJVV0FHml_Z7bISaphUhNW9tLPBjvQ0xIeISQz6nyDokuXtTF7RTNNaKJ', 'width': 4160}]",ChIJBXMe4GuzkS0RlCbCGlFWbEw,4.8,"['park', 'point_of_interest', 'establishment']",4.0,-2.4902157,120.8127971
"9QJV+93J, Bawalipu, Kafhdhfjbupaten, Kec. Wotu, Kabupaten Luwu Timur, Sulawesi Selatan, Indonesia",Wisata Banua Pangka Wotu,"[{'height': 3120, 'html_attributions': ['<a href=""https://maps.google.com/maps/contrib/105822942904254433175"">A Google User</a>'], 'photo_reference': 'AUGGfZlE44cVLU08PV7_o_0zLp3Px-1OCStJVRO_OJD8vbAB1YVuIbixgK7pzq7ZgTbVM5xJfaec6SuNwxlBSBCv9LgO4KsZKDowqPX5zhkh54yuNnDfFWn5Du24LOdSkTlBTL5KeGVz7wU1HJM_PAt_MhoniY0vMc5xLSpLggT9-hac0gfY', 'width': 4160}]",ChIJlcH4qHqpkS0R-_StTzfWNIM,4.3,"['tourist_attraction', 'point_of_interest', 'establishment']",66.0,-2.619038,120.7926416
"MQ5W+2QM, Kasintuwu, Mangkutana, East Luwu Regency, South Sulawesi 92973, Indonesia",Air Terjun Sungai Anuang,"[{'height': 3000, 'html_attributions': ['<a href=""https://maps.google.com/maps/contrib/109554163721834487526"">Yui san</a>'], 'photo_reference': 'AUGGfZmEdueXJFR8JiEu2nXFZHz64vgd9oB_WeJ2TigBSjhLJicHexvvJfltzlCWvperhCBoS6FmZMLJZjMMXKHl0v1gdUQhKx_GKN4SiZ2TWhTaajyoFbHlQVbnl276lWPLrJYPEaZXAqAX1iklgyI9Jz0XnHdAlQOt8V25VMIOVaHZDJDl', 'width': 4000}]",ChIJQ6yJkmTJkS0RZY1S5DOSeZA,4.1,"['amusement_park', 'point_of_interest', 'establishment']",84.0,-2.342409,120.7969368
"C7P2+8P6, Parumpanai, Wasuponda district, East Luwu Regency, South Sulawesi 92983, Indonesia","Mata Buntu ,Wasuponda","[{'height': 3000, 'html_attributions': ['<a href=""https://maps.google.com/maps/contrib/104056732661360371548"">Nj√•l</a>'], 'photo_reference': 'AUGGfZlUenZcKxcJK6r6v4JD-cLEnk6ouS78mugZRbNpcw3UjgZ6aPIMFzWaMRFufjMyyZ8segO67xhp8yIUO4sbaqS9CxYZ0DSmJdc6_1a2W1Jy7w_UnfDtTOSwBDkxnFzmxICMJdCS3j8t9FzzirjAcxf5bs7CctIkt29FK_1i7kk4-Gw3', 'width': 4000}]",ChIJ7avezTEzkC0Rcp8cvpOToEs,4.7,"['tourist_attraction', 'point_of_interest', 'establishment']",78.0,-2.5642176,121.2517569
"9QJ9+42V, Balobalo, Wotu, East Luwu Regency, South Sulawesi 92975, Indonesia",Pantai Balo Balo,"[{'height': 3120, 'html_attributions': ['<a href=""https://maps.google.com/maps/contrib/110900070720640219363"">A Google User</a>'], 'photo_reference': 'AUGGfZlzWOYOyn4viwK3dVWM_gZqzmKxXHUtFQgKknLatLnsoahWykmG77Y3mqsoK5tyB4rVGt_MvCk1MmFzk6Tk9mxYITpmZ0J_EHWDSGsqHHL7eYySQcVK5jR9jTk1nUGmDS6190dWmgGOQWS3XhrMACouOG9jgWlhBq7p0DEU4dZolwuw', 'width': 4160}]",ChIJgwMX8eCokS0R62q3irz-fXw,4.3,"['tourist_attraction', 'park', 'point_of_interest', 'establishment']",64.0,-2.6196295,120.7675492
"9RM9+C9, Lampenai, Wotu, East Luwu Regency, South Sulawesi, Indonesia",Empan Andika,"[{'height': 960, 'html_attributions': ['<a href=""https://maps.google.com/maps/contrib/103315043777147994915"">DANDI BUGIS DANDI</a>'], 'photo_reference': 'AUGGfZkkylavLRhAb9H_Vb1t6OYOl6lbAYPn6AKpcMowC_EK0-IIGFaizglIO-WwVuK8JJorMOowgeu8_ltc8SnDc3hboJeRbZ19hFx4OefNJArRIiDpsIGQeCssEd6cBXaiGSYsLwiWQwh1ZOMwbwfGZKRAaOXGOiDJJsWteP2OPEqH7mPc', 'width': 960}]",ChIJuwAeXwCrkS0R0MvRDLgA5yw,5.0,"['tourist_attraction', 'point_of_interest', 'establishment']",1.0,-2.6164186,120.8184146
"FRQ6+5GH, Tomoni, Mangkutana, East Luwu Regency, South Sulawesi 92972, Indonesia",Terminal Angkutan Darat Tomoni,"[{'height': 2296, 'html_attributions': ['<a href=""https://maps.google.com/maps/contrib/102926588748411505328"">Zulkifli Hasan</a>'], 'photo_reference': 'AUGGfZk__nakZeKWK2795aI1lrUlb1INKqZYA4mQiIK-23SJOYI8fhB7uoBOv_SOlH0UIytUxlouDzIrdbrgMT-bZnp4KUY3yXUlK98Bsb5PJpDqFnJ5-yRt5hqwmpedO72Cokrv9qYyBS4xJ_s3lfCWt89-jKVDYCu9uzqfEOLj-qqZV3Ce', 'width': 4080}]",ChIJLagJvhuykS0RKPba7mKma4o,3.9,"['parking', 'point_of_interest', 'establishment']",34.0,-2.5120774,120.8113792
"Sumberdadi, Bone-Bone, North Luwu Regency, South Sulawesi, Indonesia",WATERPARK AMANAH TANI,"[{'height': 2240, 'html_attributions': ['<a href=""https://maps.google.com/maps/contrib/118023988489504113915"">Konik Sanjaya</a>'], 'photo_reference': 'AUGGfZlhIZaEz9vNHH-LDYeG0spgt_oA_ePltyLYas9KfhFFeYawD0LZTTIvp3-DDhDrZIS4tneBKrmGMTMmJ564OPn6st1gjHTwQgTeYfVKwmbF8ZCe0nYrXebJFTNfsXknc2K-7U9ooXf39L4SfdLB6lYa-9URlf0kIIQZHBbLwftnruBt', 'width': 4000}]",ChIJARLOpXGhkS0RT-UTnlTksXE,4.5,"['tourist_attraction', 'point_of_interest', 'establishment']",50.0,-2.6203335,120.5825479
"Jl. Trans Sulawesi, Wonorejo, Kec. Mangkutana, Kabupaten Luwu Timur, Sulawesi Selatan 92973, Indonesia","penginapan/wisma Twins Moya, Mangkutana","[{'height': 1200, 'html_attributions': ['<a href=""https://maps.google.com/maps/contrib/106211497886508098219"">A Google User</a>'], 'photo_reference': 'AUGGfZk9CFVHgjMwpuwUyuW0zgD6hnpvYqd-DoeYLAXzQWkBEWDjiswn87_MOb91g3k8GhPKOTgeSAeYFfUca3tDEyJlBp5sym9rKuyE92lvGkuyYMKoRPBlnO3JXLRNzZlqMQ0uvgnc9nYAqwQgrmRIs-GwvVdiFyAQoCMxIamYgt4e4Boc', 'width': 540}]",ChIJaQlZZAWzkS0RHYsr19zeIvA,5.0,"['lodging', 'point_of_interest', 'establishment']",23.0,-2.4904136,120.8130328
"9RCJ+CQ4, Lampenai, Wotu, East Luwu Regency, South Sulawesi, Indonesia",Empang di wotu,"[{'height': 1280, 'html_attributions': ['<a href=""https://maps.google.com/maps/contrib/103315043777147994915"">DANDI BUGIS DANDI</a>'], 'photo_reference': 'AUGGfZlbbskiJCd4MT2RJxOmXkI3EPIvEFbzBc07EvvC_QtJIZDmPPQCcHNnXctIGVuEbbR67IJIA7v9nOh-uu4XdCgNf07KYvRnzTkU55LmViyCNHbSwjknM_Z78skWdE-yX6cFfRNx3aK8hjJerjr6MB4SH2803dfM1VkjXavca2A_0mIo', 'width': 960}]",ChIJVZO_MgCrkS0RvA5uojFmlEc,5.0,"['tourist_attraction', 'point_of_interest', 'establishment']",1.0,-2.6289866,120.8319552
"CPHV+FW9, Bonepute, Burau, East Luwu Regency, South Sulawesi, Indonesia","Pasar Selaras, Bone pute, Luwu timur","[{'height': 1334, 'html_attributions': ['<a href=""https://maps.google.com/maps/contrib/117811623545669784679"">A Google User</a>'], 'photo_reference': 'AUGGfZkBO0-oNNvk5BkWOewGopUz0d4CCY7OjXyNvQJcvPvrwBqg370EfPaE0brS7i3euVmwHdu-EhOhLeepUzjYYpbv1QenOMlzmLTuR5r5O_lb6gIXYFo7AKSNe8iIqxpM6-3suulp2lPiu2bSSGx8v3OXh16DLdqnFi59hlbdKdNmu-He', 'width': 750}]",ChIJ2ejCl8SvkS0RFpGhrLt5muo,4.8,"['tourist_attraction', 'point_of_interest', 'establishment']",5.0,-2.5713417,120.7448473
"GRH8+X26, Jl. Trans Sulawesi, Panca Karsa, Kec. Mangkutana, Kabupaten Luwu Timur, Sulawesi Selatan 92972, Indonesia",Pondok Makan Lesehan Lopi,"[{'height': 2000, 'html_attributions': ['<a href=""https://maps.google.com/maps/contrib/117048669158076235380"">Ramat As</a>'], 'photo_reference': 'AUGGfZmrz5ShAxsH-2vbctGAxbPwuIfgB7YrruW717v84Mtopr0fxe8Yh6xmzRY7kyigYAnr6YAyJhXlh1Bn4fHLFTtWjsEYEeVvZ0QgeDlRDo8BPf9bN03U7n0PNNE-zI8kko-NxMegPwmJGmQPuqNJKJhabki6-UGrELAwT4SUJA2UTV2Q', 'width': 4000}]",ChIJpcpfupGzkS0RP40ndv7bBqI,3.4,"['restaurant', 'food', 'point_of_interest', 'establishment']",66.0,-2.4700842,120.8149838
"QQCG+JMV, Jl. Trans Sulawesi, Mayoa, Kec. Pamona Sel., Kabupaten Poso, Sulawesi Tengah 94664, Indonesia",Tugu Batas Provinsi Sulawesi Selatan - Sulawesi Tengah,"[{'height': 3000, 'html_attributions': ['<a href=""https://maps.google.com/maps/contrib/109554163721834487526"">Yui san</a>'], 'photo_reference': 'AUGGfZm4iq5_Mh8eaQhsPW_P045E1HGkgtNExG6S34T9ndBcl2o2rhFxy5fANzsFdBhwbmvrsf8LMJ3vRj6mZlfKXmFQnj-IXzGeuSfNykenjh-diSNlNNw62uFdVqlISEU-tBdTLyoKx3PCYHAsoKueet10vItjlK-DCKMs26XbeVLCdwOg', 'width': 4000}]",ChIJRdqylRXRkS0R1A7NAbcBuZ4,4.5,"['tourist_attraction', 'point_of_interest', 'establishment']",93.0,-2.2283835,120.7766758
"GRP2+6F, Panca Karsa, Mangkutana, East Luwu Regency, South Sulawesi, Indonesia",Wotu,,ChIJF0l4OQCxkS0R11lMRN7hggw,0.0,"['lodging', 'point_of_interest', 'establishment']",0.0,-2.46445,120.8011633
"CQ6X+VJG, Bawalipu, Wotu, East Luwu Regency, South Sulawesi, Indonesia",Icon I Love Wotu,,ChIJDXGBdtavkS0Rs7NmsoHNxug,5.0,"['tourist_attraction', 'point_of_interest', 'establishment']",1.0,-2.5878215,120.7990776
"FC67+R2, Danau, Nuha, East Luwu Regency, South Sulawesi 92983, Indonesia",Tanjung Nikonene,"[{'height': 3000, 'html_attributions': ['<a href=""https://maps.google.com/maps/contrib/114628428869884711863"">Dehan Gafah</a>'], 'photo_reference': 'AUGGfZnM2oIwQCzrCcN68dJocXvAypJI1n-9OYZfEkKKBE79zQSop8BQ6VGfKpLfKBtKPP5mThdrnXgsL1dmDng0yPIHp0rX7tgfKoZ3Fo2pUte2mPw9JtC9ntIBzFZt1DFIKD54_8cx55ymjZeSK08dxMjgw7QzhQhIFhIh-NyB72Gv5loR', 'width': 4000}]",ChIJMWdgbEVlkC0Rm4JvnCSXz0k,4.0,"['tourist_attraction', 'point_of_interest', 'establishment']",1.0,-2.5379599,121.4126238
"FC72+P4, Sorowako, Nuha, East Luwu Regency, South Sulawesi, Indonesia",Tembeua,"[{'height': 1280, 'html_attributions': ['<a href=""https://maps.google.com/maps/contrib/108316125050853888222"">Aswin Sarimuddin</a>'], 'photo_reference': 'AUGGfZkM5QXjsgJRntu0hhml_KpJbIEyxl9qFD-qmLCIlOALm3LaOxs0yfV6NNRh5TFE9MMxQIVNOIhmY0YL2KxCwDVVcusH2FvmkQVGwe8E87fqiX0NLQ4sJOaYEKCcGHzWeHACRlypraED0q57JfmTUcWUdX3h6Ta_2rsQkJDuFA0-SQWf', 'width': 960}]",ChIJz34-KPplkC0Rf6fv24afRt0,4.8,"['tourist_attraction', 'point_of_interest', 'establishment']",4.0,-2.5357352,121.4003286
"H7MH+8WV, Matano, Nuha, East Luwu Regency, South Sulawesi, Indonesia",Nganga Ndano,"[{'height': 1600, 'html_attributions': ['<a href=""https://maps.google.com/maps/contrib/111020825060773305325"">A Google User</a>'], 'photo_reference': 'AUGGfZlMi4Z-wFpjmVw-zL_tpDX2t2znOC_xjipttakjEbXacahO66S1-o9HZEYpVR6sdOmN1pVqWVMnxh81vd9evaoOhm-Qdk32PL56TreABIKKef6FXY0XOhzDCJ9X0SZ3r9Xl7DEdjtVnUUQgpUcMy6uVvsDaXfAqj1wOfTWv8-uYNBA', 'width': 1200}]",ChIJ-eTbhkdrkC0RprsqEt7wZnA,5.0,"['tourist_attraction', 'point_of_interest', 'establishment']",3.0,-2.4166448,121.2798012
"G8FQ+5F, Danau, Nuha, East Luwu Regency, South Sulawesi, Indonesia",Danau matano,,ChIJQ3UwhXRpkC0RZpeTEQBnqw4,0.0,"['tourist_attraction', 'point_of_interest', 'establishment']",0.0,-2.4770802,121.338686
"C9XQ+J98, Sorowako, Nuha, East Luwu Regency, South Sulawesi, Indonesia",Talu,"[{'height': 622, 'html_attributions': ['<a href=""https://maps.google.com/maps/contrib/114321260559647789527"">patir wahyu</a>'], 'photo_reference': 'AUGGfZkUF1J8bOGcmTNDVXMIkqm_B-T5yvGlom39h0wfZMPCm_VTgvVu3y0Q0IKepJpik7RiSi8Z4HWRDGRY16K6QStZMk8L7oG-2m2EFGw3ZWwXrymLtqJoFgIt6un8YFPz05S8dIkjkBcghKaPFawKolz3WE0Ad8YQu51Qe5V1jgXul7Bs', 'width': 1280}]",ChIJ1y71MABlkC0RObfAsR4yX3A,5.0,"['tourist_attraction', 'point_of_interest', 'establishment']",1.0,-2.5509715,121.3884671
"Jl. Lamattulia, Sorowako, Kec. Nuha, Kabupaten Luwu Timur, Sulawesi Selatan 92984, Indonesia",ARAMORA,"[{'height': 4000, 'html_attributions': ['<a href=""https://maps.google.com/maps/contrib/117950689132893234945"">A Google User</a>'], 'photo_reference': 'AUGGfZnItwlWa0Qjum66vm9xbZyeRTs1TkuKyfFVakVmmHKcfD4SjcfTUs3xVCU9egAQqKadn7-tlEwW__ezI0yZLA4s31d66qzMVNv5N6IAifNJeHqbCbMcLL6X-axTnZQVasKjv3JUZF6WfUQr6-R6hxb-TztMCj2ox4C8V0KZ-KEaLrFV', 'width': 3000}]",ChIJG5tgQ3JlkC0RgQvNfI_s8IY,5.0,"['tourist_attraction', 'point_of_interest', 'establishment']",1.0,-2.5301034,121.3953019
"CCVJ+67, Danau, Nuha, East Luwu Regency, South Sulawesi, Indonesia",Pulau Langkai danau matano,"[{'height': 1440, 'html_attributions': ['<a href=""https://maps.google.com/maps/contrib/107819713635036375399"">rusman sarus</a>'], 'photo_reference': 'AUGGfZmN924PrJghXrtWw1_Mg46p5W34sMsoSfvU1bQMdLCCc58uEq-dPrsWB1vXyWFtmYTLfjB4Ox1W4uuKuTCWvsCdXNvgZwsVJhOal5xirHemTHS62dljUbr6NvtNAr4e8DPuzU1tcUzaGt5DD7vsbojFB5rlUKiV84WIadAQUhb0rFqR', 'width': 2714}]",ChIJD3SqjRVlkC0RLHsvRzldg4c,5.0,"['tourist_attraction', 'point_of_interest', 'establishment']",1.0,-2.5568997,121.4306687
"FFJ3+JMP, Danau, Nuha, East Luwu Regency, South Sulawesi 92983, Indonesia",Green camp saluro,"[{'height': 3200, 'html_attributions': ['<a href=""https://maps.google.com/maps/contrib/104311382082125792925"">A Google User</a>'], 'photo_reference': 'AUGGfZkMTe7mJk7z0S7HcrajSsQeZInlDNssR515hd6Lwx-VOBZj8tpHmCpS8OABu2KbGgB_Kymk4YGOiF7arEYfi3oseQIRidz_FQiN5EbO823PihtUmBRy2thkgHA70qXEmeM7OnADYFVVSBB3lRucYVcie1UMj6u6Szffj4KBE-2zVVH8', 'width': 2400}]",ChIJo8kGzNZ7kC0RUma49baiL3w,5.0,"['tourist_attraction', 'point_of_interest', 'establishment']",2.0,-2.5184206,121.4542061
"G6MR+8H, Danau, Nuha, East Luwu Regency, South Sulawesi, Indonesia",Pondok bure,"[{'height': 4032, 'html_attributions': ['<a href=""https://maps.google.com/maps/contrib/110974213186485996582"">A Google User</a>'], 'photo_reference': 'AUGGfZkdY9LMRzCJRnGk8Gjv9bgTRWMvLdrmZlkKXHdg24J0mSjWINfvTd_rB6OstBycDeDFcn9sFAABOvM3kGP7b6nv-ezZZzpn2Q7Wwp4_J5Y_ZSwm62HJyCS3bIzfgAGlnt7LQ9urnj4s419tsX2SrlmDojtZujaAhvQf_I8TK23MPTnf', 'width': 3024}]",ChIJVV2R_PtDkC0RHlHiLYTNAak,0.0,"['tourist_attraction', 'point_of_interest', 'establishment']",0.0,-2.4667408,121.2413876
"H7FH+JV, Nuha, East Luwu Regency, South Sulawesi, Indonesia",H.Mantik Family Camp,,ChIJ1UmHCR9rkC0Rgtsl8CJ7pYs,0.0,"['tourist_attraction', 'point_of_interest', 'establishment']",0.0,-2.4264409,121.2795165
"G79P+2FC, Magani, Nuha, East Luwu Regency, South Sulawesi, Indonesia",Watu Rere Sentosa,"[{'height': 3456, 'html_attributions': ['<a href=""https://maps.google.com/maps/contrib/101300202417217022290"">Muhammad Fadil Fajar</a>'], 'photo_reference': 'AUGGfZmqYqnzzNdg4Cq2dflJMpDBK1un9c1unoW9Xt_w9HBzF7MXPAMkpeX3weSqsCVkDtCMQwxoXl9f00wxkamR6T1ucbYGw_ucdZ3I_qhKizCMxhI-bk2k31gr2AWjosVaROml30rFvSWemCipXosm5irNnriVspsIiEWTOiv0iOmxLfRc', 'width': 4608}]",ChIJx6ojzC9pkC0RVBJdsE8tXMY,5.0,"['tourist_attraction', 'point_of_interest', 'establishment']",1.0,-2.4824396,121.2861345
"G836+5Q5, Magani, Nuha, East Luwu Regency, South Sulawesi, Indonesia",Goa Air,"[{'height': 3456, 'html_attributions': ['<a href=""https://maps.google.com/maps/contrib/101300202417217022290"">Muhammad Fadil Fajar</a>'], 'photo_reference': 'AUGGfZnhK09CRJ9LnRUNkVobYNtzL0AyYBX05FSG8GRstZBq7kU3IqQMMXhA_V_gCs2mbxDWSz8-vMFkuGTFP4tvQLCeFCxE0FO0mdGFbxycj0SKij1WKyX3AYg_YK40e4TlWNbfA2Z2LR-GSOTm0dDR6lMMtiJu1K4JJ69iaWpnO430FuLt', 'width': 4608}]",ChIJP-StzT5pkC0RjF9j7ir_9U0,0.0,"['tourist_attraction', 'point_of_interest', 'establishment']",0.0,-2.4971061,121.3119793
"C9XQ+J98, Sorowako, Nuha, East Luwu Regency, South Sulawesi, Indonesia",Ogo Spot,,ChIJ_xKYZwBlkC0RgDH9w7Yr1cs,0.0,"['tourist_attraction', 'point_of_interest', 'establishment']",0.0,-2.5509715,121.3884671
"G836+5Q4, Danau, Nuha, East Luwu Regency, South Sulawesi 92983, Indonesia",Gowa bawah air,"[{'height': 3024, 'html_attributions': ['<a href=""https://maps.google.com/maps/contrib/109679004803956191038"">Rendy Nico Daniel silitonga</a>'], 'photo_reference': 'AUGGfZnOIKw44HN_YZFn7iwElNhGvcNmxzf99dYRvV8R9xlMv2q6_92yR3DYpnn7zLNqkmtx1Xe6eG4U7xJL8akVf-APOhufie6ftaOOyMzmzoCYnI6TNAGT1dDJpaF_fSTb4wkbH20FUzvCHzTFa5y9ZcyYg5dNb6hwgHiJ-Vwb97dckpih', 'width': 4032}]",ChIJ37PhQqhpkC0RDa0xotq4mKc,4.8,"['tourist_attraction', 'point_of_interest', 'establishment']",4.0,-2.4971091,121.3119505
"G95G+9RV Matano, Danau, Kec. Nuha, Kabupaten Luwu Timur, Sulawesi Selatan 92983, Indonesia",Matano Lake Nature Tourism Park,"[{'height': 2250, 'html_attributions': ['<a href=""https://maps.google.com/maps/contrib/114244210363425512865"">Hamka Baru</a>'], 'photo_reference': 'AUGGfZkwfMU75yUwbjATHcnF1EEdqSzME4YUA8Z2xto6Vr3Yrx1U8RxusSoiM9VRMkF8xHNW3FIw2_nQDnJmBEgSkV59aGdhWZLB8YrIIkq6DX9ZlSLC9P3d8VurNsjrS1hIMEqDyMxdl1yUTkVINryVmeCszauIO0BOQ3pBzpoLSX4iry2d', 'width': 4000}]",ChIJE71O51VvkC0RQ41rNJ5RNqM,4.0,"['tourist_attraction', 'point_of_interest', 'establishment']",1.0,-2.4915087,121.3770336
"F9FH+48Q, Sorowako, Nuha, East Luwu Regency, South Sulawesi 92984, Indonesia",PONTIBAJE,"[{'height': 1692, 'html_attributions': ['<a href=""https://maps.google.com/maps/contrib/114628428869884711863"">Dehan Gafah</a>'], 'photo_reference': 'AUGGfZlvVYXBjQ2kDcHSn7e-z1Qrl0zxPV1fweh0BKxzqjB4hf5yuv1tABOLv0yMESbuIgZ_IMzCAUIUj3xL_dh9rlHu5SJTD0f50HsKfAt8mI1BfzgUG62Y2oHzZBeT3yP6f3YJvIELQr-IQv8saxsMFebor0laNLsFW9Wl6zTkOZrS1fqP', 'width': 1080}]",ChIJP_1FqFBlkC0RyI4B6FmcoVA,5.0,"['tourist_attraction', 'point_of_interest', 'establishment']",1.0,-2.5264819,121.3785018
"G6V8+F9Q, Danau, Nuha, East Luwu Regency, South Sulawesi 92983, Indonesia","Mata air Bura-bura, Matano","[{'height': 3456, 'html_attributions': ['<a href=""https://maps.google.com/maps/contrib/100216777001272280234"">Ainul Rofiq</a>'], 'photo_reference': 'AUGGfZn11bRLFqybpbIIilhR7utrFDd4Xt048YMPWlySbKd1k5SALfHpFpXgkvYgZdiI7KS6vBMpiuRBnGvunOzLi4T6qwYxxatfNTY2d6sScAfw5K2466QPChTGhicSgwlWMU75mO9aiTRWceompXzXin2AFHc17F9mgMzqD4yFUOkb2M8t', 'width': 4608}]",ChIJH15qDARDkC0RS6wKq356H4I,4.5,"['tourist_attraction', 'point_of_interest', 'establishment']",8.0,-2.4562848,121.2159787
"G7G6+WQ6, Danau Matano, Kec. Nuha, Kabupaten Luwu Timur, Sulawesi Selatan 92983, Indonesia",Situs Pulau Ampat,"[{'height': 3456, 'html_attributions': ['<a href=""https://maps.google.com/maps/contrib/101300202417217022290"">Muhammad Fadil Fajar</a>'], 'photo_reference': 'AUGGfZnb_VpVXPG5RZTt5ZDi8PHu6NY91xeA-7ngXZf1ERLC79kUW4Ecy7s_CP7zIFKmsdsEQI8VTMS0PjFeum6Empizrlb7J5QralPQ3NH-0GA88zIgWTlrB1uHok9-AhYsJULrFjnBszUCWC2wKafm3D_Ow_ci0yEhjXfS5awacFMEH37R', 'width': 4608}]",ChIJueXCzhZDkC0RO0OkqDoAbms,3.3,"['tourist_attraction', 'point_of_interest', 'establishment']",3.0,-2.4727226,121.2618968
"G6V8+23V, Danau, Nuha, East Luwu Regency, South Sulawesi 92983, Indonesia",Galeri dan Pendopo Matano,"[{'height': 1152, 'html_attributions': ['<a href=""https://maps.google.com/maps/contrib/102933106940212397521"">Hendro Prabowo</a>'], 'photo_reference': 'AUGGfZkvB7P97SIBgdfI6k701pMY1y2ppcabvfF5sU3GCxvr8kPD7HLgaRGQFEOpdGoBSkx0KDzINzvYBa4WnssHaLhjNZe7Y0G2_XV2Wva_gN8WdlsmApTLpq44ldt-j2zBo8If-CpcMtK7J3Hi9cvolZxjigQqPt_OrVH2gYVipWecYWEA', 'width': 648}]",ChIJabKP5D9DkC0RrkmArtiVskM,5.0,"['tourist_attraction', 'point_of_interest', 'establishment']",2.0,-2.4573914,121.2151807
"G78P+V5F, Magani, Nuha, East Luwu Regency, South Sulawesi 92983, Indonesia",Pantai taipa,"[{'height': 850, 'html_attributions': ['<a href=""https://maps.google.com/maps/contrib/100475117644289602150"">Fadly Saja</a>'], 'photo_reference': 'AUGGfZktQ_B4GaxCIJqCdksNW_blVhxnUAtqI2_eFcN7lpB3o4_NCq5f3DVjIqduyg2YDt2Ljb-bJaIHryj1NtY3FeiYq8CzlAMEp3zmUKMF2XX1lrc9l0dMphXBaNxvYbFTq8xS35ddqX3Qd2xYEy1O1Q3qTLwUHIWW3DGBE1AKizaIvMl5', 'width': 1280}]",ChIJJVrDGZhpkC0RE2kYV5hrRFc,4.5,"['tourist_attraction', 'point_of_interest', 'establishment']",11.0,-2.4828006,121.2854201
"F9F7+88J, Sorowako, Nuha, East Luwu Regency, South Sulawesi 92983, Indonesia",Bukit Segitiga Cafe,"[{'height': 1836, 'html_attributions': ['<a href=""https://maps.google.com/maps/contrib/106620877390916863999"">Ardlian Zain</a>'], 'photo_reference': 'AUGGfZmg_jmPjI2eiLYwjlZ61F7IXd1xd0ia9pLR2EPOqBGYAAVN9r7gKSDlPXnFXq8j3pntJ21em-GHs9pLgIDXVu44_INwqA1qnxXT5rrpMu33-2Ot8o6rl5Yb3q7La7Ood83riRCaA5hhidyc7BHQ83ILITUKaqGAP3ohQRPxbdkleRkM', 'width': 3264}]",ChIJvcgbw0FlkC0RGaXzoytOiZw,5.0,"['tourist_attraction', 'point_of_interest', 'establishment']",4.0,-2.526656,121.363258
"H626+CWV, Matano, Nuha, East Luwu Regency, South Sulawesi 92983, Indonesia",Desa Matano,"[{'height': 4624, 'html_attributions': ['<a href=""https://maps.google.com/maps/contrib/110982088005842537705"">A Google User</a>'], 'photo_reference': 'AUGGfZkgT_HYoTjmscpVVl43-ZYeot7AFMJjFALByzM6ieTRM3e3XexUWsPdiWRbxxYJEflLdg4kHCaNN6zCDSnn-QmKXNpJ9Du865_CiDOe17TdUG1ujuJi3Dr7MfDb_o34FpG_GtYDnK-hyAYzMzcDIPJ5ZtC7tq5KyCccaTAqrfYotm4B', 'width': 3472}]",ChIJ-b3EhdZDkC0ReMhb-DT54iY,5.0,"['tourist_attraction', 'point_of_interest', 'establishment']",3.0,-2.4488951,121.2123108
"F9FG+J6X, Sorowako, Nuha, East Luwu Regency, South Sulawesi, Indonesia",Bukit Kiyomi,,ChIJQf_hVwBlkC0R4_wgvSSRoKM,0.0,"['tourist_attraction', 'point_of_interest', 'establishment']",0.0,-2.5259186,121.3755716
"Sorowako, Nuha, East Luwu Regency, South Sulawesi, Indonesia",Sorowako,"[{'height': 4000, 'html_attributions': ['<a href=""https://maps.google.com/maps/contrib/101199487395384411110"">Muh. Fadil.A</a>'], 'photo_reference': 'AUGGfZkRvwPZRZ6QzEjb1LdeacYtKvZVwNe0DZoRtTh-gquXN0w3QRrVKUQI-M_0R07hd1lYQ3JwRIw8qBIn_3lsIAxYSMoDnjXDV-g487Ug3lPG6a6mmNRrZinC77Hgd8mir_li84dxzL9FkJwuxOvbsj9yaUdfx6HJW2pXeYMgc3q23rUR', 'width': 3000}]",ChIJeUiko81lkC0RTUwsAO1skh0,4.4,"['tourist_attraction', 'point_of_interest', 'establishment']",16.0,-2.5176385,121.3542938
"Jl. Lamattulia, Sorowako, Kec. Nuha, Kabupaten Luwu Timur, Sulawesi Selatan 92983, Indonesia",Molino beach,"[{'height': 4000, 'html_attributions': ['<a href=""https://maps.google.com/maps/contrib/101903445093788951290"">Benyamin Samben Samben</a>'], 'photo_reference': 'AUGGfZkd_2j9-DIdsc9S9oBLidtpnoSkXNsqP8pPGPSKx4CK8NoQGfQyYNdEljbPOXgS6SZ22y-qHCoS5RLc-UpJLti3zpA9f5i1Zh8xTgmab16yeg-_P0VbKzPu5oYh7jRDwUQYKybXytyVBL3DedaXZn6RV0yX0JnlAMmujvzIsyMzM4li', 'width': 3000}]",ChIJd29aXN5lkC0RHeYUneEM2JY,4.5,"['tourist_attraction', 'point_of_interest', 'establishment']",390.0,-2.525252,121.3882224
"G4PV+5G8, Matano, Nuha, East Luwu Regency, South Sulawesi 92983, Indonesia",Permandian matalarende landangi.matano.,"[{'height': 4160, 'html_attributions': ['<a href=""https://maps.google.com/maps/contrib/117209608294236612775"">A Google User</a>'], 'photo_reference': 'AUGGfZk5dAbWIdF8go-XasZsBS27QUdtC2gaQluB0wBxXnWnxgVPucoIgnEHtjrKXvMptrSIEflqmeSla1F1KNQ-D23NoPOlaNEty8ry08Rza2s701HylKOxCngOwpomKeg9QkeOHW8PZONEsIkjil8njq8pcsUqy0K94oYdxnBIw-YXMZcH', 'width': 1872}]",ChIJE4DBfV9FkC0R6fmsW7spfjo,5.0,"['tourist_attraction', 'point_of_interest', 'establishment']",2.0,-2.4645836,121.1438216
"F9G9+CR3, Jl. Danau Matano, Sorowako, Kec. Nuha, Kabupaten Luwu Timur, Sulawesi Selatan 92983, Indonesia",Pantai Impian,"[{'height': 1836, 'html_attributions': ['<a href=""https://maps.google.com/maps/contrib/106620877390916863999"">Ardlian Zain</a>'], 'photo_reference': 'AUGGfZkaOOqXqx7DBfZGwdfA16Y7gnHOIaomj1TqbK2-KdAIAjRUdhFWAboRhS2_2rM3tzGmvWZkbDYlwu2gzHfK6BJsgRizNML9dvNDLtYDUvNXstpnGS9Tk7-XafEmXnUZZzu29kYKymhIYWgnmWoZrFC95RRgnlxyblxv38UJU_NfiCuT', 'width': 3264}]",ChIJc5sDpOllkC0RJ-vkBYSBqko,4.3,"['tourist_attraction', 'point_of_interest', 'establishment']",99.0,-2.5239792,121.3695439
"F8MR+VWJ, Magani, Nuha, East Luwu Regency, South Sulawesi 92983, Indonesia",Ide Beach,"[{'height': 2048, 'html_attributions': ['<a href=""https://maps.google.com/maps/contrib/115356241174274280135"">Norhalimah Burhanuddin</a>'], 'photo_reference': 'AUGGfZlZLqx4fCQp3oFqedpnqLgEEdLqiLigmjjxqDd27pt6h06XzeM6wyly-x-7NT54ppTIZcwVjIWj_h0__cOpcybPmFP0C-QUslq6vswqnMq1lP3VDl0smeT9npwGRGP1q_wWPCRJQb6KtneppYKyIcG0bHdR1dk1FvWd_xImB9VVqXZ2', 'width': 2730}]",ChIJg-99MRtmkC0R5OI0qA7YUuc,4.5,"['tourist_attraction', 'point_of_interest', 'establishment']",1183.0,-2.5152898,121.3422809
"F8GV+F2G, Magani, Nuha, East Luwu Regency, South Sulawesi 92983, Indonesia",Bumi Perkemahan Sawerigading,"[{'height': 2304, 'html_attributions': ['<a href=""https://maps.google.com/maps/contrib/115621043797901426826"">A Google User</a>'], 'photo_reference': 'AUGGfZkEwRHWVRe7sW6ZlvUCEXjWSaA5sjpZU4OVUuRziWbgu4lxRVklxyQx3f5s2isa7cT1ICUXPUwJctamUXhJ3jImGBVdxIY_QX1lcYW8vsmS8UzODPjZMBgmLQozTEzU4YWoxESDIyUxgStCEtpM-bQ050OUtAtYuq4o3aYvQqiUoJs8', 'width': 4096}]",ChIJVzCldxJmkC0RFa2JG3-2foQ,4.4,"['park', 'tourist_attraction', 'point_of_interest', 'establishment']",46.0,-2.523814,121.34259
"Jl. Trans Sulawesi, Mandiri, Kec. Tomoni, Kabupaten Luwu Timur, Sulawesi Selatan 92972, Indonesia",Taman Tomoni,"[{'height': 3120, 'html_attributions': ['<a href=""https://maps.google.com/maps/contrib/117995658635377191631"">Eka Hardian</a>'], 'photo_reference': 'AUGGfZlmJH-lRdHHXLNzTQrNIBaNlBvQpCYN2HTKR01PJNlx2YD2XyQnjCB-WbUGCFutmh1LuDM1dRwoAwiBBv_GbKxHhKGQGVDodP_UMnLoSlmaWKTC0DrP0KjGwrjAmxkNXh5gtdIQoQhXMgFs3y4Y2XaUad9dNivIOfAxB-kOP2X7zEyk', 'width': 4160}]",ChIJVz0pUnOzkS0R4KL--LKG1gw,4.2,"['park', 'point_of_interest', 'establishment']",25.0,-2.5159674,120.812556
"FR79+CX6, Bayondo, Tomoni, East Luwu Regency, South Sulawesi 92972, Indonesia",BAYONDO,"[{'height': 1920, 'html_attributions': ['<a href=""https://maps.google.com/maps/contrib/105102087718139002465"">A Google User</a>'], 'photo_reference': 'AUGGfZmrC1cH6SUrG4b2D_AF_BfMMzqx1oALs6W9yEu6c9w_EL9iql4f7IrE8OscvU7hkpo3Qd7EknoPKGWoIZYZ_s5vMC4MLhDWqA9Ec8CD7xP-jdAaTSfa5tSYGqupXHudJXmto769jeHZDaGPO_lmg2pMT4nSsXL-dMFhEXM4XAxRvFyy', 'width': 1080}]",ChIJjbw3qQutkS0RHpg_CCFLe2U,5.0,"['lodging', 'point_of_interest', 'establishment']",2.0,-2.5364734,120.8199046
"CVPQ+H6P, Alam Buana, Tomoni Timur, East Luwu Regency, South Sulawesi 92972, Indonesia",Desa Alam Buana,,ChIJb8rAskutkS0Rqj-9jSoMfXM,5.0,"['lodging', 'point_of_interest', 'establishment']",3.0,-2.5635305,120.888088
"5HM7+QVH Beau, Tokalimbo, Kec. Towuti, Kabupaten Luwu Timur, Sulawesi Selatan 92982, Indonesia",Dermaga Tokalimbo,"[{'height': 1080, 'html_attributions': ['<a href=""https://maps.google.com/maps/contrib/109936489236909952928"">A Google User</a>'], 'photo_reference': 'AUGGfZkgOLnVU10pRyacNXtK5Sxef7j1Vzlx3d0mhHT9D4bpUp1nMQkh6-dXHAV-3og4AIebb1oSUI_6zkJsVk7tnvMb6Cl9rFZdWuX008XwqTfGxTRBJ3RsVzdNzHnax5MLSBbQ-Vg3uBMD1piup4dZnDHTuhY494aQCI_DJf-m54MbvDFt', 'width': 1920}]",ChIJ-SM2pl6ckC0RaBvbzkX83Bw,4.4,"['tourist_attraction', 'point_of_interest', 'establishment']",72.0,-2.8156083,121.5647427
"FRJ6+3WJ, Beringin Jaya, Tomoni, East Luwu Regency, South Sulawesi 92972, Indonesia",Heritage tomoni eksklusif kost,"[{'height': 1080, 'html_attributions': ['<a href=""https://maps.google.com/maps/contrib/110036527854699819236"">Asnur Syamsuddin</a>'], 'photo_reference': 'AUGGfZndxHGLE2pbYY44dWD7vwEVSmdDcPi_4FPfRfqrF271AWByQrIFGT7S_gztofevHpL4IW0JzD7lBVXm8QNpiR9a4SbqKoXEqcZLrfI7_bfshQ58CEuSSYqrI1b2B8HnrbbOgV4vjwFPZcJwAiAsK69pl9Ayww8Mft1LT0__yCzkdWxR', 'width': 1920}]",ChIJZ5sGeGmzkS0RnyFIIMzqo0c,4.6,"['lodging', 'point_of_interest', 'establishment']",17.0,-2.5197839,120.812266
"FRJ7+7GW, Jl. Trans Sulawesi, Lestari, Kec. Tomoni, Kabupaten Luwu Timur, Sulawesi Selatan 92972, Indonesia",Penginapan Sumber Urip 2,"[{'height': 2000, 'html_attributions': ['<a href=""https://maps.google.com/maps/contrib/117048669158076235380"">Ramat As</a>'], 'photo_reference': 'AUGGfZkIv8KqnH7GngDPTg9f1A3TBMEJ1jgbHUI7EIdjNafgS228orYNkvnJHQTxkIqW0ditkF9rWY6NcR9TVQ0ndsT4GkkedBsp5oVXwFkzynv8qwjYMkHfakm22nPnB3RZ3Xg8rZxn8OQEFZ7FynCVOLpaLvsDf7qCbxDV6yDabOv3c27G', 'width': 4000}]",ChIJTTxHCgaykS0RWw2MoVn9RQk,3.9,"['lodging', 'point_of_interest', 'establishment']",156.0,-2.5192594,120.8138264
"799G+GRV, Timampu, Towuti, East Luwu Regency, South Sulawesi, Indonesia",Danau timampu,,ChIJoZxbv8SPkC0RIwYV7hfQxQs,4.5,"['tourist_attraction', 'point_of_interest', 'establishment']",2.0,-2.7311367,121.3770336
"FRH8+2HW, Unnamed Road, Lestari, Kec. Tomoni, Kabupaten Luwu Timur, Sulawesi Selatan 92972, Indonesia",Wisma Abadi Tomoni,"[{'height': 1080, 'html_attributions': ['<a href=""https://maps.google.com/maps/contrib/116605613136096205970"">Sugihartono Sahlan</a>'], 'photo_reference': 'AUGGfZnCDTnEIgBN-eESI-SviwzS0w1ZijlG55vWqc9W7JXUnTapdiHw_kBAO0ISu_JYR8ydJOH68GVHPMKDKJVUszcb9mRZInAtRgtqgXzycC0DMtmfiyWwS2xAi26M1_C67QyR4016gT4kiLhprjm4M2pLNhBVH5DucwBTCm2eEvNqlEjd', 'width': 1920}]",ChIJtclEEwiykS0RIT738lsqBFw,3.9,"['lodging', 'point_of_interest', 'establishment']",80.0,-2.5223753,120.816454
"Tabarano, Wasuponda district, East Luwu Regency, South Sulawesi 92983, Indonesia",Air Terjun Kali Dingin,"[{'height': 1081, 'html_attributions': ['<a href=""https://maps.google.com/maps/contrib/114628428869884711863"">Dehan Gafah</a>'], 'photo_reference': 'AUGGfZlo7asV8ARRImcQPAMjouraZwBwKfIxeq_nHO5poJaELyp7EM4kN0knOuEdABV3U75Ad0o1CIC6Nllh446N50LsJhhet7-AhOSeGxk7hW9xZSsEkqKv1kstmRLPvyd7OcOZYnLe4NIxkeoYMIP_YJYBBdD-b-D61_ZDEnUeaeV-XYz_', 'width': 1080}]",ChIJ2ejXEZFnkC0RKdpeUk4NHHg,4.5,"['tourist_attraction', 'point_of_interest', 'establishment']",154.0,-2.5711317,121.293346
"Jalan Perintis Anak Bangsa, Langkae Araya, Kec. Towuti, Kabupaten Luwu Timur, Sulawesi Selatan 92982, Indonesia",Permandian Bukit Kasih,"[{'height': 3000, 'html_attributions': ['<a href=""https://maps.google.com/maps/contrib/100815296632885749123"">A Google User</a>'], 'photo_reference': 'AUGGfZkofHB4KMFmP8jqlueZuCVZxLHiCJMq0Iel-wseGUT020W652IHimgBwSU_F2csBP26kS7PfMU-IOBKA8YirT_QrPj0lpG-JKmg-_Nq9EuIy6ZMYIJrkbR1RTBKR9xG2i9TvCg1rTK7RgmWcFtwR7GtvwkbP6hexXTBSUFzDeUOeyb_', 'width': 4000}]",ChIJYWGpOZWJkC0R3CzAI-jZnhs,4.7,"['tourist_attraction', 'point_of_interest', 'establishment']",103.0,-2.6607936,121.3636199
"CVPQ+V3X, Alam Buana, Tomoni Timur, East Luwu Regency, South Sulawesi 92972, Indonesia",YC8GDS,,ChIJrbcSiDCtkS0R-6yvbFLrPzo,5.0,"['lodging', 'point_of_interest', 'establishment']",1.0,-2.5627719,120.8877253
"8CQM+M8X, Danau, East Luwu Regency, South Sulawesi 92982, Indonesia",Towuti Lake Nature Tourism Park,"[{'height': 3252, 'html_attributions': ['<a href=""https://maps.google.com/maps/contrib/114244210363425512865"">Hamka Baru</a>'], 'photo_reference': 'AUGGfZnHhECH0dJvv2rD5LWJW8OU3ceB_fmw_2Zhe4Cf9OsWvOrynzBXhW3GChdnwsmi2STyx3wNRKedLtKrXrl35sWxbhaDtb8_3w3yTl-yfFIs9HtjCNZeozBNFYXoTP8e6ypUYO-AFfuY8ltTxkWs7dsVx5OH07UA-2kepkRyO88Kh6xx', 'width': 8192}]",ChIJI8rmaqGJkC0RJzY1m-pJ2dU,3.6,"['tourist_attraction', 'point_of_interest', 'establishment']",7.0,-2.6607721,121.4333573
"FRM7+84R, Jl. Trans Sulawesi, Mandiri, Kec. Tomoni, Kabupaten Luwu Timur, Sulawesi Selatan 92972, Indonesia",Penginapan Melati Mekar,"[{'height': 2400, 'html_attributions': ['<a href=""https://maps.google.com/maps/contrib/103427468235910816552"">A Google User</a>'], 'photo_reference': 'AUGGfZm06CHWTxAcUslC5vKh4YB3Y3HrwtaSvZ9cXUlNoPaaS-Swu-Bo7UBrmU_3S88vwos4PHQkNTneXmSiE6ALu7r1aS5kYexKzQVocqiuWcp-jNbgNVFGMDch9W7TMGDRAOAGugS5NCTX59v9Jo_b5uIVu2N3FXEO-eZ4Lv9XxsHQym9q', 'width': 1080}]",ChIJfTbyAgWykS0R3zh-zk0lFxs,4.2,"['lodging', 'point_of_interest', 'establishment']",163.0,-2.5166631,120.8127907
"Beringin Jaya, Tomoni, East Luwu Regency, South Sulawesi 92972, Indonesia",WISMA URIP 3,"[{'height': 1920, 'html_attributions': ['<a href=""https://maps.google.com/maps/contrib/118282401863790963774"">A Google User</a>'], 'photo_reference': 'AUGGfZmQWcTLCrm-p-9d7RFoqPSarGKiCeR9_xDyjYkn4qYQa1RMn8dqQQeEN5w_4OgpRGTXTZWNyM_4FAV2FzzMkqmpkmuQqFvfo30JJOGpFWx7BEMUckB9_Q0pGZD1CTSYaaAVObrYRwcHrw1g3Y6ypjgLpvFY2OyuSSKV2p8182A4hHxD', 'width': 1080}]",ChIJtzvawb6zkS0RTThm0Uu8chQ,4.5,"['lodging', 'point_of_interest', 'establishment']",32.0,-2.5201898,120.813061
"Indah, Jl. Ahmad Yani. Perumahan Pesona Lioka, Wawondula, Kec. Towuti, Kabupaten Luwu Timur, Sulawesi Selatan 92983, Indonesia",Nuy Indonesia - Tamungku Momoiko,"[{'height': 1280, 'html_attributions': ['<a href=""https://maps.google.com/maps/contrib/117839532386669580306"">A Google User</a>'], 'photo_reference': 'AUGGfZnuUyNg7-aqvG3S4RQ6aaUNBycavWRUuJwY2r6GNGkrLatNPj4pTBWNedCqHfNpHMioUIdb1ogck2XRnvxJAcN9w8ihT304O_QjB473wJlyGKzxaP3L-TCZIeJpMMHPhgf4bFVXLaU219y1qbl20I1SNWf-JLO1XnC_nKykgcLVZicf', 'width': 958}]",ChIJZyEdkw9jkC0RCkVHYz3pWDk,0.0,"['tourist_attraction', 'point_of_interest', 'establishment']",0.0,-2.6283033,121.3575306
"FV86+3HP, Unnamed Road, Margomulyo, Kec. Tomoni Tim., Kabupaten Luwu Timur, Sulawesi Selatan 92972, Indonesia",Bayun house,,ChIJRz0jRXetkS0RsOmKE9BM1Qk,5.0,"['lodging', 'point_of_interest', 'establishment']",2.0,-2.5348157,120.8614321
"9QGW+RG, Lampenai, Wotu, East Luwu Regency, South Sulawesi, Indonesia",Pasir putih,,ChIJe-4cJWKpkS0RSMqHbZgXDxA,0.0,"['tourist_attraction', 'point_of_interest', 'establishment']",0.0,-2.6229375,120.7963125
"FRV8+GVV, Bangun Jaya, Tomoni, East Luwu Regency, South Sulawesi 92972, Indonesia",Wisma rhaka inn,,ChIJrfS4WgCzkS0Rk92HLzK8fcQ,5.0,"['lodging', 'point_of_interest', 'establishment']",4.0,-2.5061336,120.8172012
"FRV4+9CX, Tomoni, East Luwu Regency, South Sulawesi 92972, Indonesia",SPBU Pertamina,"[{'height': 1080, 'html_attributions': ['<a href=""https://maps.google.com/maps/contrib/100128161768302517804"">Urfan Asfari</a>'], 'photo_reference': 'AUGGfZlPkb4tobrioHEgxVcAjo3zdqJWLfnEo5yR6aidmhjAB5iIKfTdNzXYhNidkSM7Uh520_49nkdWD2M_lb16e6HHVIwJ94FAkfF4dVe2LYfRnXgpWNHhmyJPwM3LVptLVAWOF0WmhSXRU2HHePa0Hgti4OuoYV8LZJw3ROWu5qRO0Wbm', 'width': 1920}]",ChIJ87f-hx-ykS0RniodG6OrdG0,3.4,"['gas_station', 'point_of_interest', 'establishment']",118.0,-2.5065316,120.8061075
"Beringin Jaya, Tomoni, East Luwu Regency, South Sulawesi 92972, Indonesia",Hotel Sikumbang,"[{'height': 2080, 'html_attributions': ['<a href=""https://maps.google.com/maps/contrib/103301739767771951566"">A Google User</a>'], 'photo_reference': 'AUGGfZk8Wvl4hHEhzV1QwHRlJwr-m5yeRq4Qu1edDFU8OIgZKzMKf1kr0LCCFyZpDyHmZMovBUDSpWmcznqzbxWp0tZTZj9gLjo8XAGs0G86HuORf79JiWI94Uvnw-H08MwjgpLXfbQo2qzFVGpm7zqr5ncXd3FZwUdXAXBrrZfdCJeYJmc8', 'width': 4624}]",ChIJY3S3qAWykS0R-dBGq5Kruz0,3.8,"['lodging', 'point_of_interest', 'establishment']",414.0,-2.517267,120.8131486
"Bukit Harapan, Bua, Luwu Regency, South Sulawesi 91991, Indonesia",Wai Tiddo Nature Resort,"[{'height': 1088, 'html_attributions': ['<a href=""https://maps.google.com/maps/contrib/100975450234596026123"">elsandy salempa</a>'], 'photo_reference': 'AUGGfZlCU46gUgNBPcurFkdNj5uPj-g9Zr-rgih71gjy_aU89LixQ2-Fmib5-mIGO_ZBVA8Iq9hRX7PeiUp7CgiIY6gcnhw0Tyn4Gf7uLNz9fGNwd__rAD0gUK_OqM3eojRZlrMfk2bU6NPLJAGGUed7ls_WWUPEWIb8Uu1MX4febJChtCfj', 'width': 1920}]",ChIJc9xg18BXkS0R-Wc7DatCp_g,4.6,"['tourist_attraction', 'point_of_interest', 'establishment']",357.0,-3.1319384,120.2062464
"9QJ8+92Q, Balo-Balo Beach, Desa. Balo-Ba, Kec. Wotu, Kab. Luwu Timur, Sul-Sel, Balobalo, Kec. Wotu, Kabupaten Luwu Timur, Sulawesi Selatan 92975, Indonesia",Coffee Santri,"[{'height': 2448, 'html_attributions': ['<a href=""https://maps.google.com/maps/contrib/100860537404437770758"">Aliyah Febriyanti</a>'], 'photo_reference': 'AUGGfZnojGTEDG4mMOIiG3Udn7m-cnzZjfrKpRccRQEYeWmgQtKcbB_X3qxZiwWTOqW4sw3gnm-QceT12Jwi2ixkfsbBvdyIykdq_qZB_Tq5MLb0ChDk8FHm1bdlHmoTCqeQqBrwiBmezsdcnjtFjfwVphxMUHSGElKgBi-1wLJETrFdJMMs', 'width': 3264}]",ChIJkf0DdL2pkS0R4SlSAnnJiW4,1.0,"['tourist_attraction', 'point_of_interest', 'establishment']",1.0,-2.619033,120.7651111
"FQ3R+VV, Cendana Hijau, Wotu, East Luwu Regency, South Sulawesi, Indonesia",Risma Hastuti,,ChIJs1LY4r6vkS0R5GuInpW2uXk,4.0,"['lodging', 'point_of_interest', 'establishment']",1.0,-2.5452574,120.7919926
"Dusun Benteng, Lampenai, Kec. Wotu, Kabupaten Luwu Timur, Sulawesi Selatan 91971, Indonesia",Pusat Tanah Wotu,"[{'height': 4000, 'html_attributions': ['<a href=""https://maps.google.com/maps/contrib/102432913970387397970"">A Google User</a>'], 'photo_reference': 'AUGGfZno_JoSyE5nvOwnK6h6R0KuhmY5-IyG58E4PtSlOIrgBofVkfxyyQWsG3WxZCax8ZS9D559ZW-yaBZqAjBrG4oUhrltmVbG5OyUElyH2_l9cLXKnr6ik6TWas885tsgGpC2sdDp7x07s98E6i8OfgJ5wasIpuTngAQA3etnPq9utvb_', 'width': 2252}]",ChIJK4tXGzmrkS0RzO2uDXMDhrg,0.0,"['tourist_attraction', 'point_of_interest', 'establishment']",0.0,-2.5950524,120.8064744
"7GF7+4MV, Danau, Towuti, East Luwu Regency, South Sulawesi 92982, Indonesia",Towuti Lake,"[{'height': 1200, 'html_attributions': ['<a href=""https://maps.google.com/maps/contrib/102927116785675358881"">joko nurcahyo</a>'], 'photo_reference': 'AUGGfZlYo3yO_RHPiAyOG_xmyeZ7A8sEva3zRmUb8ssCcnCxpxhav9qJLjOaQwKMiJ530C5wV8bYZddEl-I0SJBoJXMO9YsGNX_-9b01ljEu63Ff2AeJoQddh3gWHbhM0Ev0EFUGFsU_1H5H6lffrxuTB6GEiG9Yd27_qzM-CUUpEtO6nSlA', 'width': 1600}]",ChIJ_zl2CnCFkC0R4Udn6Dmgido,5.0,"['tourist_attraction', 'point_of_interest', 'establishment']",1.0,-2.7271486,121.5141615
"6GV3+XW, Danau, East Luwu Regency, South Sulawesi, Indonesia",gunung batu danau towuti,"[{'height': 3728, 'html_attributions': ['<a href=""https://maps.google.com/maps/contrib/109475113217534545252"">A Google User</a>'], 'photo_reference': 'AUGGfZmzcqQqPer-QfUdZWwoQ4_icMIEWfPZL8ImfKhP9HasbQ8lbnayLwD7dJDq6ca4Ammi8F9L2p9GuTCMX2kkThYTV4MLtOlN2wpExXtNLd4btcuLXxCbL5wiXKugntQ5s37HWJqbNH61mZe8BxzmZvTiLMzmodaYS-wUo-D6FXVBH6N3', 'width': 15664}]",ChIJrRci7XmFkC0RvXwql9mUdAI,0.0,"['tourist_attraction', 'point_of_interest', 'establishment']",0.0,-2.755047,121.50476
"6FVW+8H, Danau, East Luwu Regency, South Sulawesi, Indonesia",Danau Towuti,,ChIJ26SiSzeFkC0RaYg7rm5HIFw,0.0,"['tourist_attraction', 'point_of_interest', 'establishment']",0.0,-2.7566946,121.4963956
"9F74+XH, Pekaloa, Towuti, East Luwu Regency, South Sulawesi, Indonesia",Pemandangan Danau Towuti,"[{'height': 3120, 'html_attributions': ['<a href=""https://maps.google.com/maps/contrib/104863589003535391761"">A Google User</a>'], 'photo_reference': 'AUGGfZkarhr9gvKhctyMBP6PJAlmWqy4X9sUqHEGDpxDUGCzOIlnFfhQoc-5yYD1skJRfwDMsfA9rlS6JbdeAVdX_liryWPDhh2K7OfN5KVh9zMXqRXrJyE5H9GIlfxd7kT330CMeQI7iNhKGZTybYJtmQMGoHjkoq7oOLMePpqqiKTt5tBp', 'width': 4160}]",ChIJNVh2LGZ9kC0R3Q2KslALCLw,0.0,"['tourist_attraction', 'point_of_interest', 'establishment']",0.0,-2.6351207,121.4564974
"Pekaloa, Towuti, East Luwu Regency, South Sulawesi 92982, Indonesia",Pantai Siuone pekaloa Towuti,"[{'height': 3024, 'html_attributions': ['<a href=""https://maps.google.com/maps/contrib/101257142320959731104"">Makmur Jaya</a>'], 'photo_reference': 'AUGGfZmGxeaRPw0ra9QuSjvDkrRRxMq2WEGtHyVcG8zAMq7fSAa0P97GY0hiYeb_-yqLZ_fl8tdeK8g2ilBCyL7u2aNPrf_tMNrZTXvkuEn18otmk_utYDHkyB2ZqyUniHosarfl0HIKYcRd8GjDF0CYMs4ltU88e3x3AzT-ATi9gQ0XnNZj', 'width': 4032}]",ChIJI3K5AoxjkC0RPZaCxDo1kEU,4.2,"['tourist_attraction', 'point_of_interest', 'establishment']",25.0,-2.6403214,121.4448643
"9FPM+82, Pekaloa, Towuti, East Luwu Regency, South Sulawesi, Indonesia",Bubuta,"[{'height': 958, 'html_attributions': ['<a href=""https://maps.google.com/maps/contrib/114628428869884711863"">Dehan Gafah</a>'], 'photo_reference': 'AUGGfZn3iCLiqwvjaDcG4k_QrKg_tiJfy4UpYLo3x90hfI6isNvvULXoFf-CpJGAmS70FRun90iyuUnJHRFtdnXd7sal6FV4FgGoY5cQpMPARWK3wCktMJ1CkX461XoVTuhX-PEIBQQbhGBOxP9k3oBkYHAk3pvwIpec3HwV6krp6mKYvQVx', 'width': 1280}]",ChIJWzIRSVd9kC0Rxt14P_6n1AU,5.0,"['tourist_attraction', 'point_of_interest', 'establishment']",2.0,-2.6141726,121.4826204
"987X+PP5, Jl. Ahmad Yani, Lioka, Kec. Towuti, Kabupaten Luwu Timur, Sulawesi Selatan 92982, Indonesia",Telaga silika,"[{'height': 6936, 'html_attributions': ['<a href=""https://maps.google.com/maps/contrib/108326079356454040729"">A Google User</a>'], 'photo_reference': 'AUGGfZlm94_piW3wiXXs22Ca4BHXfr-TnsHD7wtetFfY2NFtzXJRmkkkkqEP_CG5ovEJExNcRotXqYaWexBfIswUnVXWV53CvhqkX-GtoRZQ1hU0Y4cygYjaZ5K0FLAf_9qBz5i4ow93bXnqwwbm9PP4bYoyyJrTvvg8tPZG3bpjwne8tEP0', 'width': 9248}]",ChIJ25jz0I5hkC0R8RV_RUZQwtA,4.0,"['tourist_attraction', 'point_of_interest', 'establishment']",3.0,-2.635747,121.349369
"98WV+H3Q, Jalan Bukit Asah, Asuli, Kec. Towuti, Kabupaten Luwu Timur, Sulawesi Selatan, Indonesia",Bukit Firdaus Asuli,,ChIJ4YVEDABhkC0RgGQFBjYunCA,0.0,"['tourist_attraction', 'point_of_interest', 'establishment']",0.0,-2.6035353,121.3427262
"8C98+W2M, Timampu, Towuti, East Luwu Regency, South Sulawesi, Indonesia",Pantai lamapu Timampu,"[{'height': 1280, 'html_attributions': ['<a href=""https://maps.google.com/maps/contrib/111681551438247401155"">A Google User</a>'], 'photo_reference': 'AUGGfZncry6YOaMUNkUT7c9XB8LSpKWz0wxBkfybkYaKdyhEpQYDKvZitPKmNVDMOslGgt1wu3_MIy3GHuMXJMS_cQnZaZ2RatQ6MFNTLSQ-YU-VZUapyKH0R-2Y-s6FcCA4LFyiSsqftnlwXMK185bMtLTe2eD_tO8d4n9NW_g2uwKIY3li', 'width': 960}]",ChIJsezV63iJkC0Rmk_fQUVl6Vg,4.8,"['tourist_attraction', 'point_of_interest', 'establishment']",4.0,-2.6801535,121.4150395
"8CRF+M7, Timampu, Towuti, East Luwu Regency, South Sulawesi 92982, Indonesia",Villa takeshi timampu,"[{'height': 3264, 'html_attributions': ['<a href=""https://maps.google.com/maps/contrib/103881230905892761168"">A Google User</a>'], 'photo_reference': 'AUGGfZn4SsoB6h5r7KAXC-PKgvAOUz_xubdSVFOzCqUNPZAXJPPAhAK0ukNAtNxRSjjyrRLzK6vN07SawO36lkgPTk-PF4zT6wB0xEo1q1OzguYj9qrCP8Caapyw3XRzQ_jHI8xzTEIVR9q90dY_FmGcbuenPIQMBXavhdwR01Zz0TflHOoT', 'width': 1472}]",ChIJLxfZ4QSJkC0RnhEUoyc0FGQ,5.0,"['tourist_attraction', 'point_of_interest', 'establishment']",1.0,-2.65828,121.4231783
"9CMH+9H5, Pekaloa, Towuti, East Luwu Regency, South Sulawesi 92982, Indonesia",Kompleks Danau Malili,,ChIJpUome9tikC0R6WJx3pKF1a4,5.0,"['tourist_attraction', 'park', 'point_of_interest', 'establishment']",2.0,-2.6166132,121.429
"9C7V+9Q, Pekaloa, Towuti, East Luwu Regency, South Sulawesi 92982, Indonesia",Perkebunan merica,"[{'height': 1952, 'html_attributions': ['<a href=""https://maps.google.com/maps/contrib/106805729046999609571"">A Google User</a>'], 'photo_reference': 'AUGGfZluSWYQpXTMGzp8pH4k7hA-6JypXx8p-BjR7YIxeTWpJehJw39shtLb2_S-ZXqE-7mCzD3oJLqvqa6z0dpDodCpApPz_4DXSZBNluL4wFrxuGKxaqrLLJlTdZJmgGCV8JUxPexl1IP9KMsdeGI2Cwhf6qjAY70sz6C5pl0Lq9Srdw75', 'width': 4160}]",ChIJ-Q7IOw9jkC0R03MDo7hrct4,5.0,"['tourist_attraction', 'point_of_interest', 'establishment']",3.0,-2.6365967,121.4444985
"Asuli, Towuti, East Luwu Regency, South Sulawesi, Indonesia",BUKIT BERKAH,"[{'height': 3024, 'html_attributions': ['<a href=""https://maps.google.com/maps/contrib/101445951477523478994"">ilham santos</a>'], 'photo_reference': 'AUGGfZmjdWcQ-MqxMSkqCgh-aeQB_SL76DeoY-vdOVZxd4HZ0XozfESEXnr5w8e899ldMYxSzmCLuSz8lJG5g4BuB284QtoEt3oQtXAQLip6Pz_1VuqSd81fjCct7rSj5WOzUkBUaJIfs7ctvxnvkaIZR7P8wYOqFbPH5i7_BdQ9vjyi4OWh', 'width': 4032}]",ChIJVe0pIedjkC0RdsN2oJGS2s8,5.0,"['tourist_attraction', 'point_of_interest', 'establishment']",1.0,-2.6275345,121.3760679
"4GMM+H6W, Danau, East Luwu Regency, South Sulawesi 92982, Indonesia",Pulau Wasobonti,"[{'height': 4000, 'html_attributions': ['<a href=""https://maps.google.com/maps/contrib/112779800923551622351"">indra yhoga</a>'], 'photo_reference': 'AUGGfZm7dXxLuMywfcFG3gn_wD90p8CDVyUlugl1K6ZdPQekBbXg6HC0xYPq6LxmxSZUvhBfuo7LvpkWsV-DOM1tYJYmmzh1v8umSeygw390ZY4ssnCTo236THxxhkj7nIPSGLoXfMiC111G53K5_hZ2DFqWDoOUDeAZ08bOpPwqP_zlPWz-', 'width': 2252}]",ChIJ82Jf1aGZkC0RuqZYta8si2E,5.0,"['tourist_attraction', 'point_of_interest', 'establishment']",1.0,-2.8660115,121.5330645
"97XM+49, Tabarano, Wasuponda district, East Luwu Regency, South Sulawesi 92983, Indonesia",Bukit Awan Wasuponda,"[{'height': 2699, 'html_attributions': ['<a href=""https://maps.google.com/maps/contrib/117148873814999282078"">rahmawati sh</a>'], 'photo_reference': 'AUGGfZlOGx1Mig78VzwC1uVTaG4YSVmBdIAYzPqb3d3bUe49ocZfjZXnDvsAQ6kmIl-owQPA7A9lLMO85hTz58A9ULvl9NTrn-6wYadW4uGvRE45vQjjEiZVVF35bpUUIbEx9N1hgw0af3q8y0EBPE77d68BvCdMyLpTHoJuSG5ACeYZbnGE', 'width': 3510}]",ChIJCxXBcS9hkC0R1iBIGvS-8_k,4.6,"['tourist_attraction', 'point_of_interest', 'establishment']",5.0,-2.6022029,121.2834376
"C74M+M44, Tabarano, Wasuponda district, East Luwu Regency, South Sulawesi 92983, Indonesia",VILLA BUMATA (Bukit Makmur Tabarano),"[{'height': 3264, 'html_attributions': ['<a href=""https://maps.google.com/maps/contrib/104084476511101118899"">A Google User</a>'], 'photo_reference': 'AUGGfZkNHWcNRWxK9XkP_1HBfpzAcnqMTN5-CR9Jsug8dqrJLso45-scrIRcOQLAMJ8chtQbpkndMpZCzxWdtiD-jYjJiwzgVgcT8tGTD8jHbiTDbGV2_XtqjEJ4PtNZjYHxXEhR6gXj0KmI-3eU3T4q_dxy9ffD77hI-jGQfhgMDOOUEEBp', 'width': 2448}]",ChIJc-k9BJRhkC0REVHCNE-m1GE,0.0,"['tourist_attraction', 'point_of_interest', 'establishment']",0.0,-2.5933526,121.2828398
"C7X6+3V, Ledu-Ledu, Wasuponda district, East Luwu Regency, South Sulawesi, Indonesia",Reservoir ledu ledu,,ChIJkwWEDgBdkC0RO9uBk-OauO8,0.0,"['tourist_attraction', 'point_of_interest', 'establishment']",0.0,-2.5523356,121.2621504
"C74R+MMQ, Jl. Tani, Tabarano, Kec. Wasuponda, Kabupaten Luwu Timur, Sulawesi Selatan 92983, Indonesia",Villa Ayuradhinfadyazahra,"[{'height': 4032, 'html_attributions': ['<a href=""https://maps.google.com/maps/contrib/114203501021125449471"">A Google User</a>'], 'photo_reference': 'AUGGfZmNCxWj4l5prjj4077R8e3Zsb_sQCnznENBR-HQLn238_tZgZru3tYBI3KfubI-qxuFmekf3fzNOiiO5zFw2sUdCnOven88ZKQRCwPSdpiNcd4lsbJkuQqVBaxSOIshTI_fnNPn-zmWI6eUZz8KihrkbDjCSNtrk0ZHYJon002QeWRW', 'width': 3024}]",ChIJbwVsB_BhkC0RniaD3_MQ0dg,5.0,"['tourist_attraction', 'point_of_interest', 'establishment']",3.0,-2.5932953,121.2917364
"97HP+CR, Tabarano, Wasuponda district, East Luwu Regency, South Sulawesi, Indonesia",Teteuru wisata kebun,,ChIJpXO0KwdhkC0RrAD4JtkhoC0,0.0,"['tourist_attraction', 'point_of_interest', 'establishment']",0.0,-2.621391,121.287112
"C7H2+7FG Intake, Ledu-Ledu, Wasuponda district, East Luwu Regency, South Sulawesi 92983, Indonesia",Intake ledu ledu,,ChIJ32a2HQBdkC0R6GJp7BG2w0M,0.0,"['tourist_attraction', 'point_of_interest', 'establishment']",0.0,-2.5718054,121.2511908
"C6JH+2M, Ledu-Ledu, Wasuponda district, East Luwu Regency, South Sulawesi, Indonesia",Bukit Tete beta,,ChIJ44wlEQBdkC0RFix0y79TZzM,0.0,"['tourist_attraction', 'point_of_interest', 'establishment']",0.0,-2.5699078,121.2291651
"C75G+JFJ, Jl. Poros Wotu - Malili, Sorowako, Kec. Wasuponda, Kabupaten Luwu Timur, Sulawesi Selatan, Indonesia",Surya Garden,"[{'height': 3456, 'html_attributions': ['<a href=""https://maps.google.com/maps/contrib/116113118073798029067"">Tora Wala</a>'], 'photo_reference': 'AUGGfZmd5k0VvmCNJYdlCYXVNMtManuv_00vd7mJVa5UdmdgJKgpeb_0ui0jTTG5R1GrsOdag-46FS210RyXR-IwgIkliLnqmjCF8zx8BCQkNpUwRbXUURg6NaH-7MjyT-nAj43YDSzSwuOxHPW8odbVADeW_1gAE9rZIO3b1Tw04776rR0t', 'width': 4608}]",ChIJ89bH_KVhkC0Rv1c1fkMtCkg,4.6,"['tourist_attraction', 'point_of_interest', 'establishment']",10.0,-2.5909224,121.2761255
"976G+4R, Tabarano, Wasuponda district, East Luwu Regency, South Sulawesi, Indonesia",Merlan Tudon Garden,,ChIJz7mxJABhkC0RAtzso8C_6Wk,0.0,"['tourist_attraction', 'point_of_interest', 'establishment']",0.0,-2.6396606,121.2770019
"987W+6MP, Jl. Ahmad Yani, Lioka, Kec. Towuti, Kabupaten Luwu Timur, Sulawesi Selatan 92982, Indonesia",Permandian Alam Silika Garden,"[{'height': 3024, 'html_attributions': ['<a href=""https://maps.google.com/maps/contrib/109679004803956191038"">Rendy Nico Daniel silitonga</a>'], 'photo_reference': 'AUGGfZkIQHxpVeYggCn2vAghw6JEI8pQ1T7U4b7HkFbxH4TVq53lGJ4tRgHnIcw83MdCzfKxxl-9UMwXYuMvL3kJOZ7dPP3wUCWAX1G2Ez_UYaBp7OublYQQIa4qV3UvAPA8FmcrBRHWjyceq6XlojBdr_k8lWhfFXd-QOIPZy3t7ZhJlId-', 'width': 4032}]",ChIJLXjhov5hkC0RTTmc7dXLDpM,4.0,"['tourist_attraction', 'point_of_interest', 'establishment']",4.0,-2.6369183,121.3467186
"C7PR+V39, Unnamed Road, Ledu-Ledu, Kec. Wasuponda, Kabupaten Luwu Timur, Sulawesi Selatan 92983, Indonesia",Gunung landaka,"[{'height': 4080, 'html_attributions': ['<a href=""https://maps.google.com/maps/contrib/104735464245752206899"">A Google User</a>'], 'photo_reference': 'AUGGfZmapboXx_VOhu8WXIGbe9S_bb-54Cs2go88emVnLWF-jmU5Q7nj8TQB-L1YKp2eoJlZvyhg70P0sLO7J83RAtKAq_WZ8dFQhHBT0slQVqKZrpcDmgzC4sXCi4gNJM846oVy1YRrl8OTGPPBPVPDX4prv4qw-p_F6NOanw76WUclDSOm', 'width': 3072}]",ChIJs1m0jOJnkC0R1fuuoqBY7EA,4.0,"['campground', 'park', 'lodging', 'point_of_interest', 'establishment']",4.0,-2.5628292,121.2902319
