formatted_address,name,photos,place_id,rating,types,user_ratings_total,lat,lng
"V57F+V6F, Tombulilato, Kec. Atinggola, Kabupaten Gorontalo Utara, Gorontalo 96253, Indonesia",Situs wisata alam,"[{'height': 3824, 'html_attributions': ['<a href=""https://maps.google.com/maps/contrib/109525743981363295200"">Onal Nyenye Nyenye</a>'], 'photo_reference': 'AUGGfZm24eJq3YeZ3QzG2MXTQRdcZON4M8TtHBLgmRjOwooEQrGh8J9dlujKxAxic7DsJkE5e0LSi9-37cesDoVqTLOktCfaRvF4bweF7ueVP-C5fZsGV4s2FqQ6aEAGminCTVhbx-pzOJV1dFv49UJvqd-1YUzQuYYAosG71sP26r28srJ2', 'width': 6752}]",ChIJ58KKI6WxfjIRB5QuyHRK1ZM,4.7,"['tourist_attraction', 'point_of_interest', 'establishment']",6.0,0.8522002999999999,123.1667711
"R36R+V6, Ilomata, Atinggola, North Gorontalo Regency, Gorontalo, Indonesia",Gundul,,ChIJbVzMFAC1fjIRNH5C-vEWkts,0.0,"['tourist_attraction', 'point_of_interest', 'establishment']",0.0,0.8122218,123.0905957
"W3GJ+3P4, Imana, Atinggola, North Gorontalo Regency, Gorontalo, Indonesia",Pulo Bolas,"[{'height': 4640, 'html_attributions': ['<a href=""https://maps.google.com/maps/contrib/108714302291136271083"">A Google User</a>'], 'photo_reference': 'AUGGfZmIWVCMKcASd-TB6w_LaM3CLsVuxXF_r56BkZnxOJhEhp7s6TnPf_s4gRYB6y7hmQz-qHTbmP3Kk5DiTxt2t0twLA6MwwsZemPJmvZJuv1hF-HXzlOTqlzFMKxW49ZSwSpX0OBes6s2TsRTfg4k7cbGquLxkJARvLr6Reag-IEhjgeT', 'width': 2610}]",ChIJLyuaO1ytfjIRCbGmX4eTG4s,5.0,"['tourist_attraction', 'point_of_interest', 'establishment']",1.0,0.9251273999999999,123.0818171
"W476+H9F, Jin City, Atinggola, North Gorontalo Regency, Gorontalo 96253, Indonesia",Otalojin (Batu jin),"[{'height': 1080, 'html_attributions': ['<a href=""https://maps.google.com/maps/contrib/112116518227163519395"">A Google User</a>'], 'photo_reference': 'AUGGfZnpi17v2UlgpPytrcG8SdmUj7TE8K9D23jGk3gDWo6tJdmAE17GcPt4KcAvzB3y4OB6yZo_HO5T3mgx3W1Fji9uDtUk5z-wU3-zSs9T7PsufkiQ3BKcI7F6r3_omJ38jnmwUfjbxEPiF4ZkFYNTxvuKDlEuY4j7bLLHX78dYM7LpVUC', 'width': 1080}]",ChIJkSAG2G2tfjIRVREH0sqj-dg,3.8,"['tourist_attraction', 'point_of_interest', 'establishment']",5.0,0.9139463999999999,123.1109329
"W4G5+VC2, Pantai Minanga, Unnamed Road, Kota Jin, Kec. Atinggola, Kabupaten Gorontalo Utara, Gorontalo 96253, Indonesia",Minanga Beach,"[{'height': 2448, 'html_attributions': ['<a href=""https://maps.google.com/maps/contrib/109047614889046453282"">firman laurensius</a>'], 'photo_reference': 'AUGGfZnHCYzXg67gKVFSnO394kRcwFvWFBOFTVXzhYLBEe60DNlMjdMFood7qa81BvY6ud5w4ZmV9BPXykc2IHKOa1HbzJtBu_cBKWJnGao03kj77h9VKIyS6S2guA_RO3GAhAt2e09AN0Wk_u5eDC9GwGHXJKnfD4Zh_KGQEcaUWY6Evbkp', 'width': 3264}]",ChIJ33fYXdatfjIRllnUAWuqzIE,4.5,"['tourist_attraction', 'point_of_interest', 'establishment']",106.0,0.9271452,123.1085135
"V53R+QQ, Buata, Atinggola, North Gorontalo Regency, Gorontalo 96253, Indonesia",Danau bidadari (TOMBULILATO),"[{'height': 780, 'html_attributions': ['<a href=""https://maps.google.com/maps/contrib/115945185838383114759"">A Google User</a>'], 'photo_reference': 'AUGGfZmOkPhb9YrcZRu2e3r-OQHFi-okrxubdrxHXLfAuNoDY972kDrH2KRK4owdS34Hk83lKsdjcC1C4IYd6nExm-_j60a03tigAhUB5DnKUaw-m6pMjan1sN_3jj_CX3BG7iksdFwz5KhGbG24eEDBgwFnB5mh2SX4J09bPFVYQIOri9aG', 'width': 1040}]",ChIJT5x1uhCxfjIRon2qxEiKkk8,0.0,"['tourist_attraction', 'point_of_interest', 'establishment']",0.0,0.8544204999999999,123.1919939
"W483+69, Jin City, Atinggola, North Gorontalo Regency, Gorontalo, Indonesia",Jl.lpn,"[{'height': 3264, 'html_attributions': ['<a href=""https://maps.google.com/maps/contrib/116111960140328208814"">A Google User</a>'], 'photo_reference': 'AUGGfZnelD1uqtGu2GI7M_CMe1fWy_sc2HwKIM2GSjvQUV7PqZs2j6eeh_iX5e4ikzeHXogjhSfD1lMWGgkR6IjoSjkXK30DtzItnSjs4ZoVINZkZxKMJcKpBle1Vscq2kblfiwaHyEn5L2OMMs8P6Zl-haTzVwuWAoNcwNae0eQyVjK693i', 'width': 1458}]",ChIJW7uHBkGtfjIRZb5L8xtHHPA,0.0,"['tourist_attraction', 'point_of_interest', 'establishment']",0.0,0.9155970000000001,123.103376
"Jin City, Atinggola, North Gorontalo Regency, Gorontalo 96253, Indonesia",Gazebo Warong Pantai Minanga,"[{'height': 1080, 'html_attributions': ['<a href=""https://maps.google.com/maps/contrib/112116518227163519395"">A Google User</a>'], 'photo_reference': 'AUGGfZk4AOGlRomkzGpK2Z5pWBZsRi69x13SV3akWzveoaDTvZ2ldLDsIeyGOJP7aZ_9r8xmu_NIJc5CfI3fyvQWw4YiDBrZ6Ug5OocJO62eoeko4F5b1DiKDNGP9BoyxnLK0er-ip3wNgSar_Zi7clWGDOTgX2vlnHDDaMcnIkO_D4QkPnx', 'width': 1920}]",ChIJO_clNtitfjIRvoMRTT_g95U,5.0,"['tourist_attraction', 'point_of_interest', 'establishment']",4.0,0.9265984,123.1064532
"W3HX+2R7, Utara, Kota Jin, Kec. Atinggola, Kabupaten Gorontalo Utara, Gorontalo 96253, Indonesia",Monggoniomo Tanjung,"[{'height': 3024, 'html_attributions': ['<a href=""https://maps.google.com/maps/contrib/110946499644556986837"">afandi amin</a>'], 'photo_reference': 'AUGGfZncNERUVz1AAbooe8FIaO20uE4ozOsdEGurdfF_8iKbhO5Xx2rmjr3t0Yg_9jqFWIw4fdffQJC-Zwz2HqYUtvQoLM3XMZUSHLYLtc1LBGhwImwI_finb1ZTwbgeL3gPJtEhkxMa5CwroIzrBGilSHtuv-yv19F9IsrE_TYpW4sxqyzZ', 'width': 4032}]",ChIJPQYraXKtfjIR2oxzoV5ZbsE,4.0,"['tourist_attraction', 'point_of_interest', 'establishment']",16.0,0.9275451,123.0995546
"V3C9+XXM, Unnamed Road, Ilomata, Kec. Atinggola, Kabupaten Gorontalo Utara, Gorontalo 96253, Indonesia",Air Terjun Henduma,"[{'height': 4624, 'html_attributions': ['<a href=""https://maps.google.com/maps/contrib/110321947588026959396"">A Google User</a>'], 'photo_reference': 'AUGGfZm_Fyy-HIQebnS9vwa66pIf8pMalrod30UtDmk8HbOzfF0XA9_2Ju9IRogVuB4SWCbUDEVTEbRF_IzEPKg0sbN_077NhDmY12-MV9DMJTJGjhvNUw33kbo5Ys-R7_OilpkmxT37vZgf6AkiaUVXnasg8Xrct5Uneqimpw2vBR54hxso', 'width': 3472}]",ChIJi8BeU5xNeTIR8z4oMgrdetw,5.0,"['tourist_attraction', 'point_of_interest', 'establishment']",2.0,0.8724609999999999,123.069917
"W429+HJF, Jl. Trans Sulawesi, Kota Jin, Kec. Atinggola, Kabupaten Gorontalo Utara, Gorontalo 96253, Indonesia","Gate ""Welcome to the Gorontalo province""","[{'height': 2304, 'html_attributions': ['<a href=""https://maps.google.com/maps/contrib/109454967070687847652"">A Google User</a>'], 'photo_reference': 'AUGGfZmP7BiVz_rOv5diVPMq6pgaA633XhqrRU1KZQlTap3i-ngWJVbhdlVhinRZmvWSsRZ8lvDNICbkNbyOKKGe7L2-3SNuC6mWRrR94Q_PwEzwW5FUU7P2MOBnwU1ygClet6GuCWISO-HiY70XrqmZsu54VxMJFBdTg-jhJFyQYAGiYvX_', 'width': 3328}]",ChIJ_SLRmXStfjIRMKpYXPOQM0Q,4.3,"['tourist_attraction', 'point_of_interest', 'establishment']",343.0,0.9014236999999999,123.1190544
"Jl. Trans Sulawesi No.70, Utara, Kota Jin, Kec. Atinggola, Kabupaten Gorontalo Utara, Gorontalo 96253, Indonesia",Gapura Wisata Pantai Minanga,"[{'height': 3464, 'html_attributions': ['<a href=""https://maps.google.com/maps/contrib/112116518227163519395"">A Google User</a>'], 'photo_reference': 'AUGGfZl4FuxCrbExzY2pymdHtM9aX1jgybUpLutVx96lLcVmSmA-4jbZpR1viZsr18g0aSaFq1LaBgdw3Gh5GZa9J7F-pZ8uGK2ALF9frO5JQ4zBtvLYC8Q1_y1LWNtdhBWqsssYGtDCbr-wapW6zBEborg3pIms7FMwK-5--Kc0PbQoHGPi', 'width': 4618}]",ChIJuUFrr4utfjIRivQ3tVlS73w,4.4,"['tourist_attraction', 'point_of_interest', 'establishment']",9.0,0.9117932,123.1105919
"W3HV+CR7, Utara, Kota Jin, Kec. Atinggola, Kabupaten Gorontalo Utara, Gorontalo, Indonesia",Pasir Putih,"[{'height': 4608, 'html_attributions': ['<a href=""https://maps.google.com/maps/contrib/116969891430022597309"">Adi Samin</a>'], 'photo_reference': 'AUGGfZn7A1g3nHoLCVsjN2DOOW5e7OSZx_txyDmXbpdRtplbzczizUM1jp81Z-wLn4sT_gp13Iy0tbDgYiPbtNv6Za65HOdYIzc4dT3znJP97dTh2WANA7gXTglvSRbPsfpi-I6u0cQGFPIA8_P8OXYmag5J0-ML6jS4rWpvgVEgSyQ23BFC', 'width': 3456}]",ChIJywMi25WtfjIR1_5AwPxXaOY,4.4,"['tourist_attraction', 'point_of_interest', 'establishment']",5.0,0.9285361,123.0945523
"W395+JRF, Dumolodo, Gentuma Raya, North Gorontalo Regency, Gorontalo, Indonesia",Dumolodo Beach,,ChIJ7zB9QQBTeTIR4FbIuGFbDL8,0.0,"['tourist_attraction', 'point_of_interest', 'establishment']",0.0,0.919056,123.0595434
"W3G3+CXG, Dumolodo, Gentuma Raya, North Gorontalo Regency, Gorontalo 96253, Indonesia",Pantai malagoso,"[{'height': 960, 'html_attributions': ['<a href=""https://maps.google.com/maps/contrib/108486620625853779625"">A Google User</a>'], 'photo_reference': 'AUGGfZmzBH0E7APEgv9uR7jM6eIXb7LukqYzB85TNFf8paaPu5x09K-eZoNYQasSLRriti_Ax15y5UAcBCG7_trNxtP1QtFhKXQovo6fQGcbuFjWfrK5GluAbm0a3f-iM9f8SATqQb3fuSJ0iuQ8oB9_4B2MJTMjmoRGqoFl-36_dqOHgnjq', 'width': 720}]",ChIJ05RKWY9TeTIR7kVsgnqYRIU,4.4,"['tourist_attraction', 'point_of_interest', 'establishment']",13.0,0.9255045999999999,123.0565876
"W2PR+8MV, Dumolodo, Gentuma Raya, North Gorontalo Regency, Gorontalo, Indonesia",Malagoso beach,,ChIJiybeJelTeTIR9ynjaCGYH5Y,0.0,"['tourist_attraction', 'point_of_interest', 'establishment']",0.0,0.9358683000000001,123.0416722
"W2JQ+234, Gentuma, Gentuma Raya, North Gorontalo Regency, Gorontalo, Indonesia",Pantai Ketapang,,ChIJDRajOwBTeTIR-yux2UmvWak,0.0,"['tourist_attraction', 'point_of_interest', 'establishment']",0.0,0.9300102,123.0377072
"W428+8PC, Jin City, Atinggola, North Gorontalo Regency, Gorontalo 96253, Indonesia",Taman Kota Atinggola,"[{'height': 1216, 'html_attributions': ['<a href=""https://maps.google.com/maps/contrib/108377378920301709376"">Frederikus Ricardo</a>'], 'photo_reference': 'AUGGfZnWEq21xeYE3jiki12q7OSg9Fef8XTQq6vjjnazfbVVPEOkMrVECvQ6wZDrJs9r-aQhczKdtWRphHvQ-MJZX5AE1YupLaeuBZBWfcWUYzwgU6hEdSXvjwzKlbJ1y-SqlnK0E8ZhrQPsjWs2Ag6vdjxO7Up0yVmQC0N9L4bKEPIEEc9d', 'width': 2528}]",ChIJN-ELo9etfjIRIA10ieB7vkQ,4.2,"['park', 'point_of_interest', 'establishment']",35.0,0.9008056,123.1167636
"262J+55, Windu, North Gorontalo Regency, Gorontalo, Indonesia",Teluk Biau,,ChIJ57CADwCHeTIRlRdddOWrsuo,0.0,"['tourist_attraction', 'point_of_interest', 'establishment']",0.0,1.0004768,122.2304226
"X6P8+CV7, Jl. Buol - Gorontalo, Biawu, Kec. Tolinggula, Kabupaten Gorontalo Utara, Gorontalo 96524, Indonesia",Tugu Desa Biau,,ChIJi4HppCqHeTIRyrGkaaz7mOQ,0.0,"['tourist_attraction', 'point_of_interest', 'establishment']",0.0,0.9860376,122.2171635
"266F+88, Tolinggula Pantai, North Gorontalo Regency, Gorontalo, Indonesia",Desa Biau Beach,,ChIJnbJnAwCHeTIR0H6CsClyxD8,0.0,"['tourist_attraction', 'point_of_interest', 'establishment']",0.0,1.0108389,122.2232601
"269G+4R, Tolinggula Pantai, North Gorontalo Regency, Gorontalo, Indonesia",Pantai Biau,,ChIJTR9qRACHeTIR4p6_j9zgwHQ,5.0,"['tourist_attraction', 'point_of_interest', 'establishment']",1.0,1.0178391,122.2270079
"X6Q6+GH, Biawu, Tolinggula, North Gorontalo Regency, Gorontalo, Indonesia",Sungai Biau,,ChIJQ-oblQ2HeTIRdC_WIfdDoh4,5.0,"['tourist_attraction', 'point_of_interest', 'establishment']",1.0,0.9888606,122.211391
"X6FR+QW, Didingga, Tolinggula, North Gorontalo Regency, Gorontalo, Indonesia",Puncak Kecamatan Biau,,ChIJeQYrGgCHeTIR4ye_BxZG660,0.0,"['tourist_attraction', 'point_of_interest', 'establishment']",0.0,0.9744368,122.2423015
"W2JG+XH3, Molonggota, Gentuma Raya, North Gorontalo Regency, Gorontalo 96253, Indonesia",Pantai Milango Gentuma Raya,"[{'height': 1840, 'html_attributions': ['<a href=""https://maps.google.com/maps/contrib/109144985710921757311"">A Google User</a>'], 'photo_reference': 'AUGGfZk7ex3AOuUAcTgPGvw8SYW29oB1_I896UPG7e79Cc_Unkhy71fbxmX_WoVhJjSz48etNtkqtbjsBdtdy8bN-3D8Nn_ijM0dElJ5JI16fMEo7Yo8lA2Yhu9PBKaFlUH5adiAhX91OXkuZS6hsGVfkDomlXgirBhOVo-1HeNKVYSl3r0', 'width': 3984}]",ChIJ5RNrdpVTeTIRumhEmm8Vmj8,5.0,"['tourist_attraction', 'point_of_interest', 'establishment']",4.0,0.9323956,123.0264255
"W2JP+X72, Gentuma, Gentuma Raya, North Gorontalo Regency, Gorontalo, Indonesia",Pantai nestapa,,ChIJX1jZF8tTeTIR09V-qBa-azA,0.0,"['tourist_attraction', 'point_of_interest', 'establishment']",0.0,0.9323990000000001,123.0356536
"WVG7+GHJ, Moluo, Kwandang, North Gorontalo Regency, Gorontalo, Indonesia",Pulau Saronde Gorontalo,"[{'height': 4160, 'html_attributions': ['<a href=""https://maps.google.com/maps/contrib/110484249665942093983"">A Google User</a>'], 'photo_reference': 'AUGGfZkbXDgZoGcMb0a1E9lavflDqEs0qZIiw_odWIxXmnQBQu0EP3pXk5m1XiV18dRwa6KjSodQAtZw6s6Z-U3hHVqwuDF2V5TT8LztIdVVvWjChdgMEr6f6W4j6LyuXVYWP-H4A4xlH5AL9KhbFgspBXpmlG1j009xaSmVYJvZLoKvyMt1', 'width': 3120}]",ChIJZ0T_TfNbeTIRdoGuMqiyvqg,0.0,"['tourist_attraction', 'point_of_interest', 'establishment']",0.0,0.9263376,122.863895
"VVRP+693, Jl. Kec. Ponelo, Moluo, Kec. Kwandang, Kabupaten Gorontalo Utara, Gorontalo, Indonesia",Ponelo Kepulauan,"[{'height': 1280, 'html_attributions': ['<a href=""https://maps.google.com/maps/contrib/118207240818179838028"">Maryam Taib</a>'], 'photo_reference': 'AUGGfZlmbNcWZQq65Bd3InGMbAwiCKXSbRhgKIakfsYU2CyWeqevYBSoNSJwAExOrHkt2VXrF-0PSKWSuy4OLa-t57ZVMhQCdjBtjc-Dg3q3AgtI0CMah4O2TMJRfSTNSNJSL3UzD_QwoDte8VGFfXnWjzhv9H9TZ1Z0g63LQ7v1orXcPcyy', 'width': 960}]",ChIJaTCUlblbeTIRS_OQeAKi3To,4.7,"['tourist_attraction', 'point_of_interest', 'establishment']",38.0,0.8905172,122.8859277
"QVXP+26V, Mootinelo, Kwandang, North Gorontalo Regency, Gorontalo 96252, Indonesia",EMBUNG MOOTINELO,"[{'height': 2250, 'html_attributions': ['<a href=""https://maps.google.com/maps/contrib/110289700406363969088"">A Google User</a>'], 'photo_reference': 'AUGGfZlUaugFyu80OMvWOoaLkbhOfR5lgCaeSyHxNlNG3gZrkh9RMsskLevR22poPy2vD9in3rWSPJ2rt_l0zDJ0etfZ7kAgIEFykK1EIxViVA0_Tx9ux0ajyez2y48MJfFb5hYp97z0zeVshIRM2g724Dd7lDhPtn-22uV05oIgx7jMzn92', 'width': 4000}]",ChIJIdFB5nFHeTIRn9DkeV3UVAM,3.7,"['tourist_attraction', 'point_of_interest', 'establishment']",3.0,0.7976158999999999,122.8855378
"QVJ9+5R, Molingkapoto, Kwandang, North Gorontalo Regency, Gorontalo, Indonesia",Embung Molsel,"[{'height': 810, 'html_attributions': ['<a href=""https://maps.google.com/maps/contrib/113780702788611476247"">A Google User</a>'], 'photo_reference': 'AUGGfZkjkDwTE3rDYhwKHyWkRmn43qrWcHpds1ha-VvazMWNsSbOVD1DMBqZhRjUMH5GZkZXGNQMRTr1hOM0aU58VBjIFULptvJPv6RHNNP3FTZwlPWO6Q36VQaFvWxo4QUxVkjohpIqXWy26CZd-TxD1xxkl9xUSNM6stdaiQubj-STqqbX', 'width': 1080}]",ChIJ58Xs0XFHeTIRu_WUfKWBrUc,4.7,"['tourist_attraction', 'point_of_interest', 'establishment']",3.0,0.780393,122.869522
"Jl. Jatiluhur, Leboto, Kec. Kwandang, Kabupaten Gorontalo Utara, Gorontalo 96252, Indonesia",luade bulkii,"[{'height': 4160, 'html_attributions': ['<a href=""https://maps.google.com/maps/contrib/105902101868894572309"">sang gigolo</a>'], 'photo_reference': 'AUGGfZnsHqov205V0nny1TrLNy6uQgpjTASA1LRKWGokL5-TxLPJMPaShGNh8IwhAsdkK6tq7ia9KsEIeyaW9cjpuYLelODTvrjrJCFhzRMBqYgcwfrYvkVmcPiQz_1KL8OGr0Rz8_v7BWrMpy9pp_eyiY60ekujZQNcZRgT1ns6qFEBzB5V', 'width': 3120}]",ChIJy6nvp7RJeTIRv_U4GZdSDfg,5.0,"['tourist_attraction', 'point_of_interest', 'establishment']",1.0,0.8072796,122.9014138
"RW77+C4, Posso, Kwandang, North Gorontalo Regency, Gorontalo, Indonesia",Nzt Gamefowl,,ChIJq03lEwBJeTIRXhz-O688T3E,0.0,"['tourist_attraction', 'point_of_interest', 'establishment']",0.0,0.8135013999999999,122.9128658
"XW6R+5VM, Tanjung Karang, Kwandang, North Gorontalo Regency, Gorontalo, Indonesia",Pantai bongo,"[{'height': 4608, 'html_attributions': ['<a href=""https://maps.google.com/maps/contrib/111981857874267472558"">Prasetyo Ismail</a>'], 'photo_reference': 'AUGGfZm8jZtMZNxG32uiQhkptmBV-sFSCVwJc2ItHgHUIFHDb3-yWJtQjLAi-iHp1pyptBxlveabXcnQ4nG76zKlTGtV8mFmUaBhA6j33I5boVsJW4rK5OtInbd_O8BZ-rpLWh29MAuo0E2u-rXpZ3pTL9N4ef9LPeRdGI88aoWhde0b0F-O', 'width': 2592}]",ChIJdzwR-o1XeTIRqcRkLaFqMU0,5.0,"['tourist_attraction', 'point_of_interest', 'establishment']",3.0,0.9604637999999999,122.9421579
"Kode Pos:, Jl. Pelabuhan Kwandang No.Desa, Moluo, Kec. Kwandang, Kabupaten Gorontalo Utara, Gorontalo 96252, Indonesia",Pantai Mololohu,"[{'height': 4096, 'html_attributions': ['<a href=""https://maps.google.com/maps/contrib/107096003865150150953"">Srito Musa</a>'], 'photo_reference': 'AUGGfZkQS3aX48s7dbU8Xna2k36b4kDlpn--faA7W-jJX06dnHsiDA00m3VAKbkG5CQ3J4fXNP54NmzkYdECDplO3I30Aeyaznh3oRJ9enhw2WBmyAZX2BBy4Drj9-dvyL3g_zZMjgpGNw2WDM0luYR38HjOaK93RK3ctV1nVqNg3eqBbfKo', 'width': 2304}]",ChIJ5Ru4j05PeTIRWlDNVWFSsQc,5.0,"['tourist_attraction', 'point_of_interest', 'establishment']",1.0,0.8490226999999999,122.9071174
"QVFH+6M, Molingkapoto, Kwandang, North Gorontalo Regency, Gorontalo 96252, Indonesia",Air Terjun Botuwombato,"[{'height': 4000, 'html_attributions': ['<a href=""https://maps.google.com/maps/contrib/113386741797463412301"">PIJEI MULIYADI</a>'], 'photo_reference': 'AUGGfZk3U9dPbrESVacvvgaecxXY-CI1pEEjLMUBQDpingUy1FC_lO291SXr1v9VBmhT-vXygYQy3Zg54115mE1GdS6KR1mntoL81V6hVL0ghc4ZL2l8l_ONFptSnoGhJZ2LmPP4BdjR-C1pO8UG4ySSTpOn2Kr84KI4yh_70hPY6NciHChy', 'width': 3000}]",ChIJ7_tIixhHeTIRN-qrsfJJy6c,4.7,"['tourist_attraction', 'point_of_interest', 'establishment']",12.0,0.77323,122.8792333
"VW59+M9F, Jl. Gudang Arang, Dambalo, Kec. Kwandang, Kabupaten Gorontalo Utara, Gorontalo, Indonesia",Pantai Gudang Arang,"[{'height': 1920, 'html_attributions': ['<a href=""https://maps.google.com/maps/contrib/106289032404755275956"">A Google User</a>'], 'photo_reference': 'AUGGfZmkcBgZHsdgGhd59XnfKSDDaox0UsJd-A-QymUt7poQprY09x77bKaNxtCWq_inzRF5-tBlAAn-SHrK4y4gdE9Ns474Gu3SnU-dhin05SH9-AAnp7x7J-HTDt5DpW_-r9EtoNVwfKB6Uo0r0Jc4_XVYZTtVuFsTFJesrkzgs7GtFu3J', 'width': 1080}]",ChIJbyK3VL1PeTIRmPCtqULfFDM,4.7,"['tourist_attraction', 'point_of_interest', 'establishment']",3.0,0.859185,122.9184357
"QX94+52M, Bualemo, Kwandang, North Gorontalo Regency, Gorontalo, Indonesia",Mhmd Fadel Latif Sau,,ChIJt5BqBgBJeTIRLkFd9jsUObs,0.0,"['tourist_attraction', 'point_of_interest', 'establishment']",0.0,0.7679657999999999,122.9550349
"WVGG+2P3, Unnamed Road, Moluo, Kec. Kwandang, Kabupaten Gorontalo Utara, Gorontalo, Indonesia",Pantai Lito Mohinggito,"[{'height': 6000, 'html_attributions': ['<a href=""https://maps.google.com/maps/contrib/109296725885523276235"">rahmad aprianto</a>'], 'photo_reference': 'AUGGfZmoEhLIoKwqRyAoGSiaVr5IJ2ygHR0VwncEKwSnv8xE4PKqPjM28aDCjB5TNM7GHJq0foD85yp6fjjfigni0Q207aHfv44IobapL6PcNpSgeT9CDjmKYAo10wmj74vC9iBKplF4V2Gec_bnqaSK17nl0BcsBy93KQRs8xRM1ZJFo8pR', 'width': 8000}]",ChIJ41fImRBbeTIRr51BZ8ahWZA,4.4,"['tourist_attraction', 'point_of_interest', 'establishment']",16.0,0.9250020999999999,122.8767918
"XX72+P75, Desa Mutiara Laut, Tanjung Karang, Kel. Tomilito, Tj. Karang, Kec. Kwandang, Kabupaten Gorontalo Utara, Gorontalo 96252, Indonesia",Pantai Bengel,"[{'height': 4032, 'html_attributions': ['<a href=""https://maps.google.com/maps/contrib/102819967516913884359"">Wilyam Marturia Humonggio</a>'], 'photo_reference': 'AUGGfZl3UtDxJCMN5Bdbe4JQTKu7pQbvRdXdMKDxuEXTW3b8Kflu8AWu3MAn2wqX-JEfyuvp8-5rk1uiyDh-yCXg1uzR7ZwmlU4RZQTidwDsilmZjIdDaM4XePqUiJrM64G77QIc_B0Iu7SmRwVQYMg8YHwUxwcRv3LIfuYFkCjBQRzgCgMI', 'width': 3024}]",ChIJ_eCz4_JXeTIRJsRIAYqAlcU,4.8,"['tourist_attraction', 'point_of_interest', 'establishment']",5.0,0.9642505,122.9507338
"VRR9+58, Dudepo, Anggrek, North Gorontalo Regency, Gorontalo, Indonesia",Adi gentong p spot,"[{'height': 4608, 'html_attributions': ['<a href=""https://maps.google.com/maps/contrib/112845965701864534493"">Triadi Saputra</a>'], 'photo_reference': 'AUGGfZl_tB9yjo1m70T8ip_XhtO7UrPcw1ksidpzX7cD_zqLiJsfw3IsxAKVKnCd6iz54bdVsQMijB_SCbKo7wxfulkQ7xJ-V0AuhPVVTh75t9g9_DhydUB9nCb-VK-TaR-Bj00eSCqokC0GX16GVZYyNGvJZiRWPzvqmGKmOGjLg-a3Ltxi', 'width': 3456}]",ChIJYS5lRPJbeTIRdD5rz9z5m4w,0.0,"['tourist_attraction', 'point_of_interest', 'establishment']",0.0,0.8904069,122.8183213
"RR5R+FHH, Tolongio, Anggrek, North Gorontalo Regency, Gorontalo, Indonesia",Wisata Tracking mangrove,"[{'height': 720, 'html_attributions': ['<a href=""https://maps.google.com/maps/contrib/111735967295887577022"">A Google User</a>'], 'photo_reference': 'AUGGfZmYVGGA-4W5PIOTBiRK4UPX-H8dLiPaNBbXHqk0KWgvUtsE9E8k_MlmazagklF1pKoJwYUZsWyuIfJlAaIx7gU2o_J1D15Ue0GtPKR2TukLE8rmiGFFApkGjDA1YkgKNag9wPBWFuCrwbYD69iWRMUZ_INfGbQpgx9l0bcsXJt5DDvx', 'width': 1280}]",ChIJ8RGPY5lHeTIRPeu6Ss_dQa4,4.7,"['tourist_attraction', 'point_of_interest', 'establishment']",24.0,0.8086844,122.8414731
"VW27+6M5, Dambalo, Kwandang, North Gorontalo Regency, Gorontalo 96252, Indonesia",Benteng Orange,"[{'height': 2250, 'html_attributions': ['<a href=""https://maps.google.com/maps/contrib/104630413838482692847"">alampeto .</a>'], 'photo_reference': 'AUGGfZmzI5SN1wsWOiOcfrwkeyI7goys8-GwOLihGd9WjG_zEXqOU_jnjrpI0SpPprrnWkW4Q4tb1WRhitm_S4ETVRiSUYU2-C-m6eMCz4ssTqNly8Ew-4MIponQNTKcK7V_F9kvO5uVm1RcnEAd7NVthnMnhq7mt4dVjqnJqWJ8Dwq-VcS3', 'width': 4000}]",ChIJCfO2n3FPeTIRmBiGFPNMOKI,4.1,"['tourist_attraction', 'point_of_interest', 'establishment']",89.0,0.8505147,122.9142475
"RR9J+H82, Tolongio, Anggrek, North Gorontalo Regency, Gorontalo, Indonesia",Pantai Ilodulunga,"[{'height': 2448, 'html_attributions': ['<a href=""https://maps.google.com/maps/contrib/104706945691203958586"">djong djava</a>'], 'photo_reference': 'AUGGfZl05vORaVmGhOaxkFY5uZ_CA4grl3ay_LrfVxbin1hlJq6FNQmhHcUadMT2mS1gGPj1XnGuGnwHA44A8kWNoBfhbobxX2e8XhTlFYUJWsEj-oc6emgzphgdRDXFnuytkyatsbnvCcblrU8kwE5uBvIjWgcO7u9Zi0c-87h5dMrmQYDw', 'width': 3264}]",ChIJX6aDJSRHeTIRs4m59jmq3jI,4.0,"['tourist_attraction', 'point_of_interest', 'establishment']",4.0,0.8188867,122.8307748
"VV3W+CX8, Moluo, Kwandang, North Gorontalo Regency, Gorontalo, Indonesia",Kwandang,"[{'height': 4000, 'html_attributions': ['<a href=""https://maps.google.com/maps/contrib/107837749086968687119"">Hartarto Sormin</a>'], 'photo_reference': 'AUGGfZn7gV8rLvDHi8Inz7KYj8Uw9lDodXiqThlkCUWlo5ZjdOeEwH-Xn1D0FFfMrmzzqLF5kN59Sp9CFMATqEAipGKRJuakXL3B7NeHCWzzQzSDcOrESrjKw6oO9bQmq0OA8ImGT9lL5tZhJKls4NyEdUwwl3clX_IZnIJXpoa2OBjx5YJ5', 'width': 3000}]",ChIJ4aPj9rNFeTIR2qAxKk1xh2g,4.6,"['park', 'point_of_interest', 'establishment']",10.0,0.8534586,122.8973563
"RR55+4PG, Hiyalo, oyile, Kabupaten Gorontalo Utara, Gorontalo, Indonesia",embung hiyalo oyile,"[{'height': 3072, 'html_attributions': ['<a href=""https://maps.google.com/maps/contrib/101716158924525026271"">A Google User</a>'], 'photo_reference': 'AUGGfZmUIq20d3VUkyqdCU6AUXY7AGnbWAnqu2FBsSGL1w34a57osgecqoiKGQQaLRsYg66j4bcDiLrCoqUoDXXjD2mfGpV8JaPKiBdOgjDmVjndqR-tOEtl7-c8RfHB5tWUXkDJymhFOPqhuQMgt5yTVMhXifiuo48ptNaKQwXJDQc_01rM', 'width': 4096}]",ChIJO1I0NmNHeTIRDIiKMOtbEEc,5.0,"['tourist_attraction', 'point_of_interest', 'establishment']",1.0,0.8077679999999999,122.8093223
"QVQ9+JQP, Molingkapoto, Kwandang, North Gorontalo Regency, Gorontalo 96252, Indonesia",Taman Kwandang Gorontalo Utara,"[{'height': 2448, 'html_attributions': ['<a href=""https://maps.google.com/maps/contrib/116278456906086709930"">Zulfikar S</a>'], 'photo_reference': 'AUGGfZlJI0neTwyWKpetjYAzuL1H9nh_ZCflvp1I5xneOXCWXtfqzf7NZDleUsGzUKwChB-cVgG2yvwnFHao5HAgcKe5_anozR1MP1KEjT2LmLkzdS4sr26Tf-JxlQ8oz10Kh-YZ8m3LmhmmFmQ69Hd6qtKAtTKeIyuvRwNZVEYk_Nn8hlm1', 'width': 3264}]",ChIJjRQh5LNHeTIRqLU3H-DnVS4,4.0,"['park', 'point_of_interest', 'establishment']",20.0,0.7890803,122.8694512
"PV92+GPH, Jl. Trans Sulawesi, Buhu, Kec. Tibawa, Kabupaten Gorontalo Utara, Gorontalo 96216, Indonesia",Rumah Asma Ibrahim,,ChIJEWg0CwA5eTIRxckFzSOqBgE,0.0,"['tourist_attraction', 'point_of_interest', 'establishment']",0.0,0.7187458999999999,122.8519037
"MW5V+76X, Huidu Utara, Limboto Barat, Gorontalo Regency, Gorontalo, Indonesia",Bukit CUPAD,,ChIJ2fN9BqgxeTIRsH6KD3k2uWo,0.0,"['tourist_attraction', 'point_of_interest', 'establishment']",0.0,0.6582385,122.9431204
"RPWX+MWF, Tolango, Anggrek, North Gorontalo Regency, Gorontalo 96525, Indonesia",Kebun Anggur Tolango (Ka Too Garden),"[{'height': 4080, 'html_attributions': ['<a href=""https://maps.google.com/maps/contrib/101559585694662163811"">Ridwan</a>'], 'photo_reference': 'AUGGfZmYiQFHIjHMM0XJOiN5ldWfrSCSO2B2q0OtKGNQHQKraOZDS2S1ZJgSYiDam65l2sD-tTPQDaSbb9rosfVFcty0mvMGGjWIQ0KoAnT2sxZ7FodTkyKKbPqaYY7TIbs6Fb_P0-PdhwEh0Rh9BVTiJMbUAXNf7GyVp87m95kPkX5ZPT95', 'width': 3072}]",ChIJYd63PQBDeTIRDagSsWhKcB0,5.0,"['tourist_attraction', 'point_of_interest', 'establishment']",2.0,0.8465334,122.7496836
"MXC2+Q7, Huidu Utara, Limboto Barat, Gorontalo Regency, Gorontalo 96211, Indonesia",Kolam Tombong,,ChIJwaXm2wQxeTIRBmDrQ_SiZ1s,0.0,"['tourist_attraction', 'point_of_interest', 'establishment']",0.0,0.671993,122.9507051
"MV3R+79X, Haya-Haya, Limboto Barat, Gorontalo Regency, Gorontalo 96216, Indonesia",Kolam Polontanga,,ChIJ6VRhG5g7eTIRFEje1rGUybo,5.0,"['tourist_attraction', 'point_of_interest', 'establishment']",1.0,0.6530823,122.890986
"PVWC+PGG, Motilango, Tibawa, Gorontalo Regency, Gorontalo 96252, Indonesia",Sumur Tua,,ChIJC6lHcOc5eTIRfiMfDzipUZk,0.0,"['tourist_attraction', 'point_of_interest', 'establishment']",0.0,0.7457946,122.8721274
"JWV5+9J2, Padengo, Limboto Barat, Gorontalo Regency, Gorontalo, Indonesia",KAMPAI FARM,,ChIJ-2q6cNoxeTIR9rcRpAK7wGM,0.0,"['tourist_attraction', 'point_of_interest', 'establishment']",0.0,0.643384,122.9090153
"VQHC+77, Ilangata, Anggrek, North Gorontalo Regency, Gorontalo, Indonesia",Pantai Botuwanggubu,,ChIJp0xaAtJDeTIRckyuMuRWQnQ,0.0,"['tourist_attraction', 'point_of_interest', 'establishment']",0.0,0.8782968999999999,122.7707852
"RW5C+8FQ, Posso, Kwandang, North Gorontalo Regency, Gorontalo 96252, Indonesia",MEIS TAJA,,ChIJLe4baPdJeTIRJ4ZGlugESv0,0.0,"['campground', 'lodging', 'park', 'point_of_interest', 'establishment']",0.0,0.8083425999999999,122.9212265
"QRFX+557, Pontolo, Kwandang, North Gorontalo Regency, Gorontalo 96252, Indonesia",Home Tiara,,ChIJR7-NUABHeTIRAHyU2u_VsSw,0.0,"['campground', 'lodging', 'park', 'point_of_interest', 'establishment']",0.0,0.7729045,122.8479358
"P28C+W26, Unnamed Road, Dulamayo Utara, Kec. Telaga Biru, Kabupaten Gorontalo, Gorontalo 96181, Indonesia",Puncak Lestari,"[{'height': 2736, 'html_attributions': ['<a href=""https://maps.google.com/maps/contrib/100542601405494796245"">A Google User</a>'], 'photo_reference': 'AUGGfZnwhSzU5Zq80tO_jtklBZwDVPpPRKESFV151fpYfcIySY_1Uf6V4Ck4ZjpST26x2ZR8VL7lhwZLCAkCpcpzQhNiw1rGDW7xcB5HDKSjf7u6ARp2XijqiRgabbtdUB5usCjUikaSiv4WoWNApKTs0fIFV9wdvbl8t8A3IHIHEsjmQiXo', 'width': 4864}]",ChIJUwaxdz81eTIRFm9XbsyUeTM,4.4,"['tourist_attraction', 'point_of_interest', 'establishment']",43.0,0.7172864,123.020017
"MW28+2Q5, Ombulo, Limboto Barat, Gorontalo Regency, Gorontalo, Indonesia",Kandang Broiler Ombulo Dusun I,"[{'height': 2608, 'html_attributions': ['<a href=""https://maps.google.com/maps/contrib/114942741214275704777"">A Google User</a>'], 'photo_reference': 'AUGGfZn1fFd5e2YrTRhQJRNowWYzuCmrpDfYQ1ftZ_1tfe5hdFTJKnkRjXn19Zss5ueA1NiWD4tDQsuFfaCj9TOvBgN39UF14o6qQysSbgSCmODu6K7wFfqe8A-sw1Xb4Ju4Z115K1X9IhSGMfbzMshGLr7gnun1t9XePaKAaiGT_wjbuI1_', 'width': 4624}]",ChIJqU9YNdExeTIRqLabTr1c6Ic,3.0,"['tourist_attraction', 'point_of_interest', 'establishment']",2.0,0.6499119999999999,122.9163327
"MW32+P9, Padengo, Limboto Barat, Gorontalo Regency, Gorontalo, Indonesia",Terowongan Jembatan Kembar Haya-Haya,,ChIJo1ZLRQAxeTIRqBgdIlUY3v4,0.0,"['tourist_attraction', 'point_of_interest', 'establishment']",0.0,0.6543129999999999,122.9009068
"VPFJ+7VG, Tanjung Garapia, Kec. Anggrek, Kabupaten Gorontalo Utara, Gorontalo, Indonesia",Tanjung Desa Garapia,,ChIJg25SOqRDeTIRorx42zeI5mk,5.0,"['tourist_attraction', 'point_of_interest', 'establishment']",2.0,0.8731519999999999,122.7322244
"MX43+GH3, Huidu Utara, Limboto Barat, Gorontalo Regency, Gorontalo, Indonesia",RUKO OMA SISA,"[{'height': 3472, 'html_attributions': ['<a href=""https://maps.google.com/maps/contrib/115832316888429790125"">Rendy Lhuandhy</a>'], 'photo_reference': 'AUGGfZnf2ErwW6wPuTf2AM90A25ZUzs8_kCONbM1x30uQVxy-LnsoD084LowTJ0-OmSiciG20wdk65djIjQt0j6XO2fx9oUHuOiSNVeVcFw6Ywc75uCPhYWmTVwILNBcpN8W-D2DN1phTUJumYH6lW1qjJdPOnSUftnIoC5a0ZzSZkMXala-', 'width': 4624}]",ChIJk-4gickxeTIRCIH9Z7bH8eQ,5.0,"['tourist_attraction', 'point_of_interest', 'establishment']",1.0,0.6562635,122.9539227
"P2QX+F22, Dulamayo Utara, Telaga Biru, Gorontalo Regency, Gorontalo, Indonesia",Goa Kalilawa Waterfall Dulamayo Utara,"[{'height': 4032, 'html_attributions': ['<a href=""https://maps.google.com/maps/contrib/103043985860273661466"">Jihan Salsabila</a>'], 'photo_reference': 'AUGGfZkxFDwYglBywpxiVA9D7lJQhAuPD-thWXmZ0XLIlYwpZUCkua5_gYAjmORwCwwT1aXVRacDOfYqWgeJg9Oqj7ywJ2df6wXE7C2jG58jFoJhimO8RMb1FCb-zdrH9ELn1QMrL32hDuwsStEmQmjFRR6Cs4S5pNTCMlpK6umAoFKZKy2a', 'width': 3024}]",ChIJlfrWW1M1eTIRBAsCuSnTcSQ,4.8,"['tourist_attraction', 'point_of_interest', 'establishment']",4.0,0.7386431,123.0475171
"MRGX+P5F, Botumoputi, Tibawa, Gorontalo Regency, Gorontalo, Indonesia",Dusun karlota,,ChIJ599PGQA7eTIRqo-D7eK9VTc,0.0,"['tourist_attraction', 'point_of_interest', 'establishment']",0.0,0.6768062,122.8479358
"PVFG+F7R, Buhu, Tibawa, Gorontalo Regency, Gorontalo, Indonesia",Air terjun,,ChIJoRkdWiA5eTIRpjPcPHbKt_8,5.0,"['tourist_attraction', 'point_of_interest', 'establishment']",1.0,0.7237443,122.8756481
"M2Q7+W4F, Unnamed Road, Malahu, Kec. Limboto, Kabupaten Gorontalo, Gorontalo 96214, Indonesia",Air Terjun Malahu,"[{'height': 1600, 'html_attributions': ['<a href=""https://maps.google.com/maps/contrib/117928343475045040884"">ari monoarfa</a>'], 'photo_reference': 'AUGGfZn0vMHN3itJnP2OMNCwjahNYwnbGo2NyY6q_D4uZXI39tHmKVKiICuOh7zhlPHrNHtPkDH-QNAvCOf45VH9h-6BSbYUnpS1HOrqCkVeRPEueiabvbzFVscHhrxamkcclMYf4hUWM0fGeqM2h3b0BHJkb2UJ-n4zHk_TK1XgqjfV0lZ-', 'width': 1200}]",ChIJz5PKPbYzeTIRMAywaxBdr7c,5.0,"['tourist_attraction', 'point_of_interest', 'establishment']",4.0,0.689824,123.012802
"P229+2V, Tuladenggi, Telaga Biru, Gorontalo Regency, Gorontalo, Indonesia",Vila durian,,ChIJ-dGZOwA1eTIR9WF7cPnfFrQ,0.0,"['tourist_attraction', 'point_of_interest', 'establishment']",0.0,0.7001094999999999,123.0196707
"M279+7Q2, Talumelito, Telaga Biru, Gorontalo Regency, Gorontalo, Indonesia",Saung Ekologi Korpala Nusantara,"[{'height': 2250, 'html_attributions': ['<a href=""https://maps.google.com/maps/contrib/114685775950749784729"">Novi Massa</a>'], 'photo_reference': 'AUGGfZnf19D2Oml7o-vDg5zApWwx2j6behPNuYdPRsauE0PRiuNiHyyXGkm0ljnKRRmKn6Hk5mxHi07WOrwghfp-Iehnwm8vVQQyEZ_c1_Tyeg0e3tJbEsiTA3foDQrCPdSiNapSlNUWjeymGwLFwpEzjCzhUHB2PuVhn353HMMPUYxvNIi4', 'width': 4000}]",ChIJXz8--qczeTIRWEp3EqiWxRI,5.0,"['tourist_attraction', 'point_of_interest', 'establishment']",2.0,0.6631408999999999,123.0194024
"MRF2+WW9, Molalahu, Pulubala, Gorontalo Regency, Gorontalo, Indonesia",Kolam Ria Mas Sugeng,"[{'height': 4000, 'html_attributions': ['<a href=""https://maps.google.com/maps/contrib/106964421626808247481"">Sis Dwiminarto</a>'], 'photo_reference': 'AUGGfZl7lR3sV5Wsw_TwbEAKEbDXyanfqsaNvLoqEzZjV3eQusOIMnez7YlnvkYuEHKvDeYGyygimBUY00UX5dXaxcSWf9B4Ei4x0qBUltA8Q6tbkTTG54ESrbfqWo5wlWkda7CU0zWRbkCcyekqahK62ba3iMotLkbQ1tPxuue0_pk-Crix', 'width': 3000}]",ChIJu4g4dKg9eTIRINDzTLblstQ,5.0,"['tourist_attraction', 'point_of_interest', 'establishment']",1.0,0.6747856,122.8023568
"Desa, Tudi, Garapia, Kabupaten Gorontalo Utara, Gorontalo 96525, Indonesia",Dermaga Cinta Pulo Bohu Garapia,"[{'height': 607, 'html_attributions': ['<a href=""https://maps.google.com/maps/contrib/104705864112310055668"">A Google User</a>'], 'photo_reference': 'AUGGfZlIf8_-X3VQzGslsz-hCwZsLNMoYk7owvXio7Sk-ShPMrWTAzFb4Hx4NFKJ1OPkbm8U9iL7_gHnWkHKS_bSvUEKuBFxW1l-T8dZIsvuGsN6FzrntFPh-wtBpfRaubllRWmKGjPxncW3H4_k5gYYFnk_uio4nK5_RcHPBsw3VM1Uqhev', 'width': 1080}]",ChIJ3TllaXZDeTIRvDM6a4_FBcU,5.0,"['tourist_attraction', 'point_of_interest', 'establishment']",2.0,0.8729391,122.7321233
"QV75+RFR, Pontolo, Kwandang, North Gorontalo Regency, Gorontalo 96252, Indonesia",Puncak Pontolo Indah,"[{'height': 2250, 'html_attributions': ['<a href=""https://maps.google.com/maps/contrib/110904768230818415078"">Marwan Mohamad</a>'], 'photo_reference': 'AUGGfZlM7_vm-zyYrpluZwJERw3Oc8XIHZDX3s1rRbNHYaiO2cE5zmSc50DcvkFdB2IVZGW9JMCDXm8fz3QS8MqvxYyFBaH5V_Khhma3VwdByWc7gu_BJoPAVijXQloGOUgmz0yYVuwa2p_NOgLVkVIrADWlf8VM2k7BGnYIfqnQZTgiB14y', 'width': 4000}]",ChIJnckbV4FHeTIRIz60eEUnZzo,4.4,"['park', 'point_of_interest', 'establishment']",166.0,0.7646248,122.8586547
"P3H2+6QQ, Dulamayo Utara, Telaga Biru, Gorontalo Regency, Gorontalo 96181, Indonesia",Wisata Air Terjun Waterblue,"[{'height': 1620, 'html_attributions': ['<a href=""https://maps.google.com/maps/contrib/115572592260524174124"">Basir Mohamad</a>'], 'photo_reference': 'AUGGfZn9mD3sVIjYHGh6f6baNNrsRDDrEFrbG13DZtQ5eTwbhKMt4C51sqebuYqh8TAorRmeKJHCRETMasZgQtElvdTcBBGFy9gYI5JMiSza7tZanVfNTC1pMC5eY4BZOXn6rFmF66WCazy6EavHa3khdPcwg-0fjQPQHfjpMpt8l37sPbZs', 'width': 1080}]",ChIJjfFl3cA1eTIRSG3Er4jZR58,0.0,"['tourist_attraction', 'point_of_interest', 'establishment']",0.0,0.728092,123.0519826
"MX8H+7R, Biyonga, Limboto, Gorontalo Regency, Gorontalo, Indonesia",Embung Dumati,,ChIJm2NsegAxeTIRZiURqvolte4,0.0,"['tourist_attraction', 'point_of_interest', 'establishment']",0.0,0.6656362,122.9795727
"Longalo, Bulango Utara, Bone Bolango Regency, Gorontalo 96181, Indonesia",Wisata Sungai Longalo Botu Motoli'oluwo,"[{'height': 562, 'html_attributions': ['<a href=""https://maps.google.com/maps/contrib/109094344471423467277"">A Google User</a>'], 'photo_reference': 'AUGGfZnVjBSyjQsVLmWYY6x4TPC4OvLibszXGV9i1GSSWEZLh8IHLIq_WiRsMp5jiDtMilK8IP-_p6nygyILqPBYSNoo910pEN1vTVOwfdGg02oeEOdaHx3TsyJfDweIYdbVM5QFY3FFbQgvWVRe3NHYyBEhEWVcQueD9SDdUZwJY9R3M8rU', 'width': 1000}]",ChIJs0Rxi7AzeTIR9DmP3e-DFf8,4.4,"['tourist_attraction', 'point_of_interest', 'establishment']",166.0,0.6722463,123.0753918
"P28Q+8V3, Dumati, Kec. Telaga Biru, Kabupaten Gorontalo, Gorontalo, Indonesia",kebun dulamayo,"[{'height': 1560, 'html_attributions': ['<a href=""https://maps.google.com/maps/contrib/105460623153286504119"">Andi Inonk</a>'], 'photo_reference': 'AUGGfZn1FFZii8Abt4yhIbDbS1n_5Er7-jN9DkvQNgJjCBTRStDSUrLRhKsmKOuiIvecracKaFUoHTqPjyW-7YuQ8yO3KYNZPn5842-YvN-_cSo_i34bJ1xOajKcd4G9MY6RYjPjmJyfnJONbBlPO1ONjlzFntjE2zbujlLA7V-V2Fyo7xDZ', 'width': 720}]",ChIJLbUGlks1eTIRovl71bgoNfk,0.0,"['tourist_attraction', 'point_of_interest', 'establishment']",0.0,0.7157694,123.0396615
"P28R+6G3, Dumati, Kec. Telaga Biru, Kabupaten Gorontalo, Gorontalo 96181, Indonesia",Special Stage Dulamayo,,ChIJrfbEric1eTIRnGacPjOi_90,4.0,"['tourist_attraction', 'point_of_interest', 'establishment']",1.0,0.7155036,123.0412849
"M3X2+V2X, Dumati, Kec. Telaga Biru, Kabupaten Gorontalo, Gorontalo, Indonesia",Rifly Villas,,ChIJywcDVAA1eTIRLEpdpxvsPDg,0.0,"['tourist_attraction', 'point_of_interest', 'establishment']",0.0,0.6997323999999999,123.0501165
"VM4P+MRW, Monano, Anggrek, North Gorontalo Regency, Gorontalo, Indonesia",Simpang Monano,,ChIJN1g9SUhpeTIR16m438kuJUE,3.0,"['tourist_attraction', 'point_of_interest', 'establishment']",1.0,0.8567497,122.6870742
"VMF3+4PJ, Monas, Anggrek, North Gorontalo Regency, Gorontalo 96525, Indonesia",Air Terjun Zuriati,"[{'height': 810, 'html_attributions': ['<a href=""https://maps.google.com/maps/contrib/107686058304065530486"">Mr Fo</a>'], 'photo_reference': 'AUGGfZkPnYv9Y5BamZi8ef5No-Pdy5voQ8bshII7Tmx53K0Kifhc1aDOzc_95zy2vPdzZGxVFSKfxEeXdx3xosF0WV7FyHrOAKXNGcjnDYxHzHq0Kehd5gLH8N62Ng88ictQYA-D26YHFvFRf9fa4NKZzTYCb7icGhEQxa3HgazDyF9FGLf7', 'width': 1080}]",ChIJz_6Oo-toeTIRqW5RSnLcJLg,3.7,"['tourist_attraction', 'point_of_interest', 'establishment']",13.0,0.8728429999999999,122.654268
"WJX5+H6V, Jl. Buol - Gorontalo, Deme I, Kec. Sumalata, Kabupaten Gorontalo Utara, Gorontalo 96525, Indonesia",Bunto Koluoka,"[{'height': 3120, 'html_attributions': ['<a href=""https://maps.google.com/maps/contrib/113373899306778338966"">A Google User</a>'], 'photo_reference': 'AUGGfZm8p4sf1ypdckLyp9nR5u7rdOFtUgJMZbpaF18-jmppRhmcH0GuW_RT-mxEP2u0zFgcCzUkmB1wPqre53Qg9tl6ymBO73c9GcnXBWIWhOBEmOlZZ43tGmlOtKdRMAhS7_zrvfGzgMl-IlbkIw1gpWG-Tdj-Du9Vr6QSzIkDBYTSkgRG', 'width': 4160}]",ChIJr7bwnMJleTIRBJf1zAgVfsc,5.0,"['tourist_attraction', 'point_of_interest', 'establishment']",1.0,0.948999,122.608033
"WJQW+2R2, Dunu, Anggrek, North Gorontalo Regency, Gorontalo, Indonesia",Puncak dunu,"[{'height': 3468, 'html_attributions': ['<a href=""https://maps.google.com/maps/contrib/110395379377429643372"">A Google User</a>'], 'photo_reference': 'AUGGfZmu_2o54mI8jp0LcMx8Y_lIG9FQAxWo6O_Zf3ARZY7A5r0qvvLqB9B1jim76ZTcN2nsWCHtV8AKYQILQiehbxGv0loZLQdsj1FOXKIhfz7sR_f9K4_8I_kmAvT6VfLPHj_ZjI5HuC0Fhg5yY4zjeDloO5BFa5YP7etE35PZJkUGpAn_', 'width': 4624}]",ChIJc79i-jtneTIRI1_x2gnavSQ,4.9,"['tourist_attraction', 'point_of_interest', 'establishment']",8.0,0.9375125000000001,122.6470156
"XH3J+7JG, Dulukapa, Sumalata, North Gorontalo Regency, Gorontalo 96254, Indonesia",Wisata Pantai Idaman Dulukapa,"[{'height': 3000, 'html_attributions': ['<a href=""https://maps.google.com/maps/contrib/116230670577235032928"">Arlina La Sady</a>'], 'photo_reference': 'AUGGfZm8NLTqAl51fsH5gNj4fq6xzm0j8cpIR1aJT1uPOxQ9Zr-tPDj1cIVld28mjP81LlJy3AMXOztDUkTzzAHQB1ollRwDfuwin5SHCAIXzxRM97A_nbKelCuf5f6AkwjEGc3uHMh_yeAYjLj9atku6DgGZsIX5TbwLn_VXww9csHMmQG1', 'width': 4000}]",ChIJEcrYNddleTIRUj75_ev2Vug,4.7,"['tourist_attraction', 'point_of_interest', 'establishment']",6.0,0.953186,122.5815868
"WJV5+PRW, Jl. Buol - Gorontalo, Kabupaten Gorontalo Utara, 96525, Indonesia",Pantai Koluwoka,"[{'height': 3264, 'html_attributions': ['<a href=""https://maps.google.com/maps/contrib/102399677099774514644"">A Google User</a>'], 'photo_reference': 'AUGGfZm_Xc1yOdGP68H9kLKzuAmSVJLBC_iSnTxa1TlgcIODmpf4f2UbpNHBuB6Xa4bBj-z141KvA-ro8x8E8wlHOHhfxJDZ6nXZHVlu7ZKCeyu00rqwcnpRGI3LuMFwVyoy_8kCYjQOWzMtcVeoEJD0l-txRz0XzQzelAlSbAhm04UMUJJL', 'width': 2448}]",ChIJyYN0JhBleTIRuyOI0SldIdk,5.0,"['tourist_attraction', 'point_of_interest', 'establishment']",1.0,0.9443559999999999,122.6095737
"VM9X+62Q, Jl. Buol - Gorontalo, Tudi, Kec. Anggrek, Kabupaten Gorontalo Utara, Gorontalo 96525, Indonesia","desa tudi, kec monano,kab Gorontalo Utara","[{'height': 1080, 'html_attributions': ['<a href=""https://maps.google.com/maps/contrib/106839054348257674064"">A Google User</a>'], 'photo_reference': 'AUGGfZm8gGZ9l2iQn6ojxAYMxLcobaoO26ovoh1aF0vU_KvRBdJxm5bW6tRlOoj_Cye9v7pGJ1fytDKsegQwfwRonsYnF7AmtyG0ZJKcsnh_XeBNLsgFhle8DOJrn3B2wOcYMYQuC63E-jVlMl_CtNPd32I7k2ZbGh3LnKJe4Oj6Jc2KzIKi', 'width': 1920}]",ChIJgU1ZAeRpeTIR34bzW2_OyBA,0.0,"['tourist_attraction', 'point_of_interest', 'establishment']",0.0,0.868232,122.6975793
"WJ6V+JVP, Dunu, Anggrek, North Gorontalo Regency, Gorontalo, Indonesia",Mutiara Lolabuto,"[{'height': 768, 'html_attributions': ['<a href=""https://maps.google.com/maps/contrib/117481512888731803456"">A Google User</a>'], 'photo_reference': 'AUGGfZn_t6XWGE4jXpaDBvMVKtLF2g0vvJksb61BL8xGcwqEDZ1_VShR39Npxbo1-1KKztDu0y-_HihVdUgAKEJq1lHsumz9qbVc0HJ4EHzukDolXH71NZS3dpUhr8zbQhur9z4e_pAuXPEgjXuNvxwh5GwaAs_LL-D4kFXmy-56S0paaSE_', 'width': 1024}]",ChIJadCVcQBneTIRgMpAT6bygbE,0.0,"['tourist_attraction', 'point_of_interest', 'establishment']",0.0,0.9115844000000001,122.6447001
"WMG9+699, Jl. Buol - Gorontalo, Dunu, Kec. Anggrek, Kabupaten Gorontalo Utara, Gorontalo 96525, Indonesia",Tempat Lumut Laut,,ChIJwR7TAwBneTIRx3djQ3RGlNc,0.0,"['tourist_attraction', 'point_of_interest', 'establishment']",0.0,0.9262679,122.6689105
"XH56+VGC, Unnamed Road, Dulukapa, Kec. Sumalata, Kabupaten Gorontalo Utara, Gorontalo 96254, Indonesia",Pantai Motihelumo,,ChIJPcdnjvxjeTIRfxDC_adZGuY,3.0,"['tourist_attraction', 'point_of_interest', 'establishment']",3.0,0.959688,122.561269
"WJQW+7M, Dunu, Anggrek, North Gorontalo Regency, Gorontalo 96525, Indonesia",Take off Dunu,"[{'height': 4000, 'html_attributions': ['<a href=""https://maps.google.com/maps/contrib/110178790218573101671"">Farel Cs</a>'], 'photo_reference': 'AUGGfZkgcDj4nWJXjmfjCQS-QaScNfhel1UTmRE3sXstbPx6msTJdxRcNIh2hXKf4ymgzqcRgOiO3KJt3WjnVYJLmX2Se9FYotxWrG_22hYz77oHlyL4dbUDNpnBMEihfIZEhxzTim5McpapUXA8rZO9enAmj_I7NIcw_yRTtmPXDpk5GBqM', 'width': 2250}]",ChIJqcv7gzNneTIRDNtH8YMT7Bg,5.0,"['tourist_attraction', 'point_of_interest', 'establishment']",3.0,0.9382094999999998,122.6466924
"WJQW+8R8, Dunu, Anggrek, North Gorontalo Regency, Gorontalo, Indonesia",Bukit ceria desa dunu,"[{'height': 480, 'html_attributions': ['<a href=""https://maps.google.com/maps/contrib/103127590144613063415"">A Google User</a>'], 'photo_reference': 'AUGGfZlFAEeDqSo7ZvHmJPbT-7mMlUpqcR2GIRIeTh7u-KGI-lLQNDs5Oualy2HxBMZHVb96qFXPsJGuz7wgC4HIViU24zkmc9pn7UXLLpOHGG401jRgdECN_W30K2BP1mkORY-gZSqXm_aCVAXkt7AK49l7aOVoHKDk0azflXeNWEztyMds', 'width': 720}]",ChIJTQbZfsJneTIRNbau39nYQW0,4.5,"['tourist_attraction', 'point_of_interest', 'establishment']",6.0,0.938286,122.6470917
"Jl. Buol - Gorontalo, Bulontio Tim., Kec. Sumalata, Kabupaten Gorontalo Utara, Gorontalo 96254, Indonesia",Pantai Hutokalo,"[{'height': 3000, 'html_attributions': ['<a href=""https://maps.google.com/maps/contrib/118253100815590639627"">Irfandi Mooduto</a>'], 'photo_reference': 'AUGGfZl-KUPsUu-tv3d0awhvRoQoVaftNCN3XQJooesNlGKQFM_pJzfGVgOrwHF9S91dwAB4GVujkgldGkZE3359uWqBO4o6FNEnDsofZu_UKrUB59NpmMYuboAC0p3twnqDgClZEnK-rbtmcDfusVbTRV_tNqytg1Aj4mxHjT-0AA47RFh9', 'width': 4000}]",ChIJJ08qgH1_eTIRzWsgjzGyztw,4.6,"['tourist_attraction', 'point_of_interest', 'establishment']",7.0,0.9941019999999999,122.435868
"XCR9+FH7, Jl. Biso, Bulontio Tim., Kec. Sumalata, Kabupaten Gorontalo Utara, Gorontalo 96254, Indonesia",Pantai Sukamaju,"[{'height': 1456, 'html_attributions': ['<a href=""https://maps.google.com/maps/contrib/104925586582243224826"">A Google User</a>'], 'photo_reference': 'AUGGfZkf_jI431m2S5IEpKvrSfb4j8_BIskYyvB8eYhY7r0MTNwr-9uj0ppozk3mfLA2bIWtE6_IGfqV_8U1v0CPC4ERmeS3jRRlWRgqxXriC1I7NF0YqIpnYqApdtXuPAItB3ptvw9l8OxeMGMmXNTtE65sUwrsU9axUGTlKkWs1-oGGgEr', 'width': 3072}]",ChIJ6WBw9eh_eTIRrB9KIAEy4-E,4.3,"['tourist_attraction', 'point_of_interest', 'establishment']",3.0,0.991174,122.418912
"XCMC+9XV, Bulontio barat, Kec. Sumalata, Kabupaten Gorontalo Utara, Gorontalo 96254, Indonesia",BULONTIO,,ChIJA7LuCgB_eTIR1vECUPP78Nc,0.0,"['tourist_attraction', 'point_of_interest', 'establishment']",0.0,0.9834608999999999,122.4224187
"XCR9+76C, West Bulontio, Sumalata, North Gorontalo Regency, Gorontalo 96254, Indonesia",Dusun Sukamaju,,ChIJZ36NdwB_eTIRaHrgQ85Dr7M,0.0,"['tourist_attraction', 'point_of_interest', 'establishment']",0.0,0.990699,122.4180016
"274W+MMF, Jl. Buol - Gorontalo, Buloila, Kec. Sumalata, Kabupaten Gorontalo Utara, Gorontalo 96254, Indonesia",Pantai Kikia,"[{'height': 3078, 'html_attributions': ['<a href=""https://maps.google.com/maps/contrib/103303488385833841410"">A Google User</a>'], 'photo_reference': 'AUGGfZn9OnqpR1WV7GfjojeOviO4DI2sfvK8L6TJ5SO6Z1nCInLEvuPOsQFDo5seojU3m4GHq5_kkJ44yuVb8uih-waauGFtgYQaul1lJZI_18NBwUSwgHiuJaSYcUjdVCo7FcfCVzzTMje3Hny5ZZrrEafn_SrbcfK3jwIEM8DmdVntDahu', 'width': 5472}]",ChIJJbXNDUOBeTIRqJMOxH4d8Ak,4.3,"['tourist_attraction', 'point_of_interest', 'establishment']",3.0,1.006677,122.296674
"XG84+7R Camp, Buladu, Kec. Sumalata, Kabupaten Gorontalo Utara, Gorontalo, Indonesia",DUTULA PADENGO,,ChIJi9dmNwB9eTIRU61ZNuOb6AE,0.0,"['tourist_attraction', 'point_of_interest', 'establishment']",0.0,0.9654169999999999,122.507455
"East Bulontio, Gorontalo 96523, Indonesia",Sumalata Estuary Beach,"[{'height': 3968, 'html_attributions': ['<a href=""https://maps.google.com/maps/contrib/110183168603997630914"">hendri lune</a>'], 'photo_reference': 'AUGGfZnCorOaUojifpWvYUVFIt31wvb9y5cxb2tkDkwCfhoPqX3lDflUilWfMNJwuw7U0eOaLf6r3PuMKgQFuBI06qVQ1__5Ug7WHxOej-xsxDxoZjwQVsU5fn0o7uA4ImYIYibo_xIs3KClz48qMItIXfAhl3X7EDlX1SyO0Qm9aCz4dGkN', 'width': 2976}]",ChIJm-keBZl_eTIR8gcsdW6DPx4,4.8,"['tourist_attraction', 'point_of_interest', 'establishment']",5.0,0.9938125000000001,122.4296875
"298V+53, West Bulontio, Sumalata, North Gorontalo Regency, Gorontalo, Indonesia",Pulau Kasia,,ChIJA0-mKwB_eTIRWDS9AE8sZQI,0.0,"['tourist_attraction', 'point_of_interest', 'establishment']",0.0,1.0154241,122.3927157
"WFGR+4R2, Wubudu, Sumalata, North Gorontalo Regency, Gorontalo, Indonesia",F&D Beach,,ChIJd6vxZQB7eTIRRUa0yBqVIlI,0.0,"['tourist_attraction', 'point_of_interest', 'establishment']",0.0,0.9252647,122.4920088
"XCQQ+6C5, RT.Huidu/RW.Hutakalo, East Bulontio, Sumalata, North Gorontalo Regency, Gorontalo 96254, Indonesia",Desa Hutakalo,,ChIJHekQPKR_eTIRQ24dutWrunI,5.0,"['tourist_attraction', 'point_of_interest', 'establishment']",2.0,0.9880217000000001,122.4386033
"WHC8+56M, Dulukapa, Sumalata, North Gorontalo Regency, Gorontalo 96254, Indonesia",Pantai idaman,"[{'height': 1188, 'html_attributions': ['<a href=""https://maps.google.com/maps/contrib/111698067923535054701"">ibnu fulan</a>'], 'photo_reference': 'AUGGfZmv6dBGIciN84Nkw__BpckMFYSWFwBMnvtFWMRVqnEzwoi1BcoHUYkFEpfrTk74xSv0F7YRlRjY-UKXzlXLFhujE04geHR70WhZsLedNtSFATqo8KsPUWHf7SMYsrEJjo2FW6z0lqhISCh0ct0k_KpTSsN0EzIliquDbQrwQcmL28zj', 'width': 2576}]",ChIJ24g51h1leTIR1wkaCm96jAs,5.0,"['tourist_attraction', 'point_of_interest', 'establishment']",2.0,0.9204680000000001,122.5655549
"274G+R9X, Unnamed Road, Buloila, Sumalata, North Gorontalo Regency, Gorontalo 96254, Indonesia",Pantai Biduri,"[{'height': 1080, 'html_attributions': ['<a href=""https://maps.google.com/maps/contrib/103303488385833841410"">A Google User</a>'], 'photo_reference': 'AUGGfZlnXRFYGtLFJSZYlV6qLE2mxqLH9r4nCZfp5SMnIBGnr6BPpeEH6iWZz4uXnIq_8yQJmK3QnKGlzgVUDuUOaAAqb1mBBsrJ0nsvonuCHWxvr9YdCKqmPL95P3VitvgGYfUrxrnwmEC3Xy1Qo-_0orce8QQSv4QSXZScInI415_Y3nka', 'width': 1920}]",ChIJ15rYfTeBeTIRUNxRmiXj6Yk,5.0,"['tourist_attraction', 'point_of_interest', 'establishment']",2.0,1.007111,122.275994
"Deme II, Sumalata, North Gorontalo Regency, Gorontalo, Indonesia",Sea Dionumo Wonderland Resort,"[{'height': 2084, 'html_attributions': ['<a href=""https://maps.google.com/maps/contrib/114293142240277490951"">A Google User</a>'], 'photo_reference': 'AUGGfZmp2TayAknhGLhxDRhdvWBfDaGwrTKEEG-ze-Mv1NQMlclj5yrL23xXiRbw6-zQoHCoq0DJ_wxyXPntk2OKBxgBBVC1k5OuTLiilZLOM4f6fD8mY-KYFNPcoUXgPj-myvICOgcSD9Jy3advPPnd6tAPKyuuZW4EQKckpr8-VZJhYsJ0', 'width': 4624}]",ChIJER2ZjSx9eTIRgdgwOZ26Cf8,4.9,"['tourist_attraction', 'point_of_interest', 'establishment']",16.0,0.9880094,122.5256168
"2C8R+V6, East Bulontio, North Gorontalo Regency, Gorontalo, Indonesia",Modelomo,,ChIJYRszXgB_eTIRIFnOAsWDL34,0.0,"['tourist_attraction', 'point_of_interest', 'establishment']",0.0,1.0171318,122.4405928
"2F6C+42, Wubudu, North Gorontalo Regency, Gorontalo, Indonesia",pantai libonu,,ChIJX0C3EwB9eTIROwMxIm_T37I,0.0,"['tourist_attraction', 'point_of_interest', 'establishment']",0.0,1.01027,122.470102
"VFWX+Q37, Buladu, Sumalata, North Gorontalo Regency, Gorontalo 96254, Indonesia",Sumalata timur,,ChIJYZ3CTYh7eTIR22GfffKeErE,0.0,"['park', 'point_of_interest', 'establishment']",0.0,0.8969173999999999,122.497668
"WFGR+4R2, Wubudu, Sumalata, North Gorontalo Regency, Gorontalo, Indonesia",Sumalata timur,,ChIJy7km7yZ7eTIReM80C901pYQ,0.0,"['park', 'point_of_interest', 'establishment']",0.0,0.9252647,122.4920088
"XJXM+889, Deme I, Indonesia",The Kombongers Bay,"[{'height': 1536, 'html_attributions': ['<a href=""https://maps.google.com/maps/contrib/118338277317982898813"">ierianzyah ihsan</a>'], 'photo_reference': 'AUGGfZlf_vgmcW-k4z6lZVD098k1pZnnN8Z5bl22Q25CHeh4UriVUTK8oGFxTsyeAU_Bznedq5utB3SyS4ZZ0RQhUQLNzbqOWBbo_yErvHUXkpcR7AkglwaVBqQ45L6PxPi-ow9m5VZO2j60-Tcbva3y1pjDJqcIE4ONLTpWiR3Fm96x3z0H', 'width': 2048}]",ChIJb8uQy7BheTIROo-enh3ezM8,0.0,"['tourist_attraction', 'point_of_interest', 'establishment']",0.0,0.9982750999999999,122.6333505
"XMW6+G3, Dunu, Anggrek, North Gorontalo Regency, Gorontalo, Indonesia",Pulau Raja,,ChIJpdSqAgBheTIR7e_CoftITi0,0.0,"['tourist_attraction', 'point_of_interest', 'establishment']",0.0,0.9963234,122.6601548
"RF82+76, Mohiyolo, Asparaga, Gorontalo Regency, Gorontalo, Indonesia",Air Terjun Bondula,"[{'height': 3456, 'html_attributions': ['<a href=""https://maps.google.com/maps/contrib/105314399564796926875"">ferdy lahay</a>'], 'photo_reference': 'AUGGfZneNvcnHHEuaJriAzhQ0Po3Z3sHoxIco0wJQJ2Iri9YNM8AHQVPAJPwTPbh0xztHnWFtWX2R1EvD7UvGkEd4RM7UBkigb2Ij-nbJIG4dxJQr5-5u5QgmSvZ3RI75zLD7bsztBKlxFpDZW-QOOy0eypY7Ch4xdq2Y9epuRBr0djWeAWt', 'width': 4608}]",ChIJU1Ji9NFzeTIRsWA0FpaKipM,5.0,"['tourist_attraction', 'point_of_interest', 'establishment']",9.0,0.8156721000000001,122.4505797
"RFF5+9G, Karya Indah, Asparaga, Gorontalo Regency, Gorontalo, Indonesia",Wisata air terjun bontula,"[{'height': 1280, 'html_attributions': ['<a href=""https://maps.google.com/maps/contrib/118201056920761703560"">A Google User</a>'], 'photo_reference': 'AUGGfZn_d65FM7B9jF3eeiyTxQjEu33IdQ8swa-XQ9lVcl_SC8AMtWlOw2SbzRe5vVBJzP7BMMOa52TpWGg4UxcW4bd28wbncv9oqznV9NFh_1xypypwt4JSqMMxmvwr8MA9uqT6DNoR0kO279KhIWtPi486yPO0DCIsny1N0xZTox33SYbg', 'width': 720}]",ChIJX48ZGaZzeTIRucIZ_4wQ5Lg,4.5,"['tourist_attraction', 'point_of_interest', 'establishment']",2.0,0.8234047999999999,122.4588386
"QCGR+VQQ, Mohiyolo, Asparaga, Gorontalo Regency, Gorontalo, Indonesia",tiohu,,ChIJUyz9AAB1eTIRzsnbgqT4L4k,5.0,"['tourist_attraction', 'point_of_interest', 'establishment']",1.0,0.7772016,122.4419899
"RCF3+RH, Mohiyolo, Asparaga, Gorontalo Regency, Gorontalo 96263, Indonesia",Wisata Alam Bihe River Tubing,"[{'height': 1040, 'html_attributions': ['<a href=""https://maps.google.com/maps/contrib/110197454220136403361"">A Google User</a>'], 'photo_reference': 'AUGGfZl_fD950M5U4Ex0suR2q9oAlRM3TrPk0T_dgqcdNSi6CIuvQAyjyNYAFQYlBwoF7eI5_Tw767omSLfIA9rTe7X6n-c5NtwzVSbTAeAZKo9-Praap3mS5raLljLTFRIAX2l7hTImLfzaALVWY2X1sriZNjDNB9D9I35j75JhU-VCAwV5', 'width': 585}]",ChIJE2VDstN1eTIRltzzLVVLrNg,5.0,"['tourist_attraction', 'point_of_interest', 'establishment']",1.0,0.8144116000000001,122.4056276
"4CFG+RM, Bulontio Timur, Kabupaten Gorontalo Utara, Gorontalo, Indonesia",Napo kima,,ChIJESikPKDTezIR39t6tt7HF6w,3.0,"['tourist_attraction', 'point_of_interest', 'establishment']",2.0,1.1245921,122.4266655
"HVJ4+MVV, Upomela, Bongomeme, Gorontalo Regency, Gorontalo 96271, Indonesia",Dutula Lo Upomela,"[{'height': 540, 'html_attributions': ['<a href=""https://maps.google.com/maps/contrib/110285249079668825740"">A Google User</a>'], 'photo_reference': 'AUGGfZlRwZC9kzPMs9YbM0lP0ZrFo1qqwdBkOCKmjGtVOsD7Iub6c7dt26-2fltuGshg9quJecf1ySd0VkvaZHN_-IikUTsj8vZmFhLZNibt_iXete3A3zOP56HiHh_8VT-txSSG3I7lJg9F4hyq2KeudCDJatL80s67KvSnO2XF7W5p8TTL', 'width': 720}]",ChIJQbp3dtIleTIR-8V2mmb-MbM,5.0,"['tourist_attraction', 'point_of_interest', 'establishment']",4.0,0.5817342999999999,122.8571691
"RC74+Q6, Mohiyolo, Asparaga, Gorontalo Regency, Gorontalo 96263, Indonesia",Botu Kapali River Tubing & Camp,"[{'height': 1280, 'html_attributions': ['<a href=""https://maps.google.com/maps/contrib/107686315951947017609"">A Google User</a>'], 'photo_reference': 'AUGGfZkR_mHpUImcIftyiRSkKSBQfwSGkX8pQtfdw6Q-AF0luUEB6ie6mAPXAzMq3qkqyoMuv-qJSiMScUp87FN9og0zPz4omtSdybV0v8ssZEolmJKdD5go5UYc7M-C7xfQGfAeB6dC8qrquKhiL8qa0wNOsx_I6QuXWGwY2-2qTDLT6zfY', 'width': 1920}]",ChIJH1g--Cd1eTIRSNuiT5FDnYw,3.4,"['tourist_attraction', 'point_of_interest', 'establishment']",5.0,0.814419,122.4056141
"26G2+7JF, Tolinggula Pantai, Tolinggula, North Gorontalo Regency, Gorontalo 96524, Indonesia",Pantai Wisata Giok,"[{'height': 1080, 'html_attributions': ['<a href=""https://maps.google.com/maps/contrib/109123984563745888529"">Boby Ismail</a>'], 'photo_reference': 'AUGGfZmojFrv8UsIKw4mjq4Jf_xFC_MMhGmQPOQ34ycs6b4rzpZ-EpJDdH0OuvyfflTBlxsQHyA_waztI_CA6Sje59ybmQrvgbzFe5SMWotT9wFx_Y7KIN0MX-4F0chz2lbP0Cy5ifjbBkewxo9UMu7xhNy5A9vqg03Qbai3N9okjUyS1_Jn', 'width': 1920}]",ChIJH5GAPYKHeTIRiENlrdLi_4I,3.0,"['tourist_attraction', 'point_of_interest', 'establishment']",2.0,1.02569,122.2015453
"X4X7+2WH, Ilotunggula, Kec. Tolinggula, Kabupaten Gorontalo Utara, Gorontalo 96524, Indonesia",BaLok Ilotunggula Limbato,"[{'height': 2084, 'html_attributions': ['<a href=""https://maps.google.com/maps/contrib/109123984563745888529"">Boby Ismail</a>'], 'photo_reference': 'AUGGfZl3nR98G-RIqg9pLiKOx-8afX7HxFlRl-IBqHn08izOiHrvcYD6FlpE8cQpSLxPssMK3uV-DKWVWQpEjmgyihB8W2oqK7K2iK8WYnQdROYAI80-zAR1XjVktuDEwzaGi1Q2iyBCCRW14QwFRArrtpGYM-Z1iqeQoVcAhD3m5hhA6LyB', 'width': 4624}]",ChIJEUpoLDaJeTIR8kwdOmFS11g,1.0,"['tourist_attraction', 'point_of_interest', 'establishment']",1.0,0.9975743999999999,122.1148721
"X3R9+PMF, Papualangi, Tolinggula, North Gorontalo Regency, Gorontalo 96524, Indonesia",Posko Maranti,"[{'height': 2084, 'html_attributions': ['<a href=""https://maps.google.com/maps/contrib/109123984563745888529"">Boby Ismail</a>'], 'photo_reference': 'AUGGfZkaqtV5ZWNZUoNHW0b5fXVW2NyfmTAtbxJbESe4pTITQWfHViTfhukKNBTWsXZ5D5RV7egmTUKc_mhjNAdFoFM0r_wwx4rVRfk7qgsRf67kLXYP-tjWV6hfO6MB8l4ZTM7ZDT0ReHyS7tshPjzk0WnIwRvy2lH4iPzqoJAwV3ONLTLV', 'width': 4624}]",ChIJNXg6inmLeTIREttjUYhxLZg,1.0,"['tourist_attraction', 'point_of_interest', 'establishment']",1.0,0.9918133,122.0691703
"25F2+79J, Tolinggula Tengah, Tolinggula, North Gorontalo Regency, Gorontalo, Indonesia",Shelter Tolinggula,,ChIJSf06fQCJeTIRMn0MoJYSb4w,0.0,"['park', 'point_of_interest', 'establishment']",0.0,1.0232228,122.1508975
"2653+Q42, Tolinggula Pantai, Tolinggula, North Gorontalo Regency, Gorontalo 96524, Indonesia",Gunung Tolinggula,,ChIJVbYzXfyHeTIRgUoMYRLahek,0.0,"['park', 'point_of_interest', 'establishment']",0.0,1.0093857,122.2027721
