formatted_address,name,place_id,rating,types,user_ratings_total,photos,lat,lng
"8XQF+R3W, Pematang, Kertaraharja, Kec. Banjarsari, Kabupaten Lebak, Banten 42355, Indonesia",Kerta raharja KC banjarsari,ChIJY07hKABbQi4Rnk4ViOUH6TI,0.0,"['tourist_attraction', 'point_of_interest', 'establishment']",0.0,,-6.6603796,105.9727118
"92P6+VH, Leuwiipuh, Banjarsari, Lebak Regency, Banten, Indonesia",wisata kali ciliman,ChIJZZ5NpKBFQi4ReYDEehk_PXY,4.0,"['tourist_attraction', 'point_of_interest', 'establishment']",1.0,"[{'height': 8160, 'html_attributions': ['<a href=""https://maps.google.com/maps/contrib/108673994498324465861"">A Google User</a>'], 'photo_reference': 'AUGGfZmdIjSgzedaoxxfpeBoY9HINuHOfTEE-1f9MZTirJkDKO39yKdOracuhW8Kh2INzxRlAmLSqXj8WbY5GSrkOcGEurVpZF_KJ3G-Lnf1JBNo17dsxXarbSUxqu6Sl_9gkxCe5exy3tJF7H4DghXPeHtN_n0MqCYEjKN0DfLZGVukZOdC', 'width': 6120}]",-6.6127518,106.0114397
"9XM5+RX9, Jl. EL Cibuntu, Lebak Dalam, Keusik, Kec. Banjarsari, Kabupaten Lebak, Banten 42355, Indonesia",Bendung Ciliman,ChIJyzrznoJPQi4RtjINujOciHw,4.1,"['tourist_attraction', 'point_of_interest', 'establishment']",44.0,"[{'height': 2448, 'html_attributions': ['<a href=""https://maps.google.com/maps/contrib/102562467438740755935"">Saprudin Afkar</a>'], 'photo_reference': 'AUGGfZm-3yK_iEnIS8xs-vj7_edQ7PaoUH4YYrlseEzj9qydPYM5pgKQNsGbZcDqaQiNqG2gnw6PBImjG7uHrJlg2gbTHOwgwT4uuoQMp6HnHXrlcqrTbt5406TQhn_L15mueKRhIkrOEfVCXgoPeWhbfF4GLxFy_gKzGw5f-7nebfhsoTsJ', 'width': 3264}]",-6.6154587,105.9599781
"Labanjaya, Banjarsari, Lebak Regency, Banten 42276, Indonesia",Wisata Situgede Citepuseun,ChIJkc-4ahZPQi4RFhkOquvKQMY,4.2,"['tourist_attraction', 'point_of_interest', 'establishment']",10.0,"[{'height': 1872, 'html_attributions': ['<a href=""https://maps.google.com/maps/contrib/107847154679431328347"">A Google User</a>'], 'photo_reference': 'AUGGfZmPpys190yzy75-3rI7r7SwwBX29rY7fnNOcy6SGcuZxwDw4oB94U9bqrbXtf4xW92HqLgShJZzbhqce17v-RK8fTfaJI3aqbv8uxL9tf1lpaxn-LRLXawcoo71ScTv9yo5YOCmL5IWA_KpuS6ltmioVjWJPyQUocx7l9c_VVxeJrmZ', 'width': 4160}]",-6.5966494,105.9392279
"Sawarna, Bayah, Sawarna, Kec. Bayah, Kabupaten Lebak, Banten 42393, Indonesia",Karang Taraje Beach,ChIJWc-hGxSQQi4RXMNaJQmv7bE,4.6,"['tourist_attraction', 'point_of_interest', 'establishment']",1023.0,"[{'height': 3024, 'html_attributions': ['<a href=""https://maps.google.com/maps/contrib/106040270015197334424"">Thanwan Singh</a>'], 'photo_reference': 'AUGGfZlLveUFSgBNdEn7jfMPvcMhztXkWjEJlVTRFkgSjL0lSIcwUkkk3rgA9MjpK_RggI6jxpiQdqKO9Q0U1KqqmTh7IVWvhn1-upoNMAU116JIefoYx_39UDQcnsg5Syv385_aMi6NJX1SmX256KcRQ6L5JUpruDXcR9nLAxMpvB4UgBq9', 'width': 4032}]",-6.9907843,106.3262475
"27GR+2M7, Sawarna, Bayah, Lebak Regency, Banten 42393, Indonesia",Goa Seribu Candi Sawarna,ChIJkzrqvimOQi4RzrjSiVUyRcs,4.3,"['tourist_attraction', 'point_of_interest', 'establishment']",274.0,"[{'height': 3872, 'html_attributions': ['<a href=""https://maps.google.com/maps/contrib/100217359831596723151"">Iwan Hainim</a>'], 'photo_reference': 'AUGGfZnNuSQELmaPO5EiUJvj2jgCc7H8sjNQ6WFxEKEAlLAxHkFm5tyILzkuD1cM5Y1FyNechx-WMz2qC0PWyNPFsDwpy4dp20QNY9EMO0MCLHZQce5aE4mhj6JnqU9hieJ4eAq1QDLJDl4b3_iURmOHFIP0XzdPpHwwLYqdFxOQT40hXLIK', 'width': 5392}]",-6.974968500000001,106.2916671
"27M7+733, Jalan Raya, Sawarna, Bayah, Lebak Regency, Banten 42393, Indonesia",Pantai Pulau Manuk,ChIJZe12YhOPQi4Raxg2_G6jVqs,4.6,"['tourist_attraction', 'point_of_interest', 'establishment']",167.0,"[{'height': 1000, 'html_attributions': ['<a href=""https://maps.google.com/maps/contrib/108758320698609102754"">Archiaston Musamma</a>'], 'photo_reference': 'AUGGfZm1W0gMi1JcsFTjUaiqBZTs7URtqi6eWgFbYR6uTEyK6r_ntc8-9kztmAK1SicRU4N7cYHKdqIpWreb2yy4Jh22MQsUkPBv_OapBhA8OzOSNSD5xhXuBYFAZIe3SLfTCekn1HrM26lv3zmGozYgCeqxZjjWp0n2H8_pynD188VFcO1U', 'width': 1504}]",-6.9668718,106.2626604
"2869+WV6, Sawarna, Bayah, Lebak Regency, Banten 42393, Indonesia",BUKIT MALEHOY ( tempat selpi ),ChIJeRL4c1iRQi4RbBn3pkUyj1Y,0.0,"['tourist_attraction', 'point_of_interest', 'establishment']",0.0,,-6.987718,106.3196376
"Desa Sawarna, Kec. Bayah, Sawarna, Kec. Bayah, Kabupaten Lebak, Banten 42393, Indonesia",Goa Lalay Sawarna,ChIJ9wZMKiKQQi4RVOAmgZMKjBE,4.4,"['tourist_attraction', 'point_of_interest', 'establishment']",91.0,"[{'height': 2268, 'html_attributions': ['<a href=""https://maps.google.com/maps/contrib/111095991154555073698"">Usman Efendi</a>'], 'photo_reference': 'AUGGfZmoo6Tz2OXKEmct80-u6DSW4EPyzn49vqtJrC1yKEFoW0HCZ4_R6QMHZy9lfu0rJlvpG5tcfeAKDbPcHotuTGRJc0Brb2F5vFa5G0tMCXO01F1nx1olGCIn3gZn7ArcwBaUK7qqPCDpP2wXko4zBrIjlomwNVh7M7TPl8A27bHDNsii', 'width': 4032}]",-6.979405,106.3230762
"47CR+3V, Suwakan, Bayah, Lebak Regency, Banten 42393, Indonesia",Curug Nyompok,ChIJK-aYluCJQi4R08XngdWtuMU,5.0,"['tourist_attraction', 'point_of_interest', 'establishment']",1.0,"[{'height': 4160, 'html_attributions': ['<a href=""https://maps.google.com/maps/contrib/103238548188776191364"">A Google User</a>'], 'photo_reference': 'AUGGfZmMdOx0Z3rRgWpvIzN0F8m_ZfSkSIbsotTLlMryPv4BpWds7Qh7SlCCoJqLVPoXOTt1bsTIVh9eESFGWE4yIDY_zCyiqUCATd7KcP2lOPn6WdyZh9jlEyKMBvUohwU33BuDw1eQGY14RKGZSPNIs8Tj2_NySESUMYqVs7hXGhJlIrEk', 'width': 3120}]",-6.8798121,106.2922204
"28CG+PMR, East Sawarna, Bayah, Lebak Regency, Banten 42393, Indonesia",Wisata Goa Arca Sawarna Tim,ChIJc70x9x6QQi4RGXsoVLUv1v8,4.5,"['tourist_attraction', 'point_of_interest', 'establishment']",8.0,"[{'height': 3120, 'html_attributions': ['<a href=""https://maps.google.com/maps/contrib/110319084152387724299"">Bree</a>'], 'photo_reference': 'AUGGfZnw2kltsrqpUyGjryrcZPJFetJt4H3Uqqiy7V_2n9B4j7HdIoKq35RfGp8M1l9LXRC9l8gwz0D020Ayf12VqSQmwsAvgMnD3v8xd355ixGPR7runsXC1jTos3bNrru6jWwodpvr4xqBqMhXyJ_f8kw83kvgCfe5k6oLY17D7ysdNNB_', 'width': 4160}]",-6.978147,106.3266425
"Sawarna, Bayah, Lebak Regency, Banten 42393, Indonesia",Karang Bokor Sawarna,ChIJAVUb3t6RQi4Ro-msS-b5wHs,4.5,"['tourist_attraction', 'point_of_interest', 'establishment']",517.0,"[{'height': 3456, 'html_attributions': ['<a href=""https://maps.google.com/maps/contrib/100452827403673624400"">Hikmah Nurdiana</a>'], 'photo_reference': 'AUGGfZnsXWU8c0JAjk8z540MdP_Tql-zCJJVygo2t7zAAZa9Uv9cQDjN_ZJe1v-Xc1CnkWJICX4nPD1hl4RsSNik78VO08O3f8saEmjtI1O3kD5oVdYUI0i6Vs2OxJ-BPObW-cCHIwwPco6cP2PvvO41WptHJNsiJ3-kVYzfurWNF0YG-jbd', 'width': 3456}]",-6.979315799999999,106.2798963
"366X+746, West Bayah, Bayah, Lebak Regency, Banten 42393, Indonesia",Sungai Cimadur,ChIJi-jD6SGNQi4RvWP3_Af0tsA,5.0,"['tourist_attraction', 'point_of_interest', 'establishment']",1.0,"[{'height': 1440, 'html_attributions': ['<a href=""https://maps.google.com/maps/contrib/103119953739140818905"">Vizar Firasta</a>'], 'photo_reference': 'AUGGfZmHu0Ql-KQGokxTYLYFAyORTsGk0X1hR93hGRZEPwS8TWyzbbqwdPkFeH4o1tk7N6knKNfo5LHarsJ8Svkt4EhNkq2-NSkqgb3zcF5wv0qvGvORdpPz_An0HEBVjhaixdx5qQlzUwsKxKOE4eJh7WU4PD-tpaPcU0rnFnibxGgBBy9p', 'width': 2560}]",-6.9393265,106.2477765
"2884+6MP, Sawarna, Bayah, Lebak Regency, Banten 42393, Indonesia",Di agendakan,ChIJXYGaDwCRQi4Rxy2mzcuwb_Q,0.0,"['tourist_attraction', 'point_of_interest', 'establishment']",0.0,,-6.984411799999999,106.3066999
"489W+HWC, Cidikit, Bayah, Lebak Regency, Banten 42393, Indonesia",Curug Bojonglaya,ChIJhRy4TR2GQi4R2NiE6cgKRaY,2.7,"['tourist_attraction', 'point_of_interest', 'establishment']",3.0,"[{'height': 4128, 'html_attributions': ['<a href=""https://maps.google.com/maps/contrib/111395636801973057544"">Ngaprak Leuweung</a>'], 'photo_reference': 'AUGGfZkR_tYepRnhCPJTq86aJyfR6qn6SHXs04vUsawTe9k5KDKHW22wmNa8L0LA93mAq0K2DguWxNMgaRtTlx0iwZuu8IPyPWt64b2WHJ4xCqDgsMs1NT1P21WKRk-rjXTQODF8PD50oUx4rcdXC2jIoyw6BYtO4TT3YyIbgtB4_IW8yx3S', 'width': 3096}]",-6.8810607,106.3472516
"28GP+M5W, East Sawarna, Bayah, Lebak Regency, Banten 42393, Indonesia",Wisata Goa Arca,ChIJyas9Ov2PQi4RBCQEjP5nGoI,4.0,"['tourist_attraction', 'point_of_interest', 'establishment']",3.0,"[{'height': 1536, 'html_attributions': ['<a href=""https://maps.google.com/maps/contrib/105396665900933179215"">R Sussan</a>'], 'photo_reference': 'AUGGfZlu97AHo5daOi2BiqYOqgNcZWvDEPgZWG2MG2HIDkFMWDEV4pV5y0mjxjINXNRsJ2e0KZ-_Srxk8YQAt2uRy20AB5AmlXwMWaa7Fv6bcucxUCL1ZPjOxTdIa8hYA7YSMed2K0huFXJWLIuJ2SwE3vCiP3QBr82YvT6C7fPxU25tvciS', 'width': 2560}]",-6.9732746,106.3354442
"Unnamed Road, Sawarna, Kec. Bayah, Kabupaten Lebak, Banten 42393, Indonesia",Pantai Legon Pari,ChIJKeqSePGRQi4RejrBwfj47bU,4.8,"['tourist_attraction', 'point_of_interest', 'establishment']",1385.0,"[{'height': 480, 'html_attributions': ['<a href=""https://maps.google.com/maps/contrib/100692920027769815639"">A Google User</a>'], 'photo_reference': 'AUGGfZlF9f5Qtt0_ocAy2CD6T98zgxgVrFkEeXe1xp9l3JBpBOrsQgtwRV2Hq9nWludDTRGMRiAj0XFOeiqydCnSd9SS5oUmXIF6r-P6gen3-oEYA39bFLOYd8Vv2Mif3AP688ukc1aws39Sf8705pxLpkUC2BEyc5wbU-xVgljgjfSIKgf0', 'width': 720}]",-6.987344299999999,106.3224841
"285G+GGX, Gg. Masjid, Sawarna, Kec. Bayah, Kabupaten Lebak, Banten 42393, Indonesia",Karang taraje legon pari,ChIJGw5lrHmRQi4ReFOKkh_c8Ao,4.7,"['tourist_attraction', 'point_of_interest', 'establishment']",25.0,"[{'height': 1800, 'html_attributions': ['<a href=""https://maps.google.com/maps/contrib/116449500316719220004"">Pujo Sumantri</a>'], 'photo_reference': 'AUGGfZngizpdWrJRw7Zwid9GVNLOR0h7FMnlV7vptzF6IhHryjrn7XkGJKQxRntMfImfpfd4zVX9e5n19ZmrbJgnmBAK0LFTJaoHHZEFkoJ5yX8bHTHvTm_C8lyxK-W3M10VrX8cnJozhU-csnIE8UFu17aLb1BCFHz9IssLqyXwmEGAm0xD', 'width': 4000}]",-6.9911287,106.3263642
"286G+3GP, Gg. Jalur Leles, Sawarna, Kec. Bayah, Kabupaten Lebak, Banten 42393, Indonesia",Warung ibu mimin,ChIJ4d8jLOmRQi4Rik-0r0wOJCI,0.0,"['tourist_attraction', 'point_of_interest', 'establishment']",0.0,"[{'height': 3264, 'html_attributions': ['<a href=""https://maps.google.com/maps/contrib/100428775214075750578"">A Google User</a>'], 'photo_reference': 'AUGGfZmU-NnvRYgMuaRc6fsPJmgVEX3XLjXxYB80wYMCQ3BOUvpmtZG8XgzJGutbb4Wo4kOBVwIyfD0MrbWZzMAL3MOa98WVNuBxiwfl7INSfOQ67f-ITezZnmrIv-T6AT6v5KR3FfnWySDndFWCSQ26QO8u9AAhlIzlG_2AUpwmb_41TViL', 'width': 2448}]",-6.989798599999999,106.3263364
"2855+559, Sawarna, Bayah, Lebak Regency, Banten 42393, Indonesia",Warung Sawarna,ChIJb8h6JW2RQi4RQuUpO-P49eQ,5.0,"['tourist_attraction', 'point_of_interest', 'establishment']",1.0,"[{'height': 4160, 'html_attributions': ['<a href=""https://maps.google.com/maps/contrib/103322628128358658234"">A Google User</a>'], 'photo_reference': 'AUGGfZlOoSTZ8XkXaImu6clKGscad7yzi4l5VroHjlyDk1PP3gep_iIkAGO_USVZhTPymM7fZdx-2r1ldNq300cGuy7sQC4W5t8FvC3T3aNE2uRkWcOhCFc1bEElB3q-7wuV_ymCJNIkEF77I_ThCFGdb5yATAo7gU_EkC7O_egYnkTiCc_v', 'width': 3120}]",-6.9918454,106.3079473
"2855+XG7, Sawarna, Bayah, Lebak Regency, Banten 42393, Indonesia",Nacho's point surf spot,ChIJ7S7x2LKRQi4RVK_aZY1aesI,0.0,"['tourist_attraction', 'point_of_interest', 'establishment']",0.0,,-6.9894339,106.3083173
"27FR+VGM, Sawarna, Bayah, Lebak Regency, Banten 42393, Indonesia",GOA LANGIR,ChIJ6ZPOOACPQi4RsPn3w2kmPAg,4.5,"['tourist_attraction', 'point_of_interest', 'establishment']",339.0,"[{'height': 2604, 'html_attributions': ['<a href=""https://maps.google.com/maps/contrib/113479087270183217052"">hardik leny</a>'], 'photo_reference': 'AUGGfZkpN1NKll-gk19jWaC5cVtmv9_J9fBRk2OKq6pBK3bM-p-m3HPCQ2YW4i1fgLxSxoTHDZUnXfBgwuHxE_NoJsVvVxV8vVKHNsEQuWH-c9qmP8Ai7Nfm5_-H3SOAtbVBRg9aYylLqIL5HYLdgDHnI_NFbz-SU-nyPM1BbXuTMozGseWL', 'width': 4624}]",-6.975464,106.2920782
"cibareno, Jln raya, Sawarna, Kec. Bayah, Kabupaten Lebak, Banten 42393, Indonesia",Pantai pasir putih sawarna,ChIJLbE0EXeRQi4RIQMx3tfI4wk,4.6,"['tourist_attraction', 'point_of_interest', 'establishment']",179.0,"[{'height': 3000, 'html_attributions': ['<a href=""https://maps.google.com/maps/contrib/116395099351757113680"">Rulls GunawanSyah</a>'], 'photo_reference': 'AUGGfZm5HxiYAQh147IcUGkL8Rvx54fSUyA4QALAEDn_XjNSMJ3sUBGlEPCD-PcE2-00sFTkOSjkYKG9sq9L4j1jpkhhSxw_qcXEjCh1wDgxvxaVVx7wYR86c9H8_FaFNZR2LSs0NyE8K6ZjJLVCTq7XIn-M9z1b--xkfyAT9Xi5u6ewupIf', 'width': 4000}]",-6.9833892,106.3065098
"Pesona Sawarna Komplek Tanjung Layar Blok Ciantir, Sawarna, Kec. Bayah, Kabupaten Lebak, Banten 42393, Indonesia",Tanjung Layar Beach,ChIJ16rLXjaQQi4RAjlgKk4bC-Q,4.6,"['tourist_attraction', 'park', 'point_of_interest', 'establishment']",5872.0,"[{'height': 427, 'html_attributions': ['<a href=""https://maps.google.com/maps/contrib/108184326848776205292"">Pantai Tanjung Layar</a>'], 'photo_reference': 'AUGGfZkPqHu0vhGOG-XEtEoK79cGmBmkJLXfyEL5bDYPMq0korcG0DQU-OauBqV5RijYE7bRvuQSdDxC2MZikw2DIvrziqjBQDIrtxCm-kkVRCZvsUIFtEjKfZAsxAItvqV2dsTAs6CPsRXPK850SR-5CEc3ImwknER_5WSUDclsUG3nnkTD', 'width': 640}]",-6.993944399999999,106.3071713
"2859+7QP, Sawarna, Bayah, Lebak Regency, Banten 42393, Indonesia",Coral Coast Beurem,ChIJ8Y4_jz6QQi4Rw991rO1rL8s,4.7,"['tourist_attraction', 'point_of_interest', 'establishment']",245.0,"[{'height': 3689, 'html_attributions': ['<a href=""https://maps.google.com/maps/contrib/108386428473501287128"">imam muhajirin</a>'], 'photo_reference': 'AUGGfZmLjkHNcto4W2e-KufosIcz-BMxOjgTX4WbFeCZs0qLIdQu1HaQUfKT1R0K86YpIHFMxVORjx4q-KfKZyLNwk39vcbL_T-WcFCEB9RRLxgvjJVB5gugsfE46zXLq3VCg1pLx6qHY2hVD-CbMHqMV23mmH3ZMgIqG-z93UqIPmqrM5ec', 'width': 5676}]",-6.991795499999999,106.3194387
"368W+MMV, West Bayah, Bayah, Lebak Regency, Banten 42393, Indonesia",Tugu Romusha Bayah,ChIJYa3OiCuMQi4Rqpe36wekviE,4.4,"['tourist_attraction', 'point_of_interest', 'establishment']",166.0,"[{'height': 1080, 'html_attributions': ['<a href=""https://maps.google.com/maps/contrib/107943460497767538602"">A Google User</a>'], 'photo_reference': 'AUGGfZnI0mUyE11HuqBFin5PbqPQ1ptchlqufhYSW_1GrlF8db-rFNCfgpf2XROJAZAoT_cr1h9N8Or5lTHbOLY2CSd3YrcGSDRyWxBtvYwg8s28KIQvT6L962SFibj96TTXf7hs2ymIX9lRBsvFV6KSy0PDZ3bCv2Cs9IE044n_UIpTZhwI', 'width': 1075}]",-6.933260799999999,106.2466724
"28QH+7HH, Lebaktipar, Bayah, Lebak Regency, Banten 42393, Indonesia",Pesawahan Cadas Ngampar,ChIJJ55WfeCPQi4RxRJgmAWSMtg,0.0,"['tourist_attraction', 'point_of_interest', 'establishment']",0.0,"[{'height': 2336, 'html_attributions': ['<a href=""https://maps.google.com/maps/contrib/100576892273114224107"">Algar Yuliadi</a>'], 'photo_reference': 'AUGGfZllXpGzX0C2ZDvBrCilJYe8TH3AA6qgFA6axsSLoqYkTuWa_tYQLqq63qvHzBC2dWPPMZEJ8BY4ItQTDyfuE7gT6n-FJWzMzjZY1v-Fp-c_pi5Zcv92wX9k8DS90-cnL9fnp0sXdudvWAzHjmAgyvOBhzDQDkFQH4Ihmh6q3S72SyLL', 'width': 4160}]",-6.961801899999999,106.328975
"2875+5VW, Sawarna, Bayah, Lebak Regency, Banten 42393, Indonesia","Warung/penginepan,lesehan gajebo",ChIJocZ8piORQi4RQJGZ03RK218,0.0,"['tourist_attraction', 'point_of_interest', 'establishment']",0.0,,-6.987159999999999,106.309852
"287Q+57J, East Sawarna, Bayah, Lebak Regency, Banten 42393, Indonesia",Pantai Seupang,ChIJ_cOvDw-QQi4RakRL7QW_PKU,4.5,"['tourist_attraction', 'point_of_interest', 'establishment']",72.0,"[{'height': 3120, 'html_attributions': ['<a href=""https://maps.google.com/maps/contrib/106185172525766053024"">A Google User</a>'], 'photo_reference': 'AUGGfZnY9F8VkRtHCOFIhKq6ZOwlwsmUCFU3WQP0Ff8DRBlf1gZu5zrgE-D-aeYcBEXLyufCh4pwcZlVsru1xtEpPVDZ0QeiR-abAL33h0U_jXqz_VXin8fQAaIhD9dwpsI72VLLsY4Rqk5DRniy-5bx180XNMu1PwDasMITurCOYB9j0ZRe', 'width': 4160}]",-6.9870345,106.3381428
"2856+MJQ, Sawarna, Bayah, Lebak Regency, Banten 42393, Indonesia",Bukit Senyum Resort,ChIJw-AJBTqQQi4RlX-8GkiZtIw,3.8,"['tourist_attraction', 'point_of_interest', 'establishment']",5.0,"[{'height': 2448, 'html_attributions': ['<a href=""https://maps.google.com/maps/contrib/101574882854334018307"">siti nurasiah</a>'], 'photo_reference': 'AUGGfZmsIyflhV0mfk92plZxchp-bC-HdgD70kxcCJ-rjnYqEKbsZRV6YtW2PrKZZjpD3nk8E9jm4e4XjXVsiDGLnWghG4u1qWBFmorxO_c_GZADdkKWu1P-tnH53DhxV67McrVgLyMrz_ADZneCXNEmavh2-ItIQFL1DlO07U4_8FoKVNay', 'width': 3264}]",-6.9907989,106.3116151
"2875+VCX, Pantai Ciantir, Sawarna, Kec. Bayah, Kabupaten Lebak, Banten 42393, Indonesia",Saung Raya,ChIJcRbMDgCRQi4RYEL_Qsg1oUY,0.0,"['tourist_attraction', 'point_of_interest', 'establishment']",0.0,,-6.985259399999999,106.3086164
"Pantai legon pari, karang taraje, Sawarna, Kec. Bayah, Kabupaten Lebak, Banten 42393, Indonesia",Warung lesehan Ki Baban,ChIJc5xr27SRQi4R-ggOifFHMWM,5.0,"['tourist_attraction', 'point_of_interest', 'establishment']",2.0,"[{'height': 960, 'html_attributions': ['<a href=""https://maps.google.com/maps/contrib/104817677657478709948"">A Google User</a>'], 'photo_reference': 'AUGGfZl52PCb3B2HTn2o0MGbYjlbYxNvf-H7l5sSjYk1ei1LNnAUcGnbgTQWpUOrM6cnlDhUTH6P-JY_iCFQOK6R8akhWz6q97Qh1Ht-_MP3oLujjI4zJA4X_G6UwcYlLADWcnOfqnt7eE_e4kdlUSuSqxD28og5SH-cPq1XRJq_ySoJNlJ7', 'width': 720}]",-6.9897848,106.3263332
"27GJ+VP6, Jl. Raya Sawarna Bayah, Sawarna, Kec. Bayah, Kabupaten Lebak, Banten 42393, Indonesia",Villa,ChIJGbGcuhyPQi4RmpBceD7ukDE,0.0,"['tourist_attraction', 'point_of_interest', 'establishment']",0.0,,-6.9728469,106.2817664
"369Q+99, West Bayah, Bayah, Lebak Regency, Banten, Indonesia",PCI Panorama Ciwaru Indah,ChIJaeSOl9ONQi4RyHqQ1FaWbJs,0.0,"['tourist_attraction', 'point_of_interest', 'establishment']",0.0,,-6.931539099999999,106.2384799
"2944+2WJ, East Sawarna, Bayah, Lebak Regency, Banten 42393, Indonesia",Pantai Goa Gede,ChIJT3gCgymbQi4RZs9zx61yYBk,4.3,"['tourist_attraction', 'point_of_interest', 'establishment']",3.0,"[{'height': 4000, 'html_attributions': ['<a href=""https://maps.google.com/maps/contrib/106395099286183538073"">Alpi Thea</a>'], 'photo_reference': 'AUGGfZn8cpVZotfXwCZ3-C-g6ghr5fHTkuWIk8XDt0NuPEcZSUM3B3B4606pjETd1YsA2FUuowZi3-lDH4sL7d0ITwi-2B3r3xK96o783V9xMM9eDq_z_BSYnoZFmzK0yCwnyVfc-aYMNpEvR2Ad6HbQumH8T59Fd6lwhhQdygQls-J-sZLe', 'width': 2248}]",-6.994920199999999,106.3572645
"28C8+734, Sawarna, Bayah, Lebak Regency, Banten 42393, Indonesia",Gg Pantai Legon Pari,ChIJ30w6ZwCRQi4R1gReS-Qj1mc,5.0,"['tourist_attraction', 'point_of_interest', 'establishment']",1.0,,-6.979346,106.3151596
"287C+3X9, Pantai legon pari, Sawarna, Kec. Bayah, Kabupaten Lebak, Banten 42393, Indonesia",Warung ibu emar,ChIJk8bhq7WRQi4R06jxA8RhpO8,5.0,"['tourist_attraction', 'point_of_interest', 'establishment']",3.0,"[{'height': 3120, 'html_attributions': ['<a href=""https://maps.google.com/maps/contrib/116127457499694482594"">A Google User</a>'], 'photo_reference': 'AUGGfZlWX9bclDREatuk-KxeYPrcF5aiaqJSNBh9mrfigVNuPdF4zMeaL0GP_seGcwtGlNvR9dmVlt0W7vUlYbACiZgBxeuDKgU86CD4zM0YXTolcwlJILSKVv4RNaVUMBuA4XWAHexvkELrSzEyQLO3zOjyV6MJkE3HyQOctVTVOM207dcR', 'width': 4160}]",-6.987344299999999,106.3224841
"28GP+57V, East Sawarna, Bayah, Lebak Regency, Banten 42393, Indonesia",CURUG CI BUNAR,ChIJ3yDt-LqPQi4Ril_m9flHj_o,0.0,"['tourist_attraction', 'point_of_interest', 'establishment']",0.0,,-6.9745076,106.3356594
"283V+R9Q, East Sawarna, Bayah, Lebak Regency, Banten, Indonesia",FISHING CAMP AREA,ChIJC40l5YyRQi4R2E76NTA5CMM,5.0,"['tourist_attraction', 'point_of_interest', 'establishment']",1.0,"[{'height': 1080, 'html_attributions': ['<a href=""https://maps.google.com/maps/contrib/109701484892734973513"">A Google User</a>'], 'photo_reference': 'AUGGfZma1sp8Qup8WJvFuwReFLa1vNSmtLKet_l7BKibl_nh1c_BbT4LtrW2Sq-YAxApayLJjf6Aezkhlb_0GbFGA14j2ANstK9q5t-NRFJ5VOlBC1eppLDHg3W3fEDgqD2aRYs2c0j-IemA6L7K-lRl6wEfMD7fi9B7XElAcR7kkTuhlDaO', 'width': 2408}]",-6.995409299999999,106.3434744
"48FQ+G6X, lebak manggah, Cidikit, Kec. Bayah, Kabupaten Lebak, Banten 42393, Indonesia",Puncak Pasir Janji,ChIJ6ZIXuCqJQi4RWHAuGgGF3HY,4.3,"['tourist_attraction', 'point_of_interest', 'establishment']",6.0,"[{'height': 3120, 'html_attributions': ['<a href=""https://maps.google.com/maps/contrib/117802260821142236142"">A Google User</a>'], 'photo_reference': 'AUGGfZmRQFMTWYGrV69_cKg_1vW_X63n0dYJ7RduP6xd-vKcRtTfhzMJI_KyWCWNepnZUqASpOFlJAhOSIIi4E9HEZIN_niHX0YdP_L2PX4kYcPNo4vi5_ilKx8waUyPqfTQEiOf-0lj73XGUM3aIpYbD51kMWANXrt3koYYoAp0PfGIjdhV', 'width': 4160}]",-6.876137,106.3381089
"28C4+GJ8, Jl. Raya Sawarna Bayah, Sawarna, Kec. Bayah, Kabupaten Lebak, Banten 42393, Indonesia",Pedepokan welas asih,ChIJbX4qKACRQi4RZSa3lIQ7T68,5.0,"['tourist_attraction', 'point_of_interest', 'establishment']",2.0,,-6.9787324,106.3065118
"2844+9V7, Sawarna, Bayah, Lebak Regency, Banten, Indonesia",Batu Layar Sawarna,ChIJBz8FGUyRQi4RqqJlbZOsdN8,4.7,"['tourist_attraction', 'point_of_interest', 'establishment']",42.0,"[{'height': 2304, 'html_attributions': ['<a href=""https://maps.google.com/maps/contrib/114202102930693209848"">A Google User</a>'], 'photo_reference': 'AUGGfZkzcOHnJ8wapfdLGxlNr1MGXnGY3u2evFBb4LeP7SqsSrDphL3bYB28ivFjYDdxyOy4TzixHnN2UbXS8TgHkDN5Kzhdk6Gt7xcmwHLOuSm2ATHtUB39ZMUwH1xlnLAOoEekwTD7_xKJRopYvcv6Mf5h0VD877NpJeY2d1OLvC3caxnJ', 'width': 4096}]",-6.9949514,106.3069366
"47HR+V58, Pasirgombong, Bayah, Lebak Regency, Banten 42393, Indonesia",Block cikomong,ChIJbUOcUQCJQi4Rp_qbqLmUZ1c,0.0,"['tourist_attraction', 'point_of_interest', 'establishment']",0.0,,-6.8703371,106.2904635
"2943+2VW, East Sawarna, Bayah, Lebak Regency, Banten, Indonesia",Pantai Sinini,ChIJY_bveKKaQi4RGh6pqes_XUk,4.4,"['tourist_attraction', 'point_of_interest', 'establishment']",16.0,"[{'height': 3024, 'html_attributions': ['<a href=""https://maps.google.com/maps/contrib/105890319053373789519"">A Google User</a>'], 'photo_reference': 'AUGGfZlMvZok3Q8dngGqq-e5YYqAfLPtRN3rG_n4mwCG7qWlThdkMUnIHoT_uMEvsdmmeEvreaEr-sVrbLmYcyZBwW5eH6ul05NplLssI8_mdXcObHRENpkySBELLCVPkONbANLNUpdEH9LZ0FsFM1oR47P0fztbOMaSpyb6uQ33SDsp7Cn_', 'width': 4032}]",-6.9948792,106.3547074
"2845+72V, Sawarna, Bayah, Lebak Regency, Banten 42393, Indonesia",Tanjung Layar Pak Jalil,ChIJ7fIwgc-RQi4R2LYQjfd-DkM,3.0,"['tourist_attraction', 'point_of_interest', 'establishment']",2.0,"[{'height': 4095, 'html_attributions': ['<a href=""https://maps.google.com/maps/contrib/105102288461814646407"">A Google User</a>'], 'photo_reference': 'AUGGfZn66QciqxoElawGFWiyYNEXKTj3dTrEdW14E3G3V2XEV3sHPL9IBg7elrVTZ_d6ZJG8a8PNgv6GztjIDlO4TwvIfdme7Nk05SMKG8p8sWnMPV7-mEwrGvAkmtDJjsKkgdBawxPX16XjcvSWzNzZp2WaW3BRVpDhUwlbEvVa1MYKOn7G', 'width': 2304}]",-6.9942683,106.3075617
"28MH+FFC, East Sawarna, Bayah, Lebak Regency, Banten 42393, Indonesia",Pintu Masuk Wisata Goa Lauk,ChIJj0SXdeaPQi4RvHMVFl6ZC14,4.2,"['tourist_attraction', 'point_of_interest', 'establishment']",43.0,"[{'height': 2248, 'html_attributions': ['<a href=""https://maps.google.com/maps/contrib/113504137577808340163"">Tambang Raras</a>'], 'photo_reference': 'AUGGfZmgeK1Tng5u4wjmByvhBynDbGmnTIqXg1ueLiNrfe0_qMbuDBVEIs6wjJ3wlYqVslyHHZOU9gdr8XGQWyZugdd4441Oyq3B3s7Jwt1_521vbsV5wv0PXhGO-TLX8xvivfao6jD7KupzQcw7qPz2dERLCK1oT6XZ-uZ0JZnUAHYKd3Vh', 'width': 4000}]",-6.966348,106.3286489
"Kampung cibeas, Sawarna, Kec. Bayah, Kabupaten Lebak, Banten 42393, Indonesia",Gerbang wisata sawarna,ChIJ6QdJmQ2RQi4RFKPtbejrZAA,0.0,"['tourist_attraction', 'point_of_interest', 'establishment']",0.0,,-6.984487799999999,106.3068282
"37G5+6W2, West Bayah, Bayah, Lebak Regency, Banten 42393, Indonesia",Dede jainudin Betawi Cengkareng,ChIJxYNvo7uPQi4RBAPOCkAJQCk,5.0,"['tourist_attraction', 'point_of_interest', 'establishment']",1.0,"[{'height': 3120, 'html_attributions': ['<a href=""https://maps.google.com/maps/contrib/116638865081486213953"">A Google User</a>'], 'photo_reference': 'AUGGfZmwrM1wTgDln4lsAbYgkx2kDHduZ1jf1B83M10Fk5AH58hfblQWsk_hmyS_qHkO0GJtyQFElSgYJ99Yc3IYq3D4JF8w-KC9LHZdG4KbNk-hBKpC9NK5Ys7ptc0-mh4mlNdVdCUc9nnfkOnYTyyoTApb6owMxAk1ktTjfoyLvZC24zg6', 'width': 4160}]",-6.9244831,106.2596808
"28H4+M37, Sawarna, Bayah, Lebak Regency, Banten 42393, Indonesia",Sawarna Beach,ChIJ-Z13jTCPQi4RuNLKcl_wkfQ,0.0,"['tourist_attraction', 'point_of_interest', 'establishment']",0.0,,-6.9708301,106.3051766
"285J+CHQ, Sawarna, Bayah, Lebak Regency, Banten 42393, Indonesia",Pantai Karang Urug,ChIJrUAIzROQQi4R0_bRjjKsRus,4.7,"['tourist_attraction', 'point_of_interest', 'establishment']",12.0,"[{'height': 2448, 'html_attributions': ['<a href=""https://maps.google.com/maps/contrib/107569937178619544840"">Andi Sutrisno</a>'], 'photo_reference': 'AUGGfZmEOdGfxY8hgoG860olK4lMwEuU931Y1IB7Zgc0AtvNaJgSDQoJqqbboSZXSqtRZWB9v6I6IZYN558hYDDRNaUI1OsHAZ_P1vnO21DhQ_FHtgW3pCGcvRHq-VGNCX7rgO9y99dtLV3mFml5yutHM5glyYsf6qWRGBYnePhi1I5Kx9BG', 'width': 3264}]",-6.9914016,106.3314849
"2875+4QJ, Sawarna, Bayah, Lebak Regency, Banten 42393, Indonesia",area camping ground wisata sawarna,ChIJeXaCGwCRQi4Rf5WHwNebcfo,5.0,"['tourist_attraction', 'point_of_interest', 'establishment']",3.0,"[{'height': 4160, 'html_attributions': ['<a href=""https://maps.google.com/maps/contrib/112880165192736664425"">A Google User</a>'], 'photo_reference': 'AUGGfZnWcDuzM03B4A3NJRZIBAREnRlLgSb7uyfDd2VPQ45giSZI6SyHURkDUtZPK-Gr4NoMbI02KpXO7NI36Pdr79zGAuSIxHqNWClmYfvJUMGH5jz6YjpSou4hqE671IvVP6DoM9XgHXIJkfexVH3Rd8NAphk0P58nB3wjmdUk3jvYYSbN', 'width': 1872}]",-6.987153300000001,106.3094012
"28C8+435, Gg. Jalur Leles, Sawarna, Kec. Bayah, Kabupaten Lebak, Banten 42393, Indonesia",Otw ke pantai sawarna,ChIJAy0Py8WRQi4RhIC6F3u8ofM,5.0,"['tourist_attraction', 'point_of_interest', 'establishment']",1.0,,-6.9797444,106.3151948
"Lebaktipar, Cilograng, Lebak Regency, Banten 42393, Indonesia",Goa Lauk,ChIJg29m0-yPQi4R6rqs5dKHm28,4.0,"['tourist_attraction', 'point_of_interest', 'establishment']",36.0,"[{'height': 4140, 'html_attributions': ['<a href=""https://maps.google.com/maps/contrib/104832672631433811097"">Agus Kozek</a>'], 'photo_reference': 'AUGGfZkZ4Z9Gi0U8B9oP2P6iJxKTww41-wBtPzgu0x_6-fiqCf82aJAm1Ah1ByspemkDvOgEorcUhBTaRuP27TdcDKkDVw_lOv5ej7oT3EKJ_f7g4I7AQbj-6K6ZOlzGO6Lx8jVoSGfN74s_WUuLxmoRqPAtVzxnA0HO-TxmLKkpIk_BmP1x', 'width': 5520}]",-6.9544609,106.3312576
"27FJ+FJ7, Sawarna, Bayah, Lebak Regency, Banten, Indonesia",PANTAI KARANG URUG,ChIJEyNG2JqPQi4RSmi7MbeE3F8,5.0,"['tourist_attraction', 'point_of_interest', 'establishment']",1.0,"[{'height': 2296, 'html_attributions': ['<a href=""https://maps.google.com/maps/contrib/116109959911893455221"">A Google User</a>'], 'photo_reference': 'AUGGfZlkOf7wXTzoK025Eg3VzbFJi0pCi6otVKH6cDzVnkuyHOaH8ICzsBQ1b6N2Z9cYIR4FBmy8-NIFiswFA4k2Hgm_HfFVktbzEf-FS5TlcCirJcyFyNhPnrs_Vo5cD9EnRMnGSlRKCdfF2xbgio-FGWl0r6WSBLO2KiMbkoqIxEbeN-3j', 'width': 4080}]",-6.9763486,106.2815552
"27GX+857, Sawarna, Bayah, Lebak Regency, Banten 42393, Indonesia",Pengelola wisata goa langir IPKCS sawarna,ChIJh3jt8XWPQi4RGfVZ7pIyEiI,4.0,"['tourist_attraction', 'point_of_interest', 'establishment']",5.0,"[{'height': 711, 'html_attributions': ['<a href=""https://maps.google.com/maps/contrib/102817605036135696232"">A Google User</a>'], 'photo_reference': 'AUGGfZlW8InZ4a7qMa-fuhxm4nBr49n_-QNYGD49ni0xpw7VXhpB6ueexyndUhs-HUPbs_hLWnRQrg89jM3aeOY7WH63NS_FCnhqv_UIDs1seQnYa_iSXTA3rwvR478egV8Wuo7NQ9MEBwbg789-3aRHl5p8MH8P7sh2mxO2RsRO1yf-8r6o', 'width': 720}]",-6.973087199999999,106.2982322
"38G6+CCF, East Sawarna, Bayah, Lebak Regency, Banten 42393, Indonesia",Wisata Pemandangan GUNUNG HEAS,ChIJYxfoXfuPQi4R52BlW4qo7GA,3.0,"['tourist_attraction', 'point_of_interest', 'establishment']",2.0,"[{'height': 1080, 'html_attributions': ['<a href=""https://maps.google.com/maps/contrib/101742370764256689839"">Mas Huri</a>'], 'photo_reference': 'AUGGfZl2qqJPbnxIm07DFo-dconK3OLtiNBunlgFvqVRQv9lyVRgx6mo4YVK4QZjdZoGPE6o0ZTdnov04ZK_sawSHs9YUJy_XPCVLH8sFHZWGXgIr9__k3CRPuhavV1et1YDqt1g5-CinZ-LcoKmq78AizOTcQHyufI2X4l1HYwk83Bx8lXH', 'width': 1920}]",-6.9239396,106.3110605
"285J+C3R, Sawarna, Bayah, Lebak Regency, Banten 42393, Indonesia",Pantai Sedong Abu,ChIJ2eIa6BOQQi4RL0he6ld1O4M,4.8,"['tourist_attraction', 'point_of_interest', 'establishment']",13.0,"[{'height': 1921, 'html_attributions': ['<a href=""https://maps.google.com/maps/contrib/106379347237300974663"">Aco We We</a>'], 'photo_reference': 'AUGGfZnyXmBCz0ZZMaFMvtJAT3Spql6-LQMWUiVHro12Nim2-jcDjtLmRylscvxXUi7_-CSgv1det6M12i6_-e69BXlRtgEXKNL2ZH9-_ET0nRU8tB1vGdxkZhy-SniQWFaF9zpNAR7gwMdnqkUMprG22WDXuayy0YeFb_bFiNxw2RM4I650', 'width': 1671}]",-6.9913813,106.3301562
"Sawarna, Bayah, Lebak Regency, Banten 42393, Indonesia",Aliya homestay,ChIJJQza8R2PQi4R1uStp7FkK_g,5.0,"['tourist_attraction', 'point_of_interest', 'establishment']",4.0,"[{'height': 1204, 'html_attributions': ['<a href=""https://maps.google.com/maps/contrib/106568360394197724505"">A Google User</a>'], 'photo_reference': 'AUGGfZnKecl4Sq3JlV-eRpUGF4miDIs-d23cMHDOBRoh858A5grPezRg9Su-9uuGTlCq5WeotAhXE2HaNSYKbARTiNdV5Le2jfTMF8Ea0IAWGChWR68i0P2x3xiiXYZuek0YEzd14Cwe44owSjDnZJut2dqBQzoKvW2UvtxGavJGaHzoefpX', 'width': 1600}]",-6.983121499999999,106.3100838
"Guha Gede, Kab, Sawarna Tim., Kec. Cilograng, Kabupaten Lebak, Banten 42393, Indonesia",Kawasan Ekonomi Khusus Sawarna,ChIJFbsiHaOaQi4R4bcO142pgUA,4.9,"['tourist_attraction', 'point_of_interest', 'establishment']",7.0,"[{'height': 3072, 'html_attributions': ['<a href=""https://maps.google.com/maps/contrib/101464032483152255294"">A Google User</a>'], 'photo_reference': 'AUGGfZmyxvugS_CqoKNKtNM70a0B0kYGFC8UXHUfns4q7P-cnhXUrrMzTS-MX2G8FuZDPZuAxOop_Ojx-dHWsWfViT7NQetBgWe-_AjHcLyUz_0KQrbKjyQv1aV00hG0G3Lwb5Fh1XP7Tudxo3z5NNeXdlZ2T5x2Z5CzYvPcRb529HSHpFIt', 'width': 4096}]",-6.9922359,106.3560338
"27FW+X5W, Sawarna, Bayah, Lebak Regency, Banten 42393, Indonesia",Puncak Bukit Cariang,ChIJpbKPQiqOQi4RHH0vElH5ju8,4.4,"['tourist_attraction', 'point_of_interest', 'establishment']",70.0,"[{'height': 2610, 'html_attributions': ['<a href=""https://maps.google.com/maps/contrib/116375608655816339856"">Dadang Wira</a>'], 'photo_reference': 'AUGGfZmSGSkCV7Di5f_3olTLH2ykSRWI6xmAWtzHuGBqXgRaD4qT0JeqdKVg9FHoDu0PnJinN7U7DCfdsnKHNshx7juAwnN3yh3rErr_cFKL4JQF0C-bTpkxyjIdM0LDJcs5VsF_R9J4sGMj_cO4E8XKhSwf1sUwxQS5Vz8wypfyFN_4zhdf', 'width': 4640}]",-6.9750099,106.2954665
"2884+6P4, Pantai, Sawarna, Kec. Bayah, Kabupaten Lebak, Banten 42393, Indonesia",Pantai tanjung selayar,ChIJR4S9ubWRQi4R9ZvSDjhqfoE,5.0,"['tourist_attraction', 'point_of_interest', 'establishment']",1.0,"[{'height': 4160, 'html_attributions': ['<a href=""https://maps.google.com/maps/contrib/101739027986080513240"">agus ramdhani</a>'], 'photo_reference': 'AUGGfZml9jO9XrDXBpXJzr_Jr060Z4oJXjZioWR6bOC3X0dVrrg-dJnXQU6vHVgbpjbw2FrPJFLkOlzA5cZ3QqLBVh8CJEONxDFtiSILvCOhsfg_s7bHWt6X4upADUfELG0n5iqVpjESA4DaqsJeSaviGLo-JPPKcnqFkU08AVisiL3WCY61', 'width': 3120}]",-6.984487799999999,106.3068282
"Jl. Sawarna Raya No.KM. 5, Sawarna, Kec. Bayah, Kabupaten Lebak, Banten 42393, Indonesia",Gerbang pantai goa langir,ChIJI98aWgCPQi4RISNP17Yg_Qs,4.8,"['tourist_attraction', 'point_of_interest', 'establishment']",10.0,"[{'height': 4064, 'html_attributions': ['<a href=""https://maps.google.com/maps/contrib/101354526088370713530"">A Google User</a>'], 'photo_reference': 'AUGGfZmhjldwI7Dh76koPWjgDw4snvWWOenntfeDDqfacP3_cG2qKsF6FUgbKpiuohYuJ7It-qTGnSfPQS0D4nlBu1QIFBkCKYcbdsrZGZyQIX8E5F-hanr-0bepgPLETHV_tlRYp_w575uQlC7CNSV0lgfWm7oC9WUPx_dDdtDcLFBMRhQL', 'width': 3048}]",-6.974054,106.296935
"2835+MG, Sawarna, Lebak Regency, Banten, Indonesia",Spot Gigi Hiu Sawarna,ChIJaabeKzaRQi4RqRM3RSvLJxc,5.0,"['tourist_attraction', 'point_of_interest', 'establishment']",3.0,"[{'height': 1024, 'html_attributions': ['<a href=""https://maps.google.com/maps/contrib/102233233343382840948"">A Google User</a>'], 'photo_reference': 'AUGGfZmAyX0lsfxnyd5bfRxtZ7xgMmcCDj7VhkJmEhRUw0g9V1051j09397h1r93NDUYC-yKk38NuLp3QvIepaoP7mFxs1dTPV4wj_JIYW7qmOFQtqYMTuMI63p0RAYNB28mYdrwWcp_yHdpJTkL4GHMFQTSYTI7E8S3MZalOH0On6d7hr-D', 'width': 819}]",-6.99584,106.308787
"26VR+F94, Jl. Raya Transit Bayah Cisolok, Kec. Bayah, Kabupaten Lebak, Banten 42393, Indonesia",Pantai Karangtaraje,ChIJY7ldB8GNQi4RdwkMZqexkO0,4.5,"['tourist_attraction', 'point_of_interest', 'establishment']",23.0,"[{'height': 3000, 'html_attributions': ['<a href=""https://maps.google.com/maps/contrib/100588778514511650340"">A Google User</a>'], 'photo_reference': 'AUGGfZmJd0UlStnPpOl6HMRxLNaX7WP3vXMcMUj3m8eGdqPRnNIw10PT2RWYKyVvaDWgm2gP7iJlWkyXmtUrLywp_bfAJa72pypupm1XSNxYQJCOE7z9ZvJD2hJtHXnqfvOMI-gOaSjpJjI8qdXD9YMuGxjSQs_9mwgjn4UM26JQaHh_jNrX', 'width': 4000}]",-6.9563698,106.2409538
"J5HX+V8H, Jl. Raya Kaduagung - Cileles, Tambakbaya, Kec. Cibadak, Kabupaten Lebak, Banten 42357, Indonesia",Gedung FTC SUKABUNGAH,ChIJgc3vvtgXQi4R4eMjzErpbDQ,5.0,"['tourist_attraction', 'point_of_interest', 'establishment']",1.0,"[{'height': 3000, 'html_attributions': ['<a href=""https://maps.google.com/maps/contrib/102424735903158955266"">A Google User</a>'], 'photo_reference': 'AUGGfZkgkp26lhKV2vkXkCZ3-1jvv0JobOCLE1pwVSSjAMn_MdGX_UQyaryEAEKJ-eNdTkD6dskybE-9tL2eLacc6zxuL-uSfB3nSkjQuwShJHWi1ldj2HWQkpJ30lTdSWZfu3YyC7H0J9elFDAjvie-rCQgFgdMKhL8C-H-6pJB-uQGZBUz', 'width': 4000}]",-6.369836599999999,106.1985427
"J6VM+J3F, Jl. Maulana Hasanudin, Kaduagung Tim., Kec. Cibadak, Kabupaten Lebak, Banten 42317, Indonesia",GALATAMA LELE MIRANTIKA CEMPA,ChIJCfxv5eIXQi4RkKtH01b0qLc,5.0,"['tourist_attraction', 'point_of_interest', 'establishment']",1.0,"[{'height': 1080, 'html_attributions': ['<a href=""https://maps.google.com/maps/contrib/102785507895409833887"">A Google User</a>'], 'photo_reference': 'AUGGfZkA_dTG3QYDD42E80kmob5raNHpF4pcyh3swzOMvUt0LnTkQfT2YMXC12PxciYF72AY3c8n2NfpktWGkE-MMvfVN6ZyC17YOr1DRIzkWaDP5wUC9gngcfzKu3u0yvldd_ANf6iv3l4hEXs5-d9hL11EZHVQgU0oUCtTFawYCdkCWo0h', 'width': 1920}]",-6.355844,106.2330079
"H6GX+4P5, Cinihni, Marga Jaya, Kec. Cimarga, Kabupaten Lebak, Banten 42361, Indonesia",Wisata Yasmin Farm,ChIJGS4gOiYVQi4RWPMlkxxE0Bg,4.5,"['tourist_attraction', 'point_of_interest', 'establishment']",269.0,"[{'height': 3024, 'html_attributions': ['<a href=""https://maps.google.com/maps/contrib/108844949555855554585"">Acep Nazmudin</a>'], 'photo_reference': 'AUGGfZn0EY8vPaQEn6cXUqHgB09BggpXpBbMigSkZmDrQg88X0xWmkZLTdHZT_GC9kwo2bdmK9C-TOG4R8KqGw44eF3z_ZqvFj1m77BJneCKc89Ekryk6zdqEusESuy6-8nYYRq0zKTa5o4GrIfWxINdjaczgr1tlKoZVBEYwxWDIgOyf7b_', 'width': 4032}]",-6.424728,106.249373
"M64Q+Q2C, East Kaduagung, Cibadak, Lebak Regency, Banten 42317, Indonesia",Sarana Asimilasi Edukasi ( SAE ) LAPAS KELAS 3 RANGKASBITUNG,ChIJaWoOHF4XQi4RxqRWPQa5k20,5.0,"['tourist_attraction', 'point_of_interest', 'establishment']",7.0,"[{'height': 1536, 'html_attributions': ['<a href=""https://maps.google.com/maps/contrib/114708456524803893908"">eka budi riyanto</a>'], 'photo_reference': 'AUGGfZmXPMWDnkdozPvWZnm0lWLPLQQuCW9WsdJWnJID80Zq8yghW8kDWycAiJuTMlTwRpiPMtBIueMWq8QUEkyupWgA4zTpZxjf8SQF_6VpebiiOLX4hYD5qARF6uIEUt40632Ui8RUMtS_2MHpTEF5Op3Ypwa5Mry2TxhUM8erDzr_Ox8J', 'width': 3264}]",-6.34307,106.2375306
"H6WV+PG5, Sangiang Tanjung, Kalanganyar, Lebak Regency, Banten, Indonesia",Saung sharare,ChIJve-ZlWAVQi4RU_lnQHpgGT0,5.0,"['tourist_attraction', 'point_of_interest', 'establishment']",1.0,"[{'height': 2288, 'html_attributions': ['<a href=""https://maps.google.com/maps/contrib/116787940347002824676"">edy sutisna</a>'], 'photo_reference': 'AUGGfZmqT9NhfVDA6SzX915Qcr8wvWMpsYLhuIpOCQL56ZJwkp0V38i-Xw5s-kGZlcOGeWhsBNSGRYZ5UBVZRwHcfHV-e5FL3gs7Oxwe4l2QdU1Q0DpCDmp7cVA-AFA1AqYbJ_pfZeaS3GSN80Fj9Ea_RPZJ9j6glfwvidPvDIZpH7pdFOI', 'width': 4080}]",-6.4032281,106.2438702
"M4CX+CW3, Jl.pemancingan, Cibuah, Kec. Warunggunung, Kabupaten Lebak, Banten 42352, Indonesia",amben ho'ok,ChIJ_dOyCEk9Qi4R2jcAsAdNTnQ,4.3,"['tourist_attraction', 'point_of_interest', 'establishment']",6.0,"[{'height': 2592, 'html_attributions': ['<a href=""https://maps.google.com/maps/contrib/106018128730360831602"">Elwan Fauzi</a>'], 'photo_reference': 'AUGGfZm5AHtaLjTcqaqeJrfeBGoh7AkEDstBTTjSRMffjR4ciqMiOphToZp4-U31HCWwhZoKT1KmtaRP_Ai5yGGXrtiQaKuVun9DLervt0OMrIsaQTShsKQpTjfYUfasPRHDoLgUTTKoYbvhAoxEjiZd6YKfAP6JnPIen9MRdInpRpwPaqvr', 'width': 4608}]",-6.3289843,106.149794
"J46G+383, Jaraja, Taman Jaya, Kec. Cikulur, Kabupaten Lebak, Banten 42356, Indonesia","Kp, Jaraja",ChIJF15gBxs9Qi4R52bNUdGIknY,4.7,"['tourist_attraction', 'point_of_interest', 'establishment']",7.0,"[{'height': 4160, 'html_attributions': ['<a href=""https://maps.google.com/maps/contrib/107480087883012021185"">A Google User</a>'], 'photo_reference': 'AUGGfZlO2qwjuPRsQFeGDHjsFPNFWLr7Ja_eal1mHa1DREJ5io5Pl1Y7F7LcXciGXzWJqZKjwFHrBtK65ubI5R4evHEpzIMxD9-8Vqv1OxTW0oiC-Aq40JpyPbbyfMKdrLN9Ct-iUJV4R2ZxiiksZdUb5kOjl4n8aP77_W95_AOm1UsvwRZ3', 'width': 2340}]",-6.389859,106.125787
"M747+PGX, Jl Hj Oni Insinyur Soetami, Malangnengah, Kec. Rangkasbitung, Kabupaten Lebak, Banten 42316, Indonesia","SAUNG IBU , KUBANG CERIA RANGKASBITUNG",ChIJK9UmWrYRQi4R8YgoyquUNVw,4.6,"['tourist_attraction', 'point_of_interest', 'establishment']",125.0,"[{'height': 2448, 'html_attributions': ['<a href=""https://maps.google.com/maps/contrib/109901797595629754280"">Ragil Dimas Pamungkas</a>'], 'photo_reference': 'AUGGfZk6_jGCJHzt8zHc1hfIhoqeuk5kFWtuEcA3z7uXn8R4tQwvhdYQzJu9F58-xwj5L3f24vOMIhk6pyJ-Zxepuce_wt_O49DSo-sNFagHB_zlA0sHASNUK55QDAa3rToP7iz5lRAS4eZSR1WuqMa8dj2MSr4QnFvUwCS3Etgu9x5mCfG7', 'width': 3264}]",-6.3431435,106.2638671
"Pasir Limus-Legok, Pasirkupa, Kec. Kalanganyar, Kabupaten Lebak, Banten 42312, Indonesia",Kp. Legok,ChIJ50knU2kXQi4Rr5WWwCD9DHk,4.8,"['tourist_attraction', 'point_of_interest', 'establishment']",13.0,"[{'height': 4000, 'html_attributions': ['<a href=""https://maps.google.com/maps/contrib/113568761328506816221"">A Google User</a>'], 'photo_reference': 'AUGGfZm5ThJVx9bggf8nfWoo7PEf8F77g1ygsDOvuB1KSnrQNzylwpXbbHRPfi191WBg4O9nBdhMN8cijimou6lvvr6Nbm2DGq_bDlpKUdGloZHlYvY6puaZxyZaloNEW4AtZVjr7kHa3W5lw5z0I0h4yJiFTnf2np17lxOzHZD5ErQO8uH7', 'width': 3000}]",-6.3714207,106.226756
"J5F7+FP3, Sumurbandung, Cikulur, Lebak Regency, Banten 42356, Indonesia",Vila Saung Kang Taponk,ChIJ1SoLOwEXQi4RVJLgNRHH9nU,5.0,"['tourist_attraction', 'point_of_interest', 'establishment']",1.0,,-6.376320799999999,106.1643185
"M64G+7F, Bojongleles, Cibadak, Lebak Regency, Banten 42357, Indonesia",Pemancingan Tepi Tol Rangkasbitung,ChIJCYqLs7UXQi4R4YjiDyOgjTw,4.6,"['tourist_attraction', 'point_of_interest', 'establishment']",29.0,"[{'height': 3120, 'html_attributions': ['<a href=""https://maps.google.com/maps/contrib/113334337557920893865"">rudi yanto</a>'], 'photo_reference': 'AUGGfZn2by3Xo-NZE-W_ukd-R5dgQeXq7tBnrF8iBkVwsNzgtzOQI0xu7hSPG_Hr_vjpcfngmlw4X5O7RkEuAv_jLwOuRnwA74LyPIAYnrE5yri3kCKiD0KbOH89wIwvtvrhvABTuj-lLFMwB5u6MUbqBgK6mlR_OoiutUi75hv6-OC62kJS', 'width': 4160}]",-6.3443471,106.2261814
"Kp cijalur Lebak No.RT 003/002, Sindangmulya, Kec. Maja, Kabupaten Lebak, Banten, Indonesia",Curug sidan,ChIJ_cDV0_YRQi4RNHslD-hZsDo,5.0,"['tourist_attraction', 'point_of_interest', 'establishment']",1.0,"[{'height': 3936, 'html_attributions': ['<a href=""https://maps.google.com/maps/contrib/116382140242938617800"">A Google User</a>'], 'photo_reference': 'AUGGfZlEzrLmxr2bYs7Unn131xzPkq-0D7tqijrQMI-oq6DffmPX3oGdmeK6NcUZ4Lp6mrOgPz85wM3GWJEF9mJJw1MnypNHAEnuX5Axd_D4cY8bcS9saUcZ4Y_VBmMwlGdiLTz-8MiGX83eJGm5fpg5ZGQr7JpH_b0eNfysgWKn5zmijPNF', 'width': 1728}]",-6.378087799999999,106.3082895
"M536+H6V, Cipalawad, Cibuah, Kec. Warunggunung, Kabupaten Lebak, Banten 42352, Indonesia",Astrea Warunggunung,ChIJM8JFZQAXQi4RjsVX1GfiEDI,5.0,"['tourist_attraction', 'point_of_interest', 'establishment']",5.0,"[{'height': 1280, 'html_attributions': ['<a href=""https://maps.google.com/maps/contrib/108887966899267763534"">A Google User</a>'], 'photo_reference': 'AUGGfZmJM3EC2As5iLkV1mdlk0BG1A00E_O7kRD4u5y1ohuRuL0qxJKJRZs7rng2QA-gBwNFfGnHleYdMVC-yNwgTJrEAiacho8Ds7utCaZ3Eh04GfrBSI9k4vmo3_rIG0tQhy5ELTdR0FvNn8qJ-xIuOw2j-88aO5xYTPxHAegmk-Ng9kQr', 'width': 720}]",-6.3460119,106.1605337
"H4GX+2H4, Kadu Agung Cileles, Muaradua, Kec. Cikulur, Kabupaten Lebak, Banten 42356, Indonesia",Situ Cibangreng,ChIJ59uVHHc_Qi4RnxpfQV_AL6M,5.0,"['tourist_attraction', 'point_of_interest', 'establishment']",1.0,"[{'height': 1080, 'html_attributions': ['<a href=""https://maps.google.com/maps/contrib/115433947996180210792"">A Google User</a>'], 'photo_reference': 'AUGGfZnyXKd39PNchA5PsNz38rWlprAfk50BFV3sxKQQAaDDxAqyZX0j5fIFtDf4zBUeD2ByWoxOlcBcgPv0NN2TouDd1fjegvtUnUANQFYFSCe_1gJUb17DqQoWSpT5X4HKuf_p6rvOVPRPHvACAY6EyzYpSBSWcHNhlzT7SUMZ4hDoEm2O', 'width': 1920}]",-6.424985299999999,106.1489448
"Selaraja, Warunggunung, Lebak Regency, Banten 42352, Indonesia",Situ Cilembun,ChIJh58asU8XQi4RPHOukRTQniw,4.5,"['tourist_attraction', 'point_of_interest', 'establishment']",49.0,"[{'height': 2322, 'html_attributions': ['<a href=""https://maps.google.com/maps/contrib/113015920522069395008"">zainudin bin nasir</a>'], 'photo_reference': 'AUGGfZmmNC4046hFzNKgGBfPnnoOTz9Pqd5ngmiQJajKVEFLC4vvcVBiCCGlIjjAyplmbj4xw-kIAXjFJSw06Wiw0g5qo-CrDoqDyZlagn8ZHEp4nc33f562WqKixbzeNF7Dmwk7ankfaPvjkKJltWfMsVOghbKGfd0OfeqE8DG1xbTNYzp1', 'width': 4128}]",-6.332984,106.1814723
"H7PJ+MW, Pasirtanjung, Rangkasbitung, Lebak Regency, Banten, Indonesia",Bendungan Waduk Karian,ChIJmbHyVVETQi4RCMqonEyREV0,4.3,"['tourist_attraction', 'point_of_interest', 'establishment']",39.0,"[{'height': 3024, 'html_attributions': ['<a href=""https://maps.google.com/maps/contrib/100240193524185160414"">Dita Setyo Rini</a>'], 'photo_reference': 'AUGGfZnmIqc-Xm_REP2w6RrO-65kp-3q9DvR9kLcYNrT0cSjww_tBPKeu1_0bfCqdqX4mceBHPJISgPqSfLGBz93ynTTOkHmLBPBT5GTVaW7AH6thQHJmuPBjgFP-AdW3Td-7poMueTusYpXCnBW-fjhL3MHrGz2u9PU-81AR_eZQk42IFdZ', 'width': 4032}]",-6.4133515,106.2822684
"Jl. Soekarno-Hatta No.16, Cijoro Pasir, Kec. Rangkasbitung, Kabupaten Lebak, Banten 42316, Indonesia",Gofary Project Home,ChIJdX4NqskRQi4RAmK7CMGU2K4,5.0,"['tourist_attraction', 'point_of_interest', 'establishment']",6.0,"[{'height': 3000, 'html_attributions': ['<a href=""https://maps.google.com/maps/contrib/110066285930817524900"">Alfian Gofary</a>'], 'photo_reference': 'AUGGfZkQqNiVCltSRpLuysz9slpNuZRCeW35hJBI9GNbBIYy9UEXTGxTqbAhA0KBDxgvdvjF_6aYHVmZ7gSuhZ2w0rurQueijdGa5pFKUWSt_pJZ7o6gn7XAeu9qHTDgufJFsez4L9n1gpK63kZzeyK_3qTXQnJx88nz37ewO9FKjqj2Eusb', 'width': 4000}]",-6.3449708,106.2613532
"G6G8+559, Kp. Cicadas, Sudamanik, Kec. Cimarga, Kabupaten Lebak, Banten 42361, Indonesia",(ARC) Anak Remaja Cicadas,ChIJV7EUKjIVQi4R3QmK2KTq-7M,5.0,"['tourist_attraction', 'point_of_interest', 'establishment']",1.0,"[{'height': 4000, 'html_attributions': ['<a href=""https://maps.google.com/maps/contrib/106338254425346649045"">Ryan Andriyan</a>'], 'photo_reference': 'AUGGfZkw2kzmgVs7Ao1-vDF94zGZBuZ_OuLUvqEmTyQncy0Bqcip_xw-9-pJ0UzSALjuzaq-DbREeVgFOhW_woom2dlhalNo2MqAlcfxTMxRU5HvZ7uKWq0aRcF2iY286wehtFpK1LQqRDJ9Q9Haa4CM2sZ0Sr7PpN4jmH3t118lMqJx4_5N', 'width': 3000}]",-6.4745963,106.2154874
"Turus, Sukadaya, Kec. Cikulur, Kabupaten Lebak, Banten 42356, Indonesia",Curug cibogo,ChIJv6rbDHAXQi4RWbaY3g69xGo,4.6,"['tourist_attraction', 'point_of_interest', 'establishment']",19.0,"[{'height': 1280, 'html_attributions': ['<a href=""https://maps.google.com/maps/contrib/108854041596476318884"">Mastum Bin</a>'], 'photo_reference': 'AUGGfZmorWenyqm8rH-nSTo-sgHAvTfCGtWVuzBVFfi8KXk5C1nNFUFIDIxaRiuRHssCH4bmLTnCHQtUW2gnRgf8oxJ2WwX7X29lBZxu1OlNpDZEQlUwLf2Q79Koghatb9pjlYg-BG2U0Z_Uw7w1s300E1m3ahVb5eCiOsHn17yBp71GEDtg', 'width': 960}]",-6.363019899999999,106.1611022
"J67G+HXF, Kp. Kaduranggem, Pasirkupa, Kec. Kalanganyar, Kabupaten Lebak, Banten 42312, Indonesia",Lembah soraya,ChIJaw65EvkXQi4RfltQ05yV3yo,4.1,"['tourist_attraction', 'point_of_interest', 'establishment']",15.0,"[{'height': 1280, 'html_attributions': ['<a href=""https://maps.google.com/maps/contrib/111224490932012714193"">nanda nurgustiansyah</a>'], 'photo_reference': 'AUGGfZkPj7gBIbNIOrdI0flaDRPn7IRAWYkVnYVktp0RzFGFfaLLSWkpldhXiqqagyARwQEdZyHjhZytAtsN0ZsoMwe79iBWdBN31GCL4FhhiwEU-tmeIDNCx446-Dyh2gUjKlQRLRn8UPrpSX-HsG3Urm-voygEW-juK4VhE9yHo7s32NdZ', 'width': 1024}]",-6.386074499999999,106.2274316
"6966+CQ, Hegarmanah, Cibeber, Lebak Regency, Banten, Indonesia",TUGU CIPOROLAK,ChIJsWHiGb59Qi4RpzZlaqEM6u0,2.5,"['tourist_attraction', 'point_of_interest', 'establishment']",2.0,"[{'height': 2448, 'html_attributions': ['<a href=""https://maps.google.com/maps/contrib/114440201785184300917"">A Google User</a>'], 'photo_reference': 'AUGGfZn-VI5hJFKeEmNa9EhjSNPKO-gFX-HH-rOr8uu5Etiy48Bh62leTB31UJIe0fEaMUDdyKM2c0HM5qTHJZF610TuyQGxTDDX4cT6GYKL5mM9lLX0PQuy1AyYBeiMmV-_Qq3633j4OeXZ9rs-nGrApciQZz1PXV_gGdzhqFo7qm3kHozU', 'width': 3264}]",-6.788982799999999,106.3619404
"5CWF+3P2, Cisungsang, Cibeber, Lebak Regency, Banten 42394, Indonesia",Wewengkon Adat Cisungsang,ChIJmdHCavZ9Qi4RaPJnexOH09I,4.6,"['tourist_attraction', 'point_of_interest', 'establishment']",81.0,"[{'height': 2448, 'html_attributions': ['<a href=""https://maps.google.com/maps/contrib/115558523498134853431"">A Google User</a>'], 'photo_reference': 'AUGGfZnt-r60BgAtrHczk5Qs6uxKrcKAF1nIsucrV9bvUYagXew0ht1C_f6zH4Q6ElD1uyn_HLrC6S7u3jdsENMkcHOUTZAu3rTWV7oCH8WkdUjbxLl-5qcWyeOZxhSJLZcCbaVo1WdLVWJ-FHQlL69KLAfu_bWDjT1hrG0HkdEfA18Kca6a', 'width': 3264}]",-6.804855099999999,106.4242558
"69G8+JG7, Kp lebak picung, Hegarmanah, Kec. Cibeber, Kabupaten Lebak, Banten 42394, Indonesia",AIR TERJUN CIPOROLAK,ChIJRbkLKSJ9Qi4RNKtD4_t4sNI,4.3,"['tourist_attraction', 'point_of_interest', 'establishment']",76.0,"[{'height': 4160, 'html_attributions': ['<a href=""https://maps.google.com/maps/contrib/101798632623282969583"">A Google User</a>'], 'photo_reference': 'AUGGfZkn9k0X-CqgZj_Vj_yjZhlG-EMiV23-K7Mjl7idWTJIX8ZhV0_1S-nQWD93ufc-Ccbny7qdvSwhQKWnQsJHuADGbquHA3TPHLAjgF6AwPPIzcbS3wnet9mjNlics-fmnKGDfcau0wZpjDCTWpGaYoeoTttCeD-ObLb7hdCyPhgI64hu', 'width': 3120}]",-6.7734515,106.3662855
"6C4C+RJQ, Cisungsang, Cibeber, Lebak Regency, Banten 42394, Indonesia","Leuwi Sorongan, Cisungsang",ChIJE5cd47p9Qi4RyHBC5P6CVv8,3.8,"['tourist_attraction', 'point_of_interest', 'establishment']",5.0,"[{'height': 2448, 'html_attributions': ['<a href=""https://maps.google.com/maps/contrib/108844949555855554585"">Acep Nazmudin</a>'], 'photo_reference': 'AUGGfZlvE6QZp8NdHBCWQ_4N9cXhCKR0PanimDHqaGJY0z7NH01J4jd7pu8C2FPudAsroBpeDyZPgMOETDIH_jHq6DU9bLUMNDRtvqKlBgTKwJbVIWekdiJSZlnIUqIdnsskyKp4cOVbQc842oDSxg9OUbKORjdrNPCz6N6eXf6EGvulAsmv', 'width': 3264}]",-6.792921199999999,106.4215939
"5CR6+65, Kujangjaya, Cibeber, Lebak Regency, Banten 42394, Indonesia",Kubang,ChIJgVWNXjeHQi4RrxNHZ5SQr-M,0.0,"['tourist_attraction', 'point_of_interest', 'establishment']",0.0,"[{'height': 4608, 'html_attributions': ['<a href=""https://maps.google.com/maps/contrib/117532167791526556185"">Iksandi jrt18</a>'], 'photo_reference': 'AUGGfZnYQ0n-Boq_gWkevrTld0JuPz3XTX_rqP1eOGuS-QBFOaIB8tTLke9vAmqXDkhFwF5ggwokHbtPWgdVjJM0JhasXpsApcPdFk8uNprl97R_YW1bGk-gEChIE8mznwtmuZok0eHAHpDpY6li44PnW1Sfc_tV4pkjOqd-zwtJUD8hXOCW', 'width': 3456}]",-6.809428599999999,106.4104669
"787X+7M9, Ciomas, Citorek Kidul, Kec. Cibeber, Kabupaten Lebak, Banten 42394, Indonesia",Leuit/Lumbung Padi Ciusul,ChIJf9cEOQB9Qi4RnApzmhtCsXU,0.0,"['tourist_attraction', 'point_of_interest', 'establishment']",0.0,,-6.7368428,106.3492226
"732, Taiwan, Tainan City, Baihe District",Guanziling Hot Spring,ChIJSfNljJ2NbjQRKpPO1fEKKsk,4.2,"['tourist_attraction', 'point_of_interest', 'establishment']",3631.0,"[{'height': 9000, 'html_attributions': ['<a href=""https://maps.google.com/maps/contrib/116091105803029763335"">はせがわたくみ</a>'], 'photo_reference': 'AUGGfZk9EfX8Di44Hn8xpgXtjM_qEEO87O1q4FWCWUkJdypMKOrq6Y_hx3yz0hPqUAUe9YFXIp_A2hOrcANuEg4sTEOFJoSl4zNKcm2XLqMwtto1KygbChOGSd0dTiUucqfEr4mM2tdf-n5-3bA6AjeM1w3gRdLuzFEex3aU1TinUOtacdr0', 'width': 12000}]",23.3396518,120.50439
"48H6+4XX, Jl. El Cilaksana, Cibeber, Kec. Cibeber, Kabupaten Lebak, Banten 42394, Indonesia",Curug Kuda,ChIJXdgBzYqJQi4REjxUbCGxMB8,4.0,"['tourist_attraction', 'point_of_interest', 'establishment']",5.0,"[{'height': 3264, 'html_attributions': ['<a href=""https://maps.google.com/maps/contrib/113962240320051692577"">A Google User</a>'], 'photo_reference': 'AUGGfZlac5sd0cwRqxiL5flFNqv_hlrJkNlB87c0DzcFmEkWVBYUpr-wcVyycoqP-n4FdF1lNrUEbruac4Rc9y0ujGn374l6TV3xS8yhEv8hYgeuqWpwEmzQEnLiYYTY5za7JO63irmQrha0rcv_vpK7u7x_OLaCxsQefUHsQgOUEPOgpzCx', 'width': 2448}]",-6.8721499,106.3124935
"732, Taiwan, Tainan City, Baihe District",Guanzi Ling Scenic Area,ChIJ331OhV2NbjQRikT5l58LVTI,4.2,"['tourist_attraction', 'point_of_interest', 'establishment']",959.0,"[{'height': 6000, 'html_attributions': ['<a href=""https://maps.google.com/maps/contrib/106990554477968322392"">A Google User</a>'], 'photo_reference': 'AUGGfZnIoNbyVJ8KjZAERno7U39NtJd3dHmzDBDpQvuLVL80BBNPpxldx2321xS7dPhAGt2upQhoVbpJduSuE64Qb7-88phbNekr6-ZyvoCQji6MWcz_RRyVuFbMrsCTC62U9rRPK5wZ8BWeUb91f88l4X7agqjPlY6veRrd5kkhFAbZJVLD', 'width': 8000}]",23.337638,120.505575
"67RR+HP3 Bar, West Citorek, Cibeber, Lebak Regency, Banten 42394, Indonesia",Lapangan Bola Cisiih,ChIJZVkfCv9jQi4R15zno1tJe_c,5.0,"['tourist_attraction', 'point_of_interest', 'establishment']",3.0,"[{'height': 1840, 'html_attributions': ['<a href=""https://maps.google.com/maps/contrib/110917547544259018218"">A Google User</a>'], 'photo_reference': 'AUGGfZlOwEgfK0a6ubYANEUWRpAqJx2fZTRTJpXPdBjU_mJytK4cjVvI8nTSAmPr75YVXMSpuzfDfN8acSjUQSNpGwGVpjZD74iFn8X8KXePmOgggTlgniWfEN1kFIXyTlfyxWofWLk4tditv5_NmQArYD8l-DfaxDPBV9mtn609oH2_TEOS', 'width': 3264}]",-6.7586184,106.2918046
"Cisungsang, Cibeber, Lebak Regency, Banten 42394, Indonesia",CURUG BENTANG,ChIJg1EQ3BJ9Qi4RMuAF_-HVMNw,0.0,"['tourist_attraction', 'point_of_interest', 'establishment']",0.0,"[{'height': 960, 'html_attributions': ['<a href=""https://maps.google.com/maps/contrib/116750173983025404972"">A Google User</a>'], 'photo_reference': 'AUGGfZnfHBZYhgW1zR9wmqhCR5_kRmuXgcaXXhKd9zlxhtd4GI76B7UPg9rdnegSJv_-CU-ffiZjkT5LRz9VUDCZkRUk1g7cObiXGI1hE6-QDAAs7VNXC3PEfsp0qFsqd6l9k5viFdK5KKSvvjs7VAwZv26bWT23CABFAs1N4sR8lD3B1B2Z', 'width': 640}]",-6.780852599999999,106.4081329
"584Q+43M, Warungbanten, Cibeber, Lebak Regency, Banten 42394, Indonesia",Curug Keukeuk,ChIJQ2t7HeqJQi4Rtm_mYvLKtK8,5.0,"['tourist_attraction', 'point_of_interest', 'establishment']",1.0,"[{'height': 1968, 'html_attributions': ['<a href=""https://maps.google.com/maps/contrib/112856746236569733048"">Rojak sunandar</a>'], 'photo_reference': 'AUGGfZkhc-wjWOavtFhwCcs_kgLiWA7iGGbmV8hQH0YMh6XcSzUkALeNgUxKUicOlc40_joNkBuubHdTgcKI200yvIBbdTjnuUYcBjVd-KA-49MH8kQj0r_0hpjLs2dm6P7fJIiOAZgPYis2iDYBThbAajc5aFqnjOK5Ea1W0q80cFoC0EFV', 'width': 4160}]",-6.844662599999999,106.3376667
"59F3+R9P, Neglasari, Cibeber, Lebak Regency, Banten 42394, Indonesia",Rumah ibu empih,ChIJsRH2BbCHQi4ROPy3elGVqMw,0.0,"['tourist_attraction', 'point_of_interest', 'establishment']",0.0,,-6.824859999999999,106.3528927
"47WF+7VC, Sukamulya, Cibeber, Lebak Regency, Banten, Indonesia",Rumah olot akung,ChIJwzVFVACJQi4REjyfggCo254,0.0,"['tourist_attraction', 'point_of_interest', 'establishment']",0.0,,-6.8545063,106.2745972
"4875+39W, Cidikit, Cibeber, Lebak Regency, Banten 42394, Indonesia",Wahangan Cidikit hilir,ChIJ75EnLsGJQi4RwJ31sonP_Js,5.0,"['tourist_attraction', 'point_of_interest', 'establishment']",1.0,"[{'height': 2248, 'html_attributions': ['<a href=""https://maps.google.com/maps/contrib/106541224517532987051"">bibih ibrahim</a>'], 'photo_reference': 'AUGGfZlB-FplkLmzvpmIMV9qQHpY0ZxoQtiPllqxzlGibwdUYHgxFDGP83M1cGHp8SkE1Dn6ULbTtCsl9Mz7ctROlJcx4VMKsisuXIOzek1-AFf7c0wuoHz3s8rL0_ZMdcaAkI13cNcD1zlo6i5aO5d0JyN0EOxnmrPh-bKsQAwJ8PbzFimJ', 'width': 4000}]",-6.8872735,106.308447
"882P+Q6F, Citorek Sabrang, Cibeber, Lebak Regency, Banten 42394, Indonesia",Barak ikan besar,ChIJvSGhydFlQi4RYmqYorVLcbs,5.0,"['tourist_attraction', 'point_of_interest', 'establishment']",1.0,"[{'height': 4624, 'html_attributions': ['<a href=""https://maps.google.com/maps/contrib/114754053889566057155"">Kendi Kurniawan</a>'], 'photo_reference': 'AUGGfZnxXFwf7vN4SQP59-FZ_3GC1eE05ByRMNXZJ8E9R4FEdJvGQXkE9-fLHa138Rjt8XRNs1bGlg1R0puOXdszutxpTp_E3KgHVhs75ypxxrj2mB0dElhgBDknoIqsOCtSpLXtLZGmHAcBn0Dap2Xt3OW-1FNA0OtmdMxRiDcB_tGef0I2', 'width': 3468}]",-6.6980517,106.3355501
"5CG6+QGG, Cikadu, Cibeber, Lebak Regency, Banten 42394, Indonesia",pasir sela,ChIJzVLYZ0SHQi4RL8XQ90xjCoM,4.8,"['tourist_attraction', 'point_of_interest', 'establishment']",5.0,"[{'height': 3000, 'html_attributions': ['<a href=""https://maps.google.com/maps/contrib/116945266215242227985"">A Google User</a>'], 'photo_reference': 'AUGGfZl1B_LVR0D6l_ZAyudcOCOP-sM0hUMyA5yllhf5VmxkJmtgC0NiNR-wQ-QB5MswI5HPxWgaG7b7RrvLqwCk4em22Nwd-TFiJfXd6-Sc5Ytg08kiYyeIYZg1TniEGg2GCY5KMXNPb6Xd19QudT0sCta7aUQ16xdOdE0LlCQOoXxJQ9QE', 'width': 4000}]",-6.8230588,106.4113265
"79Q8+652, Citorek Kidul, Cibeber, Lebak Regency, Banten 42394, Indonesia",MENARA PANDANG,ChIJzZenSXd7Qi4R_g0IEzw-1k8,1.0,"['tourist_attraction', 'point_of_interest', 'establishment']",1.0,,-6.7119765,106.3653797
"795F+MR5, Citorek Kidul, Cibeber, Lebak Regency, Banten 42394, Indonesia",Taneuh hideung,ChIJCxoPTwB9Qi4R5VdDgdn8TlY,0.0,"['tourist_attraction', 'point_of_interest', 'establishment']",0.0,,-6.740856,106.3745417
"598F+3PP, Wanasari, Cibeber, Lebak Regency, Banten 42394, Indonesia",Park Ps. Ceuri,ChIJQx7lMpaHQi4RjH6zNWvE8Os,5.0,"['tourist_attraction', 'point_of_interest', 'establishment']",3.0,"[{'height': 2592, 'html_attributions': ['<a href=""https://maps.google.com/maps/contrib/102970326122414956863"">A Google User</a>'], 'photo_reference': 'AUGGfZmktiN9mL4JJXTRRhoHITMs7DfoeAqW2ONXopTBIQaiiHj3pWdZADAR7waqNZCK2BI6VeSVNSKUe_hfijT2A5Bv48LZn1DrhNtKDEXq5trWgzVHcZg6FkJ_HpfS9xfNprU-bB2CwXF1SIfoE42SntPNrFfBqwyXXjXn4pnAQFzy6ePf', 'width': 4608}]",-6.8347788,106.3743154
"6CQF+8X7, Kujangsari, Cibeber, Lebak Regency, Banten 42394, Indonesia",Curug Lebakbeungang,ChIJJ5eixKZ9Qi4RibYhAZgHqWg,4.4,"['tourist_attraction', 'point_of_interest', 'establishment']",7.0,"[{'height': 3264, 'html_attributions': ['<a href=""https://maps.google.com/maps/contrib/105341071028580826448"">wadin pakis</a>'], 'photo_reference': 'AUGGfZmxjzMvQsUdJDVmvYLY7TW-yHSUN7NkdCm6vVa3_H_g0LZKXwrbSwASwxHVlhnXQQHQRUNb9kwEgqQ0eEaScvzK3ZZEz2DM1YKy8gWzrcwz7hzizuOCYdhCHQ15ujZZyrQQ8UJMjlv6BlrygtuCVtMRlTEvLQQMQzyk6eQF5MwT_bhe', 'width': 1836}]",-6.7617031,106.424932
"78G5+PW, West Citorek, Cibeber, Lebak Regency, Banten, Indonesia",Wahana Agro Pertanian Indonesia (WAPI),ChIJPcCheKFlQi4RJ_JPzeobLl8,5.0,"['tourist_attraction', 'point_of_interest', 'establishment']",1.0,"[{'height': 4320, 'html_attributions': ['<a href=""https://maps.google.com/maps/contrib/100335777967535562562"">Abdu rahman</a>'], 'photo_reference': 'AUGGfZn7fsGOACYs0KIwzN9Ru_upg0a2cMmDcebFERC4W7s82EH1cM-EiO9_-1er0Ug4SaBJmDsks8RvlBXD5_iRziZCiPHfYZ4P8iRxqUWfDNCCHxpZ7-5yxEfaDHOXNlZ0T57QSDT13a8MhPx5PDXH5LdRMyzTX7Rs6lMfKrYDb0hqD-0e', 'width': 7680}]",-6.7231875,106.3098125
"583P+57H, Warungbanten, Cibeber, Lebak Regency, Banten 42394, Indonesia",Curug Renyay,ChIJHyzP0SWJQi4R99y6j0MzKF0,5.0,"['tourist_attraction', 'point_of_interest', 'establishment']",1.0,"[{'height': 4160, 'html_attributions': ['<a href=""https://maps.google.com/maps/contrib/112856746236569733048"">Rojak sunandar</a>'], 'photo_reference': 'AUGGfZmuwlgE3Vd24dvMVxrSQr92D_KZBWAl1GT1NZ5izRCuybrf8IpRe07ozhIpPFwWDEMKIHi-fHeIOkCBQL0KUwzVPa5yvHHY3rRJQTCZ478dw5TGZq8PZZgRuz1lsarDJxST4forpv_iaNqQKfvpstFko_tPOFrThoAXJDURaLUar8mk', 'width': 3120}]",-6.847061399999999,106.3357469
"68J3+JM, Citorek Kidul, Cibeber, Lebak Regency, Banten, Indonesia",Kolam renang haji enek,ChIJh6i2ZTdjQi4RFbJAkOTEdBw,5.0,"['tourist_attraction', 'point_of_interest', 'establishment']",1.0,"[{'height': 2448, 'html_attributions': ['<a href=""https://maps.google.com/maps/contrib/106200690175704467478"">A Google User</a>'], 'photo_reference': 'AUGGfZm2fG0BzORKuxLlq2Xy286W40UNtSlxwy1mqkByQbv3YtBLyrPcG2EMxv4Su9Yqephz-D0f8j6bQr35Ww_T6KX_QoKTi1k5iPJ-d6w_KKf78w3PbkdnvgemFB325VU2i2q0_JwaxiEnfQeATiKJWmdxlzpECOQkr1rBxQw3e5rgoJnP', 'width': 3264}]",-6.7684918,106.3041746
"6887+87Q, Sukamulya, Cibeber, Lebak Regency, Banten 42394, Indonesia",Curug Kadu Punah,ChIJax76d-5iQi4RBic-Ak8YjcI,4.5,"['tourist_attraction', 'point_of_interest', 'establishment']",197.0,"[{'height': 2976, 'html_attributions': ['<a href=""https://maps.google.com/maps/contrib/116774477900318678115"">Guncex Gunawan</a>'], 'photo_reference': 'AUGGfZlqJe7tWGYUrP9gG0m8k5BAnrfcptNuOAbUuPWqhr8pvipHaK50FGfZgkSVFca5nDlIqzIxyKyIsKsnm7s02iHAol1V0bhf1VHeO3xRrAb4DrwOrUGzfL_mtPCbvSw_rNrVgXUsRu-ZfMEFuq7jMMSJWeMp4Om6V5zwAbR_9avkaik3', 'width': 3968}]",-6.7841746,106.3132459
"59JP+H5P, Tegal Lumbu, Wanasari, Kec. Cibeber, Kabupaten Lebak, Banten 42394, Indonesia",Curug pendek Leuwi lubang,ChIJPUTn67CHQi4RjmAv-Hadcho,4.7,"['tourist_attraction', 'point_of_interest', 'establishment']",3.0,"[{'height': 1440, 'html_attributions': ['<a href=""https://maps.google.com/maps/contrib/102317278661233861790"">deni sugiana</a>'], 'photo_reference': 'AUGGfZlKLlHGKgVD8zZfmsBE2VLgzkwMBkCqcIoJ1Zs4U51IPh31MED4Em5zUk29LUIgzycJ2MAKJPtEd90UftU7dLSyz73w1BoNTsnr5vwt6zVYMHd3DL7ncTDeBsercIx06mP5AfPcvNDcEmd64xQv5-zkrjbnpug7rM7InXMGMeBwfNYL', 'width': 1920}]",-6.818532299999999,106.3854563
"78WP+CXM, Jl. Raya Citorek, Citorek Tengah, Kec. Cibeber, Kabupaten Lebak, Banten 42394, Indonesia",MEGAWANGI Farm,ChIJ5wcbRyBlQi4RFR-nUPnktGs,0.0,"['tourist_attraction', 'point_of_interest', 'establishment']",0.0,"[{'height': 3000, 'html_attributions': ['<a href=""https://maps.google.com/maps/contrib/112477582239222235480"">A Google User</a>'], 'photo_reference': 'AUGGfZmBtQRl8KKARdQlkkldvnBhggqJDbc1L21gqMjI7ywEkosia1ZJ_S2wgXqKTdwlYCgrz8YzVrjJqwTAgT8hGJlwyvor_FL98ii9zB2atJytICG2oD-l1YGS5pTtoUTD12TQHwgr5kPHGliexBNdbaMfGOqqqeZdS0V2TQDabH5fNoSz', 'width': 4000}]",-6.7039067,106.3374333
"48XM+8J6, Warungbanten, Cibeber, Lebak Regency, Banten 42394, Indonesia",Curug Untuy,ChIJeUbbUIiJQi4RIvd7OKtCNBQ,4.9,"['tourist_attraction', 'point_of_interest', 'establishment']",8.0,"[{'height': 960, 'html_attributions': ['<a href=""https://maps.google.com/maps/contrib/112856746236569733048"">Rojak sunandar</a>'], 'photo_reference': 'AUGGfZmsZ-UfQjffo9hLPJNPTyBQPT2aDkLxweJEen_vQ1ZkNrBwLvgSo2t4ckRcrQbA8BL_IRVHLAhP1ZhfY6szNKjT0Uj-ZNROKpJ7QixcJ5dyPY758VoZMEXNlFqYZmIuxUtHRGciyVBY6OAQluzmyw3RXpd6Ejg8e1JjIV5vkEK_64d6', 'width': 720}]",-6.851719399999999,106.3340176
"6942+VFJ, Curug Ciantayan, Karang Ropong, Hegarmanah, Kec. Cibeber, Kabupaten Lebak, Banten 42394, Indonesia",Curug Ciantayan,ChIJq661ZB19Qi4RTOecRduFE34,5.0,"['tourist_attraction', 'point_of_interest', 'establishment']",2.0,"[{'height': 960, 'html_attributions': ['<a href=""https://maps.google.com/maps/contrib/110626624593340711658"">A Google User</a>'], 'photo_reference': 'AUGGfZnb1rI9Wy5DybzGV8Bl1E4t74GaVIxYtafqb5ac9E7qBqGPz1tlJ2xeCtm9GBXrqEnTsepzpveG9mqH-SFtvfm88BEOFEm7BQqIOxO8MTVAD4ZPgcE1dy83jQO_47RIc_hdYecpt4cBc6meMfVxsrKuLn7g_vsEnXuOFNDr9jkGsrMl', 'width': 1280}]",-6.7927881,106.3511321
"Wanasari, Cibeber, Lebak Regency, Banten 42394, Indonesia",Curug bandung,ChIJSzJVvAR9Qi4RKs796MplIUQ,1.5,"['tourist_attraction', 'point_of_interest', 'establishment']",2.0,"[{'height': 4000, 'html_attributions': ['<a href=""https://maps.google.com/maps/contrib/112638665545703370652"">A Google User</a>'], 'photo_reference': 'AUGGfZm1_kFByCLZdfyHgdSIWu3xU-R5SlKHROoj9EoSavg8O9U4G-sj3ZMCdhAGaS0btjkhLLWzPjXosgxsSFq_N1mzLR0JRN6asBrRmtewZ4R2Sdlu4aUoY-74NgRdEBtqinK8p1FoUuNhuJ7r-O7j_s56yT3Rd22TeouI3GjHs9o2Alhy', 'width': 3000}]",-6.8005401,106.3984067
"48WX+JH9, Neglasari, Cibeber, Lebak Regency, Banten 42394, Indonesia",Curug Carucub,ChIJN4Se9E2HQi4RimhXt0fxG78,3.7,"['tourist_attraction', 'point_of_interest', 'establishment']",3.0,"[{'height': 3072, 'html_attributions': ['<a href=""https://maps.google.com/maps/contrib/115957436840265788825"">A Google User</a>'], 'photo_reference': 'AUGGfZlKg83WDHQKB3D1DuEiaSbwj0HU6IZj_KzfpHx1ZwAtDvyLjL3SzgIcUxmQch_GkiFW6VjPjerUSFJW7RA1z5Mi3iGhpAFUvXEZrUDq53T9PGWP7Lls9zNwyCrYtqI5L6cG_8gX39TROfV0TykXK-kRz9iO6BT1H8HChrCxbjdCU0Um', 'width': 1456}]",-6.853472699999999,106.3489699
"Neglasari, Cibeber, Lebak Regency, Banten 42394, Indonesia",PT. Kadukalahang Agrowisata Resort,ChIJSXQwMTiHQi4R5nD7bndQxc4,4.4,"['tourist_attraction', 'point_of_interest', 'establishment']",5.0,"[{'height': 592, 'html_attributions': ['<a href=""https://maps.google.com/maps/contrib/102911236815035759001"">A Google User</a>'], 'photo_reference': 'AUGGfZmJnBSXQyGIBLhsiiX2AIGwwchQXXNUEo8_Z1Gn7NFwgzOk5dVF8NADpYJ7sQakqG5UwiMao7Wmm9jJx7oVXki0OqrAyGgHStOqXW4dRrL2psqXJkup-9QgPW39eHPorEbdDEOSikcclvAJC3js_yePEiJEn84TWDWGLREs1td6qfI', 'width': 1051}]",-6.8287713,106.3466149
"79GM+9CF, Citorek Sabrang, Cibeber, Lebak Regency, Banten 42394, Indonesia",GUNUNG JAYA SAMPURNA,ChIJIzJDX7l7Qi4RZlu9CJpCJtE,5.0,"['tourist_attraction', 'point_of_interest', 'establishment']",2.0,"[{'height': 3000, 'html_attributions': ['<a href=""https://maps.google.com/maps/contrib/113082248468589786267"">A Google User</a>'], 'photo_reference': 'AUGGfZkkyPnJcjwSdim4gymmsTo95uR9s0J-8lRfkpR1s6ArCMFItBkoI4Scy9ywPJl0dZT6INNBbb34UUZLeb1rWb2YxV6uOVTaxdcnO5I05Tl7ACRnBoPGKIR1wYlV80JGBuz6ywik9zT4_6nEFA4otObDbZhFLSYDkysWDIE__6z3DQev', 'width': 4000}]",-6.7240712,106.3835544
"68M2+73J, Jl. Pintas, Citorek Kidul, Kec. Cibeber, Kabupaten Lebak, Banten 42394, Indonesia",Goa Karangkandang,ChIJj188JYVjQi4R39HtQOYvUIs,5.0,"['tourist_attraction', 'point_of_interest', 'establishment']",1.0,"[{'height': 1280, 'html_attributions': ['<a href=""https://maps.google.com/maps/contrib/106200690175704467478"">A Google User</a>'], 'photo_reference': 'AUGGfZkOL_oonJdPUyUpNzI2gdzyjzHA72c5XIrM7dx-Syb3JPRW0iK8-2m_88ZJjm9LM3zJ-WSRnHOQ_o2GPKbL-9xSAh10aho3Zq7C8pVhsgz4JbAjP3JvW1fKvYtjf5KIHiBJW4EheT3o0G7y6vmCBOy0tvh8nNS6zzaYNb7RzGipUQWb', 'width': 960}]",-6.766794,106.300134
"6FRQ+586, Sinargalih, Cibeber, Lebak Regency, Banten 42394, Indonesia",Objek Wisata Situ Hiang,ChIJZy9X0AF_Qi4RXGBSJZ83XQc,3.8,"['tourist_attraction', 'point_of_interest', 'establishment']",38.0,"[{'height': 3000, 'html_attributions': ['<a href=""https://maps.google.com/maps/contrib/115606164222694017504"">Raka Chaesaria</a>'], 'photo_reference': 'AUGGfZl8npcwkBnzR_PKG0_v2lAYEexxODujxyIchBAUVU-70MP4EOsvjkqyZfnChBgcT-sowZLMmmGTvkbE75IY2kKc8sdPBWCK7hi6VfogLimVptmrzHAjgew8zvhhjOUd5x67Z2cOubtNjepkoqAIhY9BlaB4Xw-pWZR8j0jmrwJop0aD', 'width': 4000}]",-6.7595839,106.4882798
"6C9Q+9QH, Joglo, Situmulya, Kec. Cibeber, Kabupaten Lebak, Banten 42394, Indonesia",Ciater,ChIJE29AiiZ9Qi4RlcvL-JMTERA,4.0,"['tourist_attraction', 'point_of_interest', 'establishment']",3.0,"[{'height': 960, 'html_attributions': ['<a href=""https://maps.google.com/maps/contrib/106604918640816147196"">A Google User</a>'], 'photo_reference': 'AUGGfZklB9hpFwKlqmPhj0RvfYQci2qwEWmK1iT-cLCUuG8o9-1pAe-qXN_Mrr9lzM7SLBAebzY1WfHBB_jbDXrHkvZs_MUtdB59uV3qyq_e7J2FR5K_WIBYV6V67LDc977hvtHDoyVK7kAD-rhDsLsiwTT4eNip4IXxCG4nlXC-Oz0xCfQE', 'width': 1280}]",-6.7815727,106.4394937
"888J+XW4, Central Citorek, Cibeber, Lebak Regency, Banten 42394, Indonesia","Gn Kendeng, Kasepuhan Citorek (GK)",ChIJxU8foxxlQi4RB93XAJSZdbU,4.8,"['tourist_attraction', 'point_of_interest', 'establishment']",6.0,"[{'height': 2268, 'html_attributions': ['<a href=""https://maps.google.com/maps/contrib/108469812888475628052"">Achmad Arifudin</a>'], 'photo_reference': 'AUGGfZlVz-AtA3MxPlNp3qc7JM81ES3tYJ4dDRXba2Djxf_HPXsjM8-074kmQp3u9xiLAI7xRGoDYlMsi01Z9BXLMTuSFSBrffAcZgZxVjtWIKghYHqKYb0teABL23g7ZoZe3rXgJNkz7tg1Ad-fYmZa7vl0-zSrXz0KAaEXPBZ_jhR6uX8M', 'width': 4032}]",-6.6826118,106.3323428
"686Q+FC6, Unnamed Road, Cihambali, Kec. Cibeber, Kabupaten Lebak, Banten 42394, Indonesia",Toni Faqot,ChIJl_RXmg5jQi4R9CoQogyhLYw,4.0,"['tourist_attraction', 'point_of_interest', 'establishment']",1.0,,-6.7888462,106.3384843
"88CX+6VC, Cipanas - Wr. Banten, Ciladaeun, Kec. Cibeber, Kabupaten Lebak, Banten, Indonesia",rest area gunung kendeng,ChIJ8dxDMwB7Qi4RSQBcCxPa2qc,0.0,"['tourist_attraction', 'point_of_interest', 'establishment']",0.0,"[{'height': 4032, 'html_attributions': ['<a href=""https://maps.google.com/maps/contrib/106200690175704467478"">A Google User</a>'], 'photo_reference': 'AUGGfZkXGzGsMqZi-HEmHAtXzcZ77BUzKIJO6XroSProQR48F-BJLOovtUN2ZGZmwnnw6SWv9_0bLqGPZS4QgU54kIuzL9PzL5OCeNUjV2c7xHCdXsUS9N6unQ0TOY24TkMxB1qyfBMG68rUR1-xmjEwhUW70aGno3ZsQsUxMViyCdyks9yc', 'width': 3024}]",-6.679443300000001,106.349744
"78PM+CJ, Central Citorek, Cibeber, Lebak Regency, Banten, Indonesia",Rest Area Desa Wsata Citorek Tengah,ChIJGfzGDq1lQi4RbheAWwaLnAI,4.7,"['tourist_attraction', 'point_of_interest', 'establishment']",3.0,"[{'height': 4160, 'html_attributions': ['<a href=""https://maps.google.com/maps/contrib/101369222498342626200"">A Google User</a>'], 'photo_reference': 'AUGGfZn0AtFnNddWM5dNFhKc2OQcYWA8tfWophdIGKvxlcVlJ0gmfAseU7RlzEneBssTNLpydR337X3mVBG41HcnXreUIxneujtdJmSXcy2O_p9ItCnngRcG9mpXhv-OKs7G2lfmVnJfR_qKMMVtGixVQFOpjbtN-2JzswxtZ_DviasqAy6L', 'width': 2340}]",-6.7139023,106.3340625
"5CQ6+5C5, Kujangjaya, Cibeber, Lebak Regency, Banten 42394, Indonesia",Kasepuhan Cisungsang,ChIJAQAAAGSHQi4R5sOuhYxZmRI,4.7,"['tourist_attraction', 'point_of_interest', 'establishment']",51.0,"[{'height': 5344, 'html_attributions': ['<a href=""https://maps.google.com/maps/contrib/108770900455055736350"">Nyai Nurjanah</a>'], 'photo_reference': 'AUGGfZkqa0lUBZ6fN7UL_X6JV6Om4J_eNwgnmeAYQG6QRAPu5DV2AIomhSUFGC6EhX1mnZoLltEmfmonu4reZDsVnQ3kbr9eZBQ6hPADUOQi_uorWF8inCHnFtYkhQrxgq8sHlkVtqWncKE3OSkeKOT4LJ3nSToR1nYI0IiZvtyR5RagDfOI', 'width': 3008}]",-6.8121089,106.411102
"6887+P3, Sukamulya, Cibeber, Lebak Regency, Banten 42394, Indonesia",View sukamulya,ChIJ75BaKn1jQi4RNpD_TqpfzMY,4.0,"['tourist_attraction', 'point_of_interest', 'establishment']",1.0,"[{'height': 1280, 'html_attributions': ['<a href=""https://maps.google.com/maps/contrib/110867592792981845540"">A Google User</a>'], 'photo_reference': 'AUGGfZlMn37VqukMrjuyti1vsb0bJeFTn-1utBmoJK-31tuImHJgHPFz0IM0OhQ12DFGCxdXvr2aNlgB-lP7D6AgF8lMUG-jewnzC_b9v1qopdi8v0cAnABj7tRWSPwU6tmtWaF2XhJeoPJvX7j0ECtk0GH5KmJ3FM-u_8FrDsXAr6lsmkJ1', 'width': 720}]",-6.7831572,106.3127134
"Ciusul No.desa, Citorek Kidul, Kec. Cibeber, Kabupaten Lebak, Banten 42394, Indonesia",Curug Cisabagi Citorek Kidul,ChIJOdW78SV9Qi4Rbt7lD2pHBEM,3.8,"['tourist_attraction', 'point_of_interest', 'establishment']",4.0,"[{'height': 2472, 'html_attributions': ['<a href=""https://maps.google.com/maps/contrib/101369222498342626200"">A Google User</a>'], 'photo_reference': 'AUGGfZlKxKM06Hp34O6-qRmUCEIFSyVaDOXi9jWvPcQx9UyXjWEW2hHaQ2i95DPZYGGoDIdVlxgj8zDdx48sLEq3on1p3dM_4se89tgnTBqwmHa8ZHhoZsM3LnxPNXC4VGP7Vg-ZUnyMXG0uAz0J_4Q4uk5MKhSi3GVBnHWpMeJsVATQkHRl', 'width': 1818}]",-6.737421899999999,106.3644556
"79W2+9MG, Citorek Sabrang, Cibeber, Lebak Regency, Banten 42394, Indonesia",MENARA PANDANG,ChIJW8bLnPB7Qi4R7Q8X8gOaPNw,3.0,"['tourist_attraction', 'point_of_interest', 'establishment']",2.0,,-6.704062200000001,106.3517004
"586P+625, Warungbanten, Cibeber, Lebak Regency, Banten, Indonesia",Sunset Poin Pasir Laja,ChIJxaOSe7yJQi4Rv9hc3UbFWzU,5.0,"['tourist_attraction', 'point_of_interest', 'establishment']",1.0,"[{'height': 12000, 'html_attributions': ['<a href=""https://maps.google.com/maps/contrib/112856746236569733048"">Rojak sunandar</a>'], 'photo_reference': 'AUGGfZkkpbE6F8oQE41U22WfPV5XXx-Cjo2oiswsz2Ze_EhpXT34HfueiSa5tbk0KBY-a0RYeKKqsYZsgMwDo9H0-wkDZF14g9p_Nab8H5B8wpfU3LWP16MdSRihFwaYbR4uiCsEselGKl2yd_W7VGm3pR6Tb-KsKzj4owH5UmdbJvIWpgZv', 'width': 9000}]",-6.8394809,106.3351223
"89MQ+6VW, Kp.Cikancra, Sukamaju, Kec. Sobang, Kabupaten Lebak, Banten 42318, Indonesia",Curug Cibangkit,ChIJpaxKOPR6Qi4RTxYUE3XUiK0,4.6,"['tourist_attraction', 'point_of_interest', 'establishment']",26.0,"[{'height': 4208, 'html_attributions': ['<a href=""https://maps.google.com/maps/contrib/116542685822678552180"">siroh kishimoto</a>'], 'photo_reference': 'AUGGfZmQcsunQCe_8ZLdwhN6XVv2GMqTnbcwQncdGZIwPkdn_Jpjtu0uEHJPt_AFFpYS5rGZvyhgfB0pmpb1TeMeLKcN0vIAe3HdCS9fuSfZOYNXraWhhwMP6FcHT-wIcCMMJJ-9XS60UlShokyF_P4tJhkjEZTqfyxcTHJMBBpCE0E4S4sF', 'width': 3120}]",-6.666896299999999,106.3897042
"595V+J6V, Wanasari, Cibeber, Lebak Regency, Banten 42394, Indonesia",PCP Cihaneut,ChIJUXQ3uwyHQi4R_ihsYCfthd0,4.8,"['tourist_attraction', 'point_of_interest', 'establishment']",5.0,"[{'height': 2340, 'html_attributions': ['<a href=""https://maps.google.com/maps/contrib/117265838630322824114"">A Google User</a>'], 'photo_reference': 'AUGGfZlGstsVU6iqXWMUARr7gaVlw5S8heFo9TUMsG6F_QWOIkClBYsoAD0UF-IRfWS9M-ixUqsSmREiXYs8wxygDAVWKiO8lRVRu9QVv1OwC-11zpgRqio3ZgR8q6begbMqBEF9uR4q6bfirJCbIVUUxgvC90tUfUtiFuWJuHMS_w5Xe2y3', 'width': 4160}]",-6.8408877,106.3930443
"599J+3X5, Raya Bayah Cikotok, Wanasari, Kec. Cibeber, Kabupaten Lebak, Banten 42394, Indonesia",Puncak cihaneut permai(Pcp),ChIJi-rjP2aHQi4RjUiUgnQnbE4,5.0,"['tourist_attraction', 'point_of_interest', 'establishment']",1.0,,-6.832369,106.3824837
"6CRV+P6X, Situmulya, Cibeber, Lebak Regency, Banten 42394, Indonesia",Curug Ciemas,ChIJbyHAc4F-Qi4RCJs9fiLmLCU,4.4,"['tourist_attraction', 'point_of_interest', 'establishment']",10.0,"[{'height': 4160, 'html_attributions': ['<a href=""https://maps.google.com/maps/contrib/115168596271024098160"">A Google User</a>'], 'photo_reference': 'AUGGfZlaNmVLyG6mNnThn8xc9rL8tJ1o7BYb6iL-31jaY5rOyiOXX5RfT5y-VXzan8UFE6vWKUIqEcjBZ823hXwXZsgYP8xV6LqbBQioTMbld5IkmWyGUTJZv2r0AzvtVpISEcfZt8l0szw4Mx7fpe4SdmnJWixjacCR-XfEhpQiXY0NYOBY', 'width': 3120}]",-6.7581476,106.443105
"58FW+239, Pasir Suung, Neglasari, Kec. Cibeber, Kabupaten Lebak, Banten 42394, Indonesia",Spot Sunset Pasir Suung *Favorit Demar,ChIJXSYRB0KJQi4RhUu9FLdEGjg,0.0,"['tourist_attraction', 'point_of_interest', 'establishment']",0.0,"[{'height': 756, 'html_attributions': ['<a href=""https://maps.google.com/maps/contrib/117440887899849007382"">A Google User</a>'], 'photo_reference': 'AUGGfZmCEOGKNBTEaxoC4Kp44oh--pI7wG70gUSdXzjF5TZMxNYpIYU-QqHaJjuEFI6TebqtA4z--7hbAAAhlAf1Qzrop6PSHSZoDP_yDDkA6HleiOc833wfK68bBzM3F6c5jbcncPeGGLly6nn4r6CFaPHtgHwca0_8A746DK14yxCYne9_', 'width': 1344}]",-6.8274601,106.3452248
"986G+PVV, Sukaresmi, Sobang, Lebak Regency, Banten 42315, Indonesia",Curug Cipicung,ChIJi__DlPNvQi4RZIzYt6exVsk,4.3,"['tourist_attraction', 'point_of_interest', 'establishment']",34.0,"[{'height': 3120, 'html_attributions': ['<a href=""https://maps.google.com/maps/contrib/103834970011443760459"">Planks Sunandar</a>'], 'photo_reference': 'AUGGfZnuFXxdTRptUYYZBdUXSRTeB4xQlhEsxmiPtu3y_kyu0GnaDfGtvQ_e6A9rN7f9XHQ15zRa5hl4O368x2pQZgAKLggEjxFQ5fKzG3l6U9bd_Lscs037h-oIo686uxNrQFHBeED6zGbhamWOHjOdJ4pZM2PP4AnC4OR4wYqvPM6ZkF_r', 'width': 4160}]",-6.6381305,106.3271793
"59HQ+X4X, Wanasari, Cibeber, Lebak Regency, Banten 42394, Indonesia",BUKIT JI'EN,ChIJfdsBnZyHQi4R_2SCqcfkkOg,4.0,"['park', 'tourist_attraction', 'point_of_interest', 'establishment']",113.0,"[{'height': 2604, 'html_attributions': ['<a href=""https://maps.google.com/maps/contrib/108295163300508874125"">Dedih Sutardi</a>'], 'photo_reference': 'AUGGfZlca-WWT203Kb_X1Nn8-ZgRZt1xY7A4S9mQNsY08bHvi0v3kO8idFxRSdrq8vZFmKTjZW0S_RHPjM1vBb7JjKdc2FJk-xidGuilfgDdZWeHZkHw7OZwhuGqS_3-zZU0WpDc8N_6TEl3gD5NzgcSUeIzQ5WD3DnEAEoFVrwKAceWw4FJ', 'width': 4624}]",-6.820001299999999,106.3878573
"79F4+PRH, Ciusul, Citorek Kidul, Kec. Cibeber, Kabupaten Lebak, Banten 42394, Indonesia",Curug Cisuren,ChIJA4NOO397Qi4RHw8Suox4FFE,4.3,"['tourist_attraction', 'point_of_interest', 'establishment']",16.0,"[{'height': 1080, 'html_attributions': ['<a href=""https://maps.google.com/maps/contrib/100736003641684475664"">Kiki Luki Pebriansyah</a>'], 'photo_reference': 'AUGGfZn5_SUQ-2YjKP2yQtufOQcRIgAG9iLI_mxQ-kcW13XfQamq2TKw_UXwQLQhj_OhJqHcCHCIMV2-fa9RwmrkYDLa3aDjtxVtjdHGTFvdeflVV9Bbi2AKbeDEaIzHMoXg2AuQN-VG3CgI8XqPkQCJfS9enODEYWBqMnlAOBOtf0j6QDg7', 'width': 1616}]",-6.7256752,106.3571117
"kp, Ciusul No.desa, Citorek Kidul, Kec. Cibeber, Kabupaten Lebak, Banten 42394, Indonesia",Curug Cilimus,ChIJXfvIzT9jQi4RrBZT3QRPTlk,5.0,"['tourist_attraction', 'point_of_interest', 'establishment']",3.0,"[{'height': 1080, 'html_attributions': ['<a href=""https://maps.google.com/maps/contrib/101369222498342626200"">A Google User</a>'], 'photo_reference': 'AUGGfZmn2D3J0mFWHdw01VUBIHXfiQ5jNdHM0sSpox3KbysBGX_x-udBB4xboBJX1w1sdziHSQ4hrOxGKI5cbjgyOsRP7I7ZeVX6eXHSW3Si_SArdX-oKy169U-B6OYEB9bgXgPtEAtDwdf667YUy8GYQsziOpA8o8f1JzQJS-wNAXJwiRTh', 'width': 1080}]",-6.7424326,106.339046
"Citorek Kidul, Cibeber, Lebak Regency, Banten 42394, Indonesia",Negeri Di Atas Awan Citorek,ChIJ3x9xnaBjQi4RXUK7up-6k-A,4.6,"['tourist_attraction', 'point_of_interest', 'establishment']",1133.0,"[{'height': 3000, 'html_attributions': ['<a href=""https://maps.google.com/maps/contrib/103167053644670186168"">Billy Tantri</a>'], 'photo_reference': 'AUGGfZlNTsaheXcPgZ7ALe3NU1TEKi5j_33ujTHegGLxh7dWMhCsuuuKMIQ0YYzYtln18Xma8QbWsCA3PZlCfF-5BTM8Y4K1KLPSPzYgT6X4-BgyflsanJ5iMyCXN8u1xvaPG5saof0aowQevotD1trBVz5EhdC2QMcpqlU7THdx74g85ErF', 'width': 4000}]",-6.7420294,106.3320079
"39QH+MJ2, Cikamunding, Cilograng, Lebak Regency, Banten 42393, Indonesia",Wisata Pangojayan Budak Letik,ChIJZUrxXQCFQi4RmppTfsRuvj8,0.0,"['tourist_attraction', 'point_of_interest', 'establishment']",0.0,,-6.9108741,106.3790247
"39Q9+QM9, Cijengkol, Cilograng, Lebak Regency, Banten 42393, Indonesia",Desa BSI Kelompok Tani Ternak Cikaracak,ChIJsyjM7XqFQi4R1xodbGrOwY4,4.8,"['tourist_attraction', 'point_of_interest', 'establishment']",5.0,"[{'height': 960, 'html_attributions': ['<a href=""https://maps.google.com/maps/contrib/100080900022649325777"">Rafid Rahmatullah</a>'], 'photo_reference': 'AUGGfZm4ZpoflBdiLnWPV7wPK3HVvMV3Yu6lN2Qwb1h_Z-PaGFbF3R2QdQrJew6Z8X11bMtjn5Fv_ZGPrR9kWjOy8HbCo2KBX5Z3lEOZRKo82ADL3WBrSZUjywCXvcHCSRl6LxuhfdHamedeK_u1esQiJWzP-g0Cq2NSHZjSv7n7Nj-H-FI-', 'width': 1280}]",-6.9105773,106.3692232
"556R+J6G, Srimanik, Cimandiri, Kec. Panggarangan, Kabupaten Lebak, Banten 42392, Indonesia",Spot SANGAJI HILL,ChIJ-_IxV06LQi4RXiN9_Cb7FBo,5.0,"['tourist_attraction', 'point_of_interest', 'establishment']",1.0,"[{'height': 2466, 'html_attributions': ['<a href=""https://maps.google.com/maps/contrib/108280125981784602084"">Imam Muhajjir</a>'], 'photo_reference': 'AUGGfZl5gUAV-YTCNUD7i-HTzrCyKuhXEVYFnsA84AG7xWAB-HMf_5MxrhVanDV45pA8MxBuTkeTG9BCtGGoKlsJtc2ksCQfQompXoDEQiBSNG4yN2LbfpxiIiIRQumEzDDJuG-Uz9TsrbmDAFfQtvkngo8ihL6Ik0hfGkZt_y_3U49RL5QS', 'width': 4000}]",-6.8384493,106.1905804
"36WF+8J3, Sukasari, Panggarangan, Kec. Panggarangan, Kabupaten Lebak, Banten 42392, Indonesia",Pepaya Cimangala DNA,ChIJNZ_kIT2NQi4RrNvdCma0bXw,5.0,"['tourist_attraction', 'point_of_interest', 'establishment']",2.0,"[{'height': 1080, 'html_attributions': ['<a href=""https://maps.google.com/maps/contrib/103927894205993899895"">Nio Wahyudin</a>'], 'photo_reference': 'AUGGfZkay6fmeUyTFFBYRz40-ooHsQNa0FtDU7bJjBW7yqfhHUlxPhHeJl-5FdFDVl85YeznrUqbTywPAIHZYlHcgUO9FF8hkmcrbNlCM7TiiQcbpxBBY5NDnJK08shj52Y31pA6Zwz_wG4Qfr-1WoYRNtzGxcrhLhSRwdOTq4xYTJPiluog', 'width': 1920}]",-6.904226,106.224046
"CC36+CJ4, Cinyiru, Banjarsari, Kec. Lebakgedong, Kabupaten Lebak, Banten 42372, Indonesia",Bukit Selfie Cibolang,ChIJTwacQZ1xQi4Rmr7IiN43NYQ,4.8,"['tourist_attraction', 'point_of_interest', 'establishment']",28.0,"[{'height': 2448, 'html_attributions': ['<a href=""https://maps.google.com/maps/contrib/104339525428147863278"">Fajar</a>'], 'photo_reference': 'AUGGfZkZza3ND2yMEmRmqsOGUT1AFSK-wXqsxkSIlqbIOnHI3E9NjnhjDlz_2ygHZhIZRr8cnK9kksP5Wv1RAaaSMqYg8rgnCOnMcZaE4dT3ODMhJfNfLNpp7Cfm9FDnUIcQAYGqfoMeodABnWoH_n9ytgKxmqZQ9rxcCB83zhVHvAnqIz6v', 'width': 3264}]",-6.5964995,106.4115847
"654G+3V2, Lebak Tundun, Mugijaya, Kec. Cigemblong, Kabupaten Lebak, Banten 42395, Indonesia",Curug Butak,ChIJw13FfWxgQi4RUJKPSNn8r5o,4.0,"['tourist_attraction', 'point_of_interest', 'establishment']",22.0,"[{'height': 4160, 'html_attributions': ['<a href=""https://maps.google.com/maps/contrib/114403937955547238784"">Tomi Iskandar</a>'], 'photo_reference': 'AUGGfZmNidNWT828w4Z7LGcZ2Wg_KxbDNHEtsta_mV9sKO9xpE3zlf2pfqCDH1tizoSlMBKtbYLGaUafEtkHs3VbgnrmFlENcH36srkB08vSTeyVUzYfyiVmIzeypby7vlXwUsHAQHoqfu7FmWPJZauliRoTdaXXIL7Fvc11Z6CUZtXfBDBB', 'width': 3120}]",-6.7948505,106.1771405
"655C+247, Cikadongdong, Cigemblong, Lebak Regency, Banten, Indonesia",Wisata Guha Ngalong,ChIJm0ergi9hQi4Rnw-ckt5w2zE,0.0,"['tourist_attraction', 'point_of_interest', 'establishment']",0.0,,-6.792457799999999,106.1703089
"75J3+535, Cibungur, Cigemblong, Lebak Regency, Banten 42395, Indonesia",Ci bungur,ChIJY2zlaABdQi4R9FcBkHJg-kc,0.0,"['tourist_attraction', 'point_of_interest', 'establishment']",0.0,,-6.7196026,106.1527364
"6574+QM9, Cikadongdong, Cigemblong, Lebak Regency, Banten, Indonesia",Lebak Tundun,ChIJ17phuRFfQi4RgDlJzZaFJUw,0.0,"['tourist_attraction', 'point_of_interest', 'establishment']",0.0,"[{'height': 3264, 'html_attributions': ['<a href=""https://maps.google.com/maps/contrib/101066565022337385294"">Ade Koswara</a>'], 'photo_reference': 'AUGGfZmPW7esFTyoasIMdhC5RYdiR5D3CTa383nBYAzppnfNgpg_Mg44b1UTHm9VQ5pIt5w3JSbauP1puU8KRWmjFHfasFkSHUdSB9q7biXOqvjvfBor8HW-BCurllrO7ff5sLwvk19Rn-l3iqynpQtomvXz4OG-FNeT1Aj3dDNyjmbbO74K', 'width': 2448}]",-6.7855949,106.1567312
"648Q+XHH, Cikadongdong, Cigemblong, Lebak Regency, Banten 42395, Indonesia",Curug hawu,ChIJX6JLs7lfQi4Rct_Pn2k5NPw,5.0,"['tourist_attraction', 'point_of_interest', 'establishment']",2.0,"[{'height': 806, 'html_attributions': ['<a href=""https://maps.google.com/maps/contrib/117563246963288957244"">A Google User</a>'], 'photo_reference': 'AUGGfZkNyFEEPWJ2lVTW_7pnNi_mUD-5tTksVM_yha1XPidWSc6yP_y0lFoOraiK4gpkS1uGxzzfjSz99-BkLKlV6-YShAzBbF-wtjByWRLH-VjR-7TF63syfq411ZD9UB_Xq0D0dnl6By_RyKBhywQskz0EXV26c-A8R20fm7HijJm_oUw', 'width': 1075}]",-6.7825599,106.1389808
"Jalan Raya Cijaku-Cigemblong km. 07, Peucangpari, Kec. Cigemblong, Kabupaten Lebak, Banten 42395, Indonesia",Rice fields,ChIJdT2KvbhdQi4RnsjErBd9AtM,0.0,"['tourist_attraction', 'point_of_interest', 'establishment']",0.0,"[{'height': 8000, 'html_attributions': ['<a href=""https://maps.google.com/maps/contrib/117212738998519428214"">YIMMIONGIANG 888</a>'], 'photo_reference': 'AUGGfZn0z-r4Q5V1w3lh575jjRezcqj4NFNJ9a_dZOkNDkFflIF55xEQxx_cRvFKQt7YQ_ZSI1OqFv11_s9v6h5P_m68A3kvp0sb22CsGC4mbYPzAuq_r2oQfEipOA6A_i1nx6OpxV66jZC-oQsagU9vKy2_qR4noqfXo5uc4mVb4Z1XO9Fr', 'width': 6000}]",-6.7137208,106.1138511
"756G+W8V, Kp. Cingagoler Des, Cigemblong, Kec. Cigemblong, Kabupaten Lebak, Banten 42395, Indonesia",Area Perkebuna Kopi Cigemblong,ChIJD3qAdYJhQi4RymFrr0u-I4s,5.0,"['park', 'point_of_interest', 'establishment']",1.0,,-6.7376251,106.1757965
"74GX+HCP, Cibungur, Cigemblong, Lebak Regency, Banten 42395, Indonesia",Gunung Parigi zamrutkhtulistiwa,ChIJB98NUuxdQi4RVk0YzjrV-u4,0.0,"['tourist_attraction', 'point_of_interest', 'establishment']",0.0,,-6.7235307,106.1485828
"45P4+3HX, Kp Kadu Gede, Pasar, Mekarsari, Kec. Cihara, Kabupaten Lebak, Banten 42392, Indonesia",WISATA ALAM SAWIT WARNA,ChIJFy-AoBD1Qi4RoWY6BLPFHo4,5.0,"['tourist_attraction', 'point_of_interest', 'establishment']",1.0,"[{'height': 4160, 'html_attributions': ['<a href=""https://maps.google.com/maps/contrib/103193241861248230524"">A Google User</a>'], 'photo_reference': 'AUGGfZnPtAECTizB7r6rNIHpjht3CYbEHn3uEAb0K0ktdo6qETayPYI0MtOFPicmpT8c5jTXhvP7pGAar3o0aUfzVQAJVJqylXR2ufwLQKqCtBML8swo1tOjfH9zOFnyIpZ_pVGPo9RY2n3RE5W3dItDOTXIwUpp_gc0ZVArg8KKKZgv7gkL', 'width': 3120}]",-6.864773899999999,106.1564724
"4479+J2M, National Rte 3, Karangkamulyan, Cihara, Lebak Regency, Banten 42392, Indonesia",Karang Mencal,ChIJQXHp6ZD1Qi4RLHcf3xJ-EUQ,5.0,"['tourist_attraction', 'point_of_interest', 'establishment']",1.0,"[{'height': 3120, 'html_attributions': ['<a href=""https://maps.google.com/maps/contrib/100966226375085561477"">didi rosyadi rosyadi</a>'], 'photo_reference': 'AUGGfZkjbNVUnPBCCfrvFJB29cwPsnOlRBH0YNFpYUL47OgEdn29gi-C-SXWY-NzbXmOSm6YEgAsKYRSEQbJlj8eWz6F5Hj6ehb9Tso0Bl6eBYTPvbJ-z2w53cJ1syib8OXK61iAEv5P-ZRoF9grlAP_-Xm3fm9GXgQ2HcIVNb4hGbRkZoYy', 'width': 4160}]",-6.8861944,106.1174587
"6426+77V, Kp. Cigaber, RT./RW/RW.01/01, Lb. Peundeuy, Kec. Cihara, Kabupaten Lebak, Banten 42392, Indonesia",Granodiorit Cihara,ChIJS7bbYwBfQi4RFHUrs52BBvM,5.0,"['tourist_attraction', 'point_of_interest', 'establishment']",2.0,"[{'height': 1836, 'html_attributions': ['<a href=""https://maps.google.com/maps/contrib/115650518584740867238"">mursyid arifin</a>'], 'photo_reference': 'AUGGfZm7LDu8A2A7wz6t9OVuZxaUfer-8f4v5Dg15B3KDW97W9m2w2gYdfiRMWvD4J_MiB_rdOWm6IjSU1w1krZdcL-LVb5PYGVSWbt98GLaskxE-Ko6SbOkoFb3l8Kpg5LhGinOPR7ZMuKGKHSKbZq1YyzXqX4ZqzrNywwJsCUEogVd2HMn', 'width': 4080}]",-6.7992577,106.1106767
"533C+47H, Ciparahu, Cihara, Lebak Regency, Banten, Indonesia",Pantai Pasir Putih Cihara,ChIJ1-2RMdr1Qi4RKPRtGfKsMYA,4.4,"['tourist_attraction', 'point_of_interest', 'establishment']",871.0,"[{'height': 4160, 'html_attributions': ['<a href=""https://maps.google.com/maps/contrib/114870135673408426877"">Sri Defi</a>'], 'photo_reference': 'AUGGfZkPdP4O6-glEeGcejxSjR5YzYSbqZ28n1o8ctPzAPLln6czhRQCOZlWEIm-hDEY7yN0Lhjuc6xBJH-Zx5IL5I8OHEpWVCn-uUsBGSUjsFLATNCt3CFjxe0DukKEvWSFa7r6jenXSO4wqs4qghR3xkfMn-4SRTwUk-VAbA8HCtd0tS07', 'width': 3120}]",-6.847199199999999,106.0707493
"43WH+R2J, Ciparahu, Cihara, Lebak Regency, Banten 42392, Indonesia",BukaSiang,ChIJh7UBSjf1Qi4RLg7p90-VHyg,4.5,"['tourist_attraction', 'point_of_interest', 'establishment']",8.0,"[{'height': 4032, 'html_attributions': ['<a href=""https://maps.google.com/maps/contrib/112497303901969003731"">A Google User</a>'], 'photo_reference': 'AUGGfZmqH_47gb2d3hwExzpYYKryd70jo5IIkZ8jm4k3W6HlpfnAsSahyd5cIUPRAMlTuELHBJUcrukOKjaYNYnp7xCouq1EnCBi_rxS37wQK9JlscQ1MNBYcg-2iipyqL2x1PbLT90dWd2LLYwJCqmvyjuiKPZ1PQoizWbl_rjuIx-jPllb', 'width': 2268}]",-6.852924100000001,106.0775011
"44C4+52W, National Rte 3, Karangkamulyan, Cihara, Lebak Regency, Banten 42392, Indonesia",Tugu Selamat datang Geopark,ChIJhwHbOQD1Qi4RS7ZaYcPzD8U,5.0,"['tourist_attraction', 'point_of_interest', 'establishment']",1.0,"[{'height': 4608, 'html_attributions': ['<a href=""https://maps.google.com/maps/contrib/111365442732585774664"">A Google User</a>'], 'photo_reference': 'AUGGfZnraxYdiEnkWWD6X9rXPZDyLcT1hM4O1i1LfKDrOAoU4RpF8O0nVJ60fWVLLT3a97QtdkPF-Laqg5AWWUsjIOlXgHHsBtk197vD1HqukaCHR37Hr4kbB8zLtGTDAjf2rgCB7McEE2zSl_0TouJoSD_M3wiDQj-YJRGIJBFOjw9jyD20', 'width': 3456}]",-6.879520599999999,106.1050816
"Cihara, Lebak Regency, Banten 42392, Indonesia",PELELANGAN IKAN,ChIJeetdtkH1Qi4R7671hcTsAuk,0.0,"['tourist_attraction', 'point_of_interest', 'establishment']",0.0,,-6.860857900000001,106.0864067
"446G+C3R, Simpang - Bayah, Karangkamulyan, Kec. Cihara, Kabupaten Lebak, Banten, Indonesia",BEBER LEUWI KARANG,ChIJ86IjdAD1Qi4RP5jmj6QXaiM,5.0,"['tourist_attraction', 'point_of_interest', 'establishment']",1.0,"[{'height': 1080, 'html_attributions': ['<a href=""https://maps.google.com/maps/contrib/102317831771291216640"">Pupung Farizal</a>'], 'photo_reference': 'AUGGfZl5Xf9Tqnm4zKxNAD8hZGq9g4NCjb0S32jN6-w24OGib6Q9rMe0lStNYjU7gKlCOlYrOxZLCpmKwqrg7yCjwF-g0VVwqIwzNv-8-hIg32qiei4c8yh0sMjT6i1c1x1fE0uJiT4w82nk6UDmix07WBKlcdTet2b9rQc0KYt-O06tTcIU', 'width': 1920}]",-6.888875899999999,106.1251412
"635V+897, Citepuseun, Cihara, Lebak Regency, Banten 42392, Indonesia",Citepusen,ChIJo_elq99fQi4RSsg7YZTWmHA,1.5,"['tourist_attraction', 'point_of_interest', 'establishment']",2.0,"[{'height': 4080, 'html_attributions': ['<a href=""https://maps.google.com/maps/contrib/109921047811179904146"">A Google User</a>'], 'photo_reference': 'AUGGfZkYGhaiLAj7m9qOMXmO7-g-BcF6S3K7ACPpqabYc2jQcNV-CKK45dO1Y28IUFfQ-Kxtl1k4019SYxDmRpv8Mr_03PdNzGiXoTS4mvbJg_MGLIUCfuQmpJttOsu8H5DSUhVmE8X_VxGwBvY_6UHuRVmV2kGOVjCIjphxrSlYoDs1UtbK', 'width': 3072}]",-6.791708499999999,106.0934117
"532C+VPH, Ciparahu, Cihara, Lebak Regency, Banten 42392, Indonesia",Saung pojok,ChIJG_R4TgD1Qi4RmYTu2ybFw_o,5.0,"['tourist_attraction', 'point_of_interest', 'establishment']",1.0,"[{'height': 2352, 'html_attributions': ['<a href=""https://maps.google.com/maps/contrib/107498243664523491493"">hendro siswanto</a>'], 'photo_reference': 'AUGGfZmVZM2NXI3EqTJ-VBhxX0fSxZpzwypZEBjS097D-VwcGu5cjKcqcCN9ewa2htnkMWjKfybd6nnhAPifXtaseeRl6Ik3iRLAH3d5CJjcuf3TaF1S7i08VCJwoYzSmnytqTHnaLyWwAdfM7wrXzpUOtq0-RWI9-5sX4TMq_a5LX36HvCI', 'width': 4160}]",-6.847955499999999,106.0719242
"43RP+HF5, National Rte 3, Cihara, Lebak Regency, Banten 42392, Indonesia",Curug Entep,ChIJITcjsmf1Qi4R2AF9ugeoTCw,4.0,"['tourist_attraction', 'point_of_interest', 'establishment']",1.0,"[{'height': 3096, 'html_attributions': ['<a href=""https://maps.google.com/maps/contrib/116847475931910842868"">ANWAR MTI5</a>'], 'photo_reference': 'AUGGfZkKQ4Q89quTJA-L-t29UBngYrLtSIfQcdrCELZ5jS-s2cjrjT9_ek47m6u5wyqVyAzhyVvCzHsXuN-PeHx2C6CN1jNlOc10j27zom4VQ_fXPskQ-18uFBfxTuJhK7B634DHhAbZCLL41LJYeNswmzyGfq_AkREx0iJeQxSda4yplLUs', 'width': 4128}]",-6.8586117,106.0862492
"43XG+5F, Ciparahu, Cihara, Lebak Regency, Banten, Indonesia",Pantai karang ampar,ChIJb-T2xSr1Qi4RxqdACoEK7u0,5.0,"['tourist_attraction', 'point_of_interest', 'establishment']",3.0,"[{'height': 2401, 'html_attributions': ['<a href=""https://maps.google.com/maps/contrib/110361069678145764894"">Iqlima Aulia</a>'], 'photo_reference': 'AUGGfZnvqPYor_c4_CIWwPQObfpdcPFgQgicuFMlf0Abu5P39PEMgu-PXGfpbzzZWw0MY378mObJEpZOX-O5dNywI490XaoO81yhJxjcn1yguJKxra2Q0CmkthEzDBTbDPUwUIGomUPp-5rwwkRlrnY3yqtZnEAQ7q3CfogHjU0OICWnCinZ', 'width': 2401}]",-6.852885499999999,106.0771538
"43HR+VQQ, Raya Bayah Cikotok, Cihara, Kec. Cihara, Kabupaten Lebak, Banten 42392, Indonesia",Karang meja,ChIJsb8pzu71Qi4RrZsKg32ay6k,4.0,"['tourist_attraction', 'point_of_interest', 'establishment']",7.0,"[{'height': 3120, 'html_attributions': ['<a href=""https://maps.google.com/maps/contrib/117796049042529654448"">Agung</a>'], 'photo_reference': 'AUGGfZm6Zh33pguK1JFB8gBa6AjvYJcXZBXrXb96nwh9ff5-VFNmnt14EIpmvU355fdSIbLrFfW9yg90i0IOI9us4PxDOmqp_B7NzQTl3FiVXhqVnwAg5fszngfqfWuYtG1-8msI6o4iazJKMBRotTrK4DKvNaPp5SCzIu5V9JeZ0DN3sIbZ', 'width': 4160}]",-6.8702822,106.0919888
"446F+FWJ, Karangkamulyan, Cihara, Lebak Regency, Banten 42392, Indonesia",Patai cariang,ChIJPeQAGAD1Qi4RRmCrkiTy7yM,0.0,"['tourist_attraction', 'point_of_interest', 'establishment']",0.0,,-6.888781,106.1247556
"446C+P8P, Kp. Baru, Karangkamulyan, Kec. Cihara, Kabupaten Lebak, Banten 42392, Indonesia",Pantai Karang Beureum Cihara,ChIJ6TG7pKT1Qi4R_UxJKRTwVs4,4.3,"['tourist_attraction', 'point_of_interest', 'establishment']",21.0,"[{'height': 3120, 'html_attributions': ['<a href=""https://maps.google.com/maps/contrib/102547285974746568137"">nindy febriani</a>'], 'photo_reference': 'AUGGfZkAKMlmiPokw4jT65oFFnJPPWsXGtAOz0uUzzduB75u5zAY_V_MBZ-m8wxYuQUI8Cz9YXuCZdCunI6J27M-2zlacPI3Qa0WM9DbBRNR10NEkQDdMft0QTle-yfzob7Bz_uXZpC8HkAARnagAjDQDlj-4evkXvw0PjNxfIqXB6NJOC_o', 'width': 4160}]",-6.8881726,106.1208285
"5349+4H9, Raya Bayah Cikotok, Ciparahu, Kec. Cihara, Kabupaten Lebak, Banten 42392, Indonesia",Pantai Pasir Putih Lebak,ChIJZ35fTtn1Qi4RVM0nrXZbDHs,4.5,"['tourist_attraction', 'point_of_interest', 'establishment']",404.0,"[{'height': 2304, 'html_attributions': ['<a href=""https://maps.google.com/maps/contrib/111230556503153162650"">A Google User</a>'], 'photo_reference': 'AUGGfZnRI7oub3UTe0MPDo4v1LliDdQ6uwYN__MSixJjkKfWrshwBPwirgk3HHMaQ1VavudkbJGDz8xDafbCBRAmPJrIMtUYvRTqpRCm_gjpNVhTl8nDjCctboQ2VFASoUvpV4ivYLwpbLEV_4CBx-6quhUXtsZKXu9No8m7SqLuG3xTfCsz', 'width': 4096}]",-6.8447179,106.0689784
"Kp Cipunaga, Cihara, Kec. Cihara, Kabupaten Lebak, Banten 42392, Indonesia",Pantai Cipunaga,ChIJ3_ARw6b1Qi4RmPYEv4PfbD0,4.9,"['tourist_attraction', 'point_of_interest', 'establishment']",12.0,"[{'height': 3000, 'html_attributions': ['<a href=""https://maps.google.com/maps/contrib/106846721215055016585"">A Google User</a>'], 'photo_reference': 'AUGGfZmjahQYM4FQtG6S9Pf5fqIPelRPI4Q1PwbHAgo7yURDEid0CfH31sLkfDCYs3BX_KVzvpAl51rOZx_ZCguwlP4g5s9vXxRExNJoZDtDd2IiUtFCiqGxm0i77l36Rspz4sBNihK1K0-tMRb_vjJfs-mdYx_zWWcN_Unv0JlhC841s6Z4', 'width': 4000}]",-6.8613309,106.086736
"4469+RMW, Jl. Kp. Cibobos, Karangkamulyan, Kec. Cihara, Kabupaten Lebak, Banten 42392, Indonesia",Pantai Karang Songsong,ChIJE1E0pYn0Qi4RFN6S1JVw-rE,4.6,"['tourist_attraction', 'point_of_interest', 'establishment']",412.0,"[{'height': 3120, 'html_attributions': ['<a href=""https://maps.google.com/maps/contrib/111623923233618455840"">SDM KPH Banten Pht</a>'], 'photo_reference': 'AUGGfZmhNm9yyde-LVFlrigBm2neiqFXNQF-fKX8f0XvEseqlq52KC-YdprS0AwoqS6rzuoOUBNK2Z3MI9y9TY4DAkRehVUGNuBjQrEyn0j0Oy0Hf88diGUsUsOLAbzlICcm8nOc2tvlpy25GbOQXZddKtn2EHZqmwkDmWz0UIHQuQ8naSr8', 'width': 4160}]",-6.887892300000001,106.1191984
"44GH+MF8 Bayah Blok cepak halte, Jl raya malingping, Karangkamulyan, Kec. Cihara, Kabupaten Lebak, Banten 42392, Indonesia",Pantai Halte,ChIJyyFPGAD1Qi4RV-SdsWDYCYs,0.0,"['tourist_attraction', 'point_of_interest', 'establishment']",0.0,,-6.8733347,106.1286901
"532C+PXW, Ciparahu, Cihara, Lebak Regency, Banten 42392, Indonesia",Cafe Dezan The Lord Big,ChIJG9rhCAD1Qi4R2qe6yRSaw8Y,5.0,"['tourist_attraction', 'point_of_interest', 'establishment']",2.0,"[{'height': 2448, 'html_attributions': ['<a href=""https://maps.google.com/maps/contrib/116517128094408805394"">A Google User</a>'], 'photo_reference': 'AUGGfZnFlL2T7jT3lKr8Tfdp2WnVmk9Yz3RGvlPqzBQnvp9QzNHPGohZSe9RDQxpSqYP3VIP-3Hq6EuPj_d3CWk79cY1DMARvQDMeUXUcKMeBvj0GbgzS9_x1kUcJ4J3WxghWD6BV0l39QcyDumXcYnkMhqSa3mGJRhlU8DhWNDsLXcYLJNa', 'width': 3264}]",-6.848144599999999,106.0724408
"43FW+H77, Cihara, Lebak Regency, Banten, Indonesia",Karang Semar,ChIJv99Yo0P0Qi4RBpNEBx-hWRA,4.4,"['tourist_attraction', 'point_of_interest', 'establishment']",179.0,"[{'height': 3024, 'html_attributions': ['<a href=""https://maps.google.com/maps/contrib/117134578096127385414"">Hoerul Soleh</a>'], 'photo_reference': 'AUGGfZmQdUN3okhNd2M_2cxx4ZG6s_7DLEpHjsai0yBjpfbSWhpITRcS13aEARsQZ_F6JBNN-bSzdZKSIVgMtiRYMZK4wzmpW5LdYhU3AsVzumaCGA8j868gVvLZzgMU9ka5oUV7jD4XHUcGvSNjlpRmvZDBWHWrFrjmNxXisPwt1pyiJVte', 'width': 4032}]",-6.876077,106.09568
"532F+3FM, Raya Bayah Cikotok, Ciparahu, Kec. Cihara, Kabupaten Lebak, Banten 42392, Indonesia",Pantai Pasput [BIDUR],ChIJSwO63Wj1Qi4RHAwUz10I9wM,4.5,"['tourist_attraction', 'point_of_interest', 'establishment']",54.0,"[{'height': 4128, 'html_attributions': ['<a href=""https://maps.google.com/maps/contrib/102414630323472899629"">Iwan Rover</a>'], 'photo_reference': 'AUGGfZmbj9F1ZFWpwnwDLWHwhVu2JcEDI_Z0TbxIZcVudLafjJEsBUI59VQiqpvFvwqHMO9MOUCNVCT1a3L3257uGvuQCKPC7zfLDLAUUQc8hoJVW4xJlD_MQ4EK7mCTXe_fhkwH5j8ACKXG4I2hf669TKJuXoaLcmjkmubUo_wtNFOqyMZu', 'width': 3096}]",-6.8497751,106.0736703
"43VJ+FJ9, jalan raya bayah, Ciparahu, Kec. Cihara, Kabupaten Lebak, Banten 42392, Indonesia",Amin pantai kincir,ChIJcTM5gyr1Qi4RMefD4tLI9Rk,5.0,"['tourist_attraction', 'point_of_interest', 'establishment']",1.0,"[{'height': 3000, 'html_attributions': ['<a href=""https://maps.google.com/maps/contrib/103443322597826570393"">A Google User</a>'], 'photo_reference': 'AUGGfZkO7aOzR4QuZ5Ifg9Ipz7lw5dTOGYRrhs22O-KmKDp7WM2wM6x3vrw2VOcuk_2kvt5VH5zIEZQAnGNhV-aqN5dmrtJWxv3tgCFlulkrZfzlWBc5U8KkJjm5nsyyKIzJVdYDFoHFmuNImf7jIwS4lIZ97IjQEz0IyGLQ8Q3WH8n1vCzE', 'width': 4000}]",-6.856564199999999,106.0815885
"4469+WHP, National Rte 3, Karangkamulyan, Cihara, Lebak Regency, Banten 42392, Indonesia",Pantai Cibobos,ChIJQ7zKE4_0Qi4RxCxbBc70Zv4,4.6,"['tourist_attraction', 'point_of_interest', 'establishment']",133.0,"[{'height': 3000, 'html_attributions': ['<a href=""https://maps.google.com/maps/contrib/116961559806471032034"">Andre Indrayatna</a>'], 'photo_reference': 'AUGGfZnriZiYGdLa9LVLwLAfedPpt1fM2GBZKi71Bwwpalo65pe83C8vqSOCW3nNNpp8SCwyK7gQsumXEfZ34Tl1f6cLWQMWPNKwHlKZ0_AOvPJfJdPegG-EkIwkiLRTbqhZIel-S_UaUZkkZnLoSaInbq_B2CShjf9cnZQTbWp97LgZzjli', 'width': 4000}]",-6.887670000000001,106.1189465
"35X2+CVJ, Cihara, Lebak Regency, Banten 17133, Indonesia",Pantai Indah Sayun,ChIJf8LQ5bbzQi4RsMZ7KIvq6BM,4.9,"['tourist_attraction', 'point_of_interest', 'establishment']",68.0,"[{'height': 1468, 'html_attributions': ['<a href=""https://maps.google.com/maps/contrib/100608083803717593102"">Rendhy Soft Cake</a>'], 'photo_reference': 'AUGGfZnVNMez2L7288gVqzA7DUg0MMDiliRfy--sYS4tATGKbbK4k086IiLaoOd1vi2nxs_u2VoNFlICca5sO7fD76Q3oGunEIQ4Ufi7P5DvsZ8A0VU0l__DHxulKmchQke6EFv8YCrdAtx25RbPlljBQUhWecYFXwviHX7G6nbHceeJNiZO', 'width': 3264}]",-6.9019961,106.1519869
"4486+M94, Kp. Baru, Karangkamulyan, Kec. Cihara, Kabupaten Lebak, Banten 42392, Indonesia",Pantai kolong,ChIJydoqu-z1Qi4RJWHjQHIXFuo,4.8,"['tourist_attraction', 'point_of_interest', 'establishment']",6.0,"[{'height': 1504, 'html_attributions': ['<a href=""https://maps.google.com/maps/contrib/116524887270322590492"">farkhan ubaid</a>'], 'photo_reference': 'AUGGfZmMHpOWvTspM_YFS2yUVQ4cUFdwp27XqfnGm83VZd_mr0GJ3QRW_Hv9PsOjPkMEyGmzI955_9l_CXsKosl_M7PjL_mmMUOVZh8_nhH7ec8jo71wan4dlCqJ9aqD9N-6kXxOY2uoWuLheW6oanD2nZyRemdjnSTR3Bv3yQo6VWhxMYd5', 'width': 3264}]",-6.8833571,106.1109567
"4477+R8R, Jl. Kp. Cibobos, Karangkamulyan, Kec. Cihara, Kabupaten Lebak, Banten 42392, Indonesia",Pantai Karang Songsong 1,ChIJMzcf0Av1Qi4RxnKbEflLlIc,5.0,"['tourist_attraction', 'point_of_interest', 'establishment']",5.0,"[{'height': 3264, 'html_attributions': ['<a href=""https://maps.google.com/maps/contrib/116851736176484934624"">Tubagus Wirdatullah</a>'], 'photo_reference': 'AUGGfZkaRlEutoCAs-NuNnw_FwMpOfn7BqssRM835Q8Iprg0gV_bowO3urEs1CcxJkDMiG-GwndnSsHX33Lze3WcoKdyqAw1-KA0OurofkG9swmxzOyNGuJszUFCZaDtm-ioOHblt5vX82pQzEkEQMC8GO26A9XPd_6vwm2se4MfmymqYQkm', 'width': 2448}]",-6.8854261,106.1132601
"Ciparahu, Cihara, Lebak Regency, Banten 42392, Indonesia",Pantai Saung sawargi,ChIJm2HCXjX1Qi4RE2Ny2rk-YcY,4.6,"['tourist_attraction', 'point_of_interest', 'establishment']",14.0,"[{'height': 3072, 'html_attributions': ['<a href=""https://maps.google.com/maps/contrib/104391273710616604495"">A Google User</a>'], 'photo_reference': 'AUGGfZlV5Jrp3c2CauLrfVlGmiByRbFAd2NWRxRtLPyXxPDR_GOszxDkicVRVO_r7pU-FHlbe1FHFbX5C-ploXY9xslT0sbFVhZ5CRJLbx9omQM6h9ElGX_Sjz7tN-Q1q2qIDLVK16ftAPq1VfbiK9hQoZ0crJtRUMDoebH2_HolqYQDiURM', 'width': 4096}]",-6.8507311,106.074766
"43QP+VJ7, Raya Bayah Cikotok, Cihara, Kec. Cihara, Kabupaten Lebak, Banten 42392, Indonesia",SEDEKAN BEACH,ChIJrxXlxan1Qi4RII9bNkWy8VU,5.0,"['tourist_attraction', 'point_of_interest', 'establishment']",1.0,"[{'height': 4080, 'html_attributions': ['<a href=""https://maps.google.com/maps/contrib/100288048408538127248"">A Google User</a>'], 'photo_reference': 'AUGGfZn3ZLXaJL8DQx0A93nwk_gdh3BtOC0JqR1wNQUBgbUQRgKZDMPe8O6ikjFr-ENpVdp5Y2mjqwWtm3Rghb72ffpXiYIO4k0K6GaaVv12R20Qqeve_JVcRh7Q6204rv9DUhJcAewdnAOOIB8T03lJJmjXsk0aGuCm9PAdnqbcghMM4xbQ', 'width': 3060}]",-6.860277399999999,106.085643
"533C+39H, Raya Bayah Cikotok, Ciparahu, Kec. Cihara, Kabupaten Lebak, Banten 42392, Indonesia",Pasput Beach C&N,ChIJTwFT4In1Qi4RxhDZlFgJqbg,4.0,"['tourist_attraction', 'point_of_interest', 'establishment']",5.0,"[{'height': 3264, 'html_attributions': ['<a href=""https://maps.google.com/maps/contrib/112737681025265601422"">A Google User</a>'], 'photo_reference': 'AUGGfZkXUMHhx3PQwvAfqy3EpJt-Q6i7sbRsyeWqn1YxO15P9j2EICmf4m7Cs9-FOcFJiqiQdlkMuRa6OSvq-mccX6G5L6NF-fKxB2pMHIutfdyiv_VeBUeAJvG40Y8gwoSsayMDudJ0zNWYdKVHH0tMXoaG9vY7LVdSi8ZYjrXhYS8gbSpx', 'width': 1840}]",-6.847395000000001,106.071216
"43RM+QW3, National Rte 3, Ciparahu, Cihara, Lebak Regency, Banten 42392, Indonesia",Pantai Pangalongan,ChIJMV1J3sr1Qi4RQUpEUquia28,4.4,"['tourist_attraction', 'point_of_interest', 'establishment']",144.0,"[{'height': 3120, 'html_attributions': ['<a href=""https://maps.google.com/maps/contrib/115005901442778644712"">Adik Pujio</a>'], 'photo_reference': 'AUGGfZnle8UJnNihct4CoGb9IZTj2MIvejNlK4iW0ART80PGX4UMjIePSwG7XQN-Cs0Z0NTWo4iPPE3YasLNinLmgbf4ssDNc6GNsDs7o3n8y9gnQjaxqxHpr34OgSKQHXoazJqoIefCFU68Cy9euIaXYKC_x8RYQts5JPSAaONMNZrhSyZ3', 'width': 4160}]",-6.8581013,106.0848025
"43XG+5F, Ciparahu, Cihara, Lebak Regency, Banten, Indonesia",Pantai JayaGiri,ChIJK6Qn-FL1Qi4RIpbxnROLl0E,4.8,"['tourist_attraction', 'point_of_interest', 'establishment']",28.0,"[{'height': 2976, 'html_attributions': ['<a href=""https://maps.google.com/maps/contrib/101201969381324119915"">A Google User</a>'], 'photo_reference': 'AUGGfZn--jk8eV-Nbp8B8GhbHJlbJ_UhdJya0IWrP8L1rluE9_gvyAzTGKjOHMT5tPjKR-SZQF-_9rqQC5YHEUo1Rh6d4MBwD6cWqb9sLkn6wq69ls7eAPVFD96NFCrCk9wtYtpYTvRULNImkB-pHuXqH57LbdaCVlZnIyHzxxw28rbZ-v-s', 'width': 3968}]",-6.852122,106.076153
"Kp. Panyaungan, Desa, Kec. Cihara, Kabupaten Lebak, Banten 42392, Indonesia",Pantai Panyaungan,ChIJg8MdclfzQi4Re5osQtnJIlE,4.5,"['tourist_attraction', 'point_of_interest', 'establishment']",141.0,"[{'height': 4032, 'html_attributions': ['<a href=""https://maps.google.com/maps/contrib/110574481972684364524"">A Google User</a>'], 'photo_reference': 'AUGGfZmSMHojSa_zTAR86Uwr0snahw4oFMkeUrxubTQJXhCV2otKe3NJVuLS71kgw8xO6P-NkLw6TBOWMsDyd5Z9NPguXEeZmizMDpm45m4ui-pwG1G4x2YrTqYlTyhsnd7viz1Fow4UT86XrM-I6BVoExzWQE8ckiZby0WGRfMgBPsCETsR', 'width': 3024}]",-6.901866699999999,106.1476027
"Karangkamulyan, Cihara, Lebak Regency, Banten 42392, Indonesia",Pantai Kupu Kupu,ChIJ1fqtAb31Qi4RxL2l_wOWsng,3.8,"['tourist_attraction', 'point_of_interest', 'establishment']",6.0,"[{'height': 3264, 'html_attributions': ['<a href=""https://maps.google.com/maps/contrib/107225429905972946995"">A Google User</a>'], 'photo_reference': 'AUGGfZlAPaJC_ydeqDu5m0bcAgPQU8fjQLIFxVTav0bKdQRtZ9dfV-WVeEQ5iIZjivLyfFspG6BTbSF9JYf7Aq_db-kAZ0xYlmAj0rhCcfedphe86sx5mmoDgh-JuDjnYZiuXCGxJnLAJ_TdrrHTM1xfFh-28Rbrqv1QCkF0KHcDPd9vHF1y', 'width': 1468}]",-6.885861200000001,106.1163935
"34XX+275, National Rte 3, Lebak Regency, Banten 42392, Indonesia",Pantai Kelapa Warna - Panyaungan,ChIJp0wo5TTzQi4R6495BuDp6v0,4.5,"['tourist_attraction', 'point_of_interest', 'establishment']",818.0,"[{'height': 2248, 'html_attributions': ['<a href=""https://maps.google.com/maps/contrib/114996591308840600140"">Devit Yayan</a>'], 'photo_reference': 'AUGGfZlEVidAhYsycZpU3Co1pFN8jx8SmX9MFHbutn4lsgOQvxUgw4aKMsiZz3yPsrQb5zSsr6tD5C9AR_Mp-sXN1UIMibElAmK3If7Z0FvBj2dXdfLjj98AyKfvbT2X0NhMETBWmDhIEJYIByYWyiU58yjL_gMlsJMo9JX3AHmSHHOmKKFB', 'width': 4000}]",-6.902486,106.1482488
"Jalan Raya Bayah-Malingping No.Km. 15, Karangkamulyan, Kec. Cihara, Kabupaten Lebak, Banten 42392, Indonesia",Tanjung Cariang,ChIJFYG_Q5r0Qi4RUDltrdsPRWM,4.3,"['tourist_attraction', 'point_of_interest', 'establishment']",48.0,"[{'height': 2988, 'html_attributions': ['<a href=""https://maps.google.com/maps/contrib/110301305472554574830"">Washal Falah</a>'], 'photo_reference': 'AUGGfZmprZ-MYWnSs5spTRj4sbpAQAMnbJCVRXZwa7dGtkXhjRjvu5On4lHk49tSZSvGomKGZI_hfhxhkdFcTN41l5ncB98cjCW40KLXmfiWZn9IEEVaAOvXPrIoAKTKzRvRfPQwPVHlcRUX9U_IJHtPA4NYF4oxyad2MHtaOK8i17ABw8H5', 'width': 5312}]",-6.8904716,106.1267596
"64W2+RQ9, Cikaret, Cigemblong, Lebak Regency, Banten 42395, Indonesia",Abah Rasja Garden,ChIJSXv7PQBfQi4RJwDre7UcoXA,0.0,"['tourist_attraction', 'point_of_interest', 'establishment']",0.0,,-6.7529606,106.1019817
"458Q+CQ, Sukajadi, Panggarangan, Lebak Regency, Banten 42392, Indonesia",Bendung Cisiih,ChIJ4y13HYWLQi4RX6J-A4yGglI,0.0,"['tourist_attraction', 'point_of_interest', 'establishment']",0.0,"[{'height': 3060, 'html_attributions': ['<a href=""https://maps.google.com/maps/contrib/109476026207590470568"">A Google User</a>'], 'photo_reference': 'AUGGfZnLzN1D--aPRaDxS0eugD3xwDspMipNAXf1pcSXQl8NmlqHt3NFFhOxCS9HXuumGgXfh8LMYKgl7W50Bqere1rFehRgCLDNVFFgzumTUUpqeJZ_muXN5JwWp6OGhkma018RJ5ydayNaDxT-A46QNSiwh4WQyzF-ey9--m26cg4wGK0x', 'width': 4080}]",-6.8839153,106.1893778
"454J+X9, Situregen, Panggarangan, Lebak Regency, Banten 42392, Indonesia",Warung kopi,ChIJV8tz8oOLQi4R1TKkq_LjUT4,0.0,"['tourist_attraction', 'point_of_interest', 'establishment']",0.0,,-6.892609999999999,106.1809367
"45FM+XQF, Cimandiri, Panggarangan, Lebak Regency, Banten, Indonesia",Destinasi Wisata Bukit Layung - Genteng Paska,ChIJ9RuyZcWLQi4RxNXUdHdBxi4,4.2,"['tourist_attraction', 'point_of_interest', 'establishment']",29.0,"[{'height': 2608, 'html_attributions': ['<a href=""https://maps.google.com/maps/contrib/110924715865762511500"">A Google User</a>'], 'photo_reference': 'AUGGfZnLk-O-b5lkfZcmGApDMKDLQGULAzufV-ZRGcZTQUkKUDR9GrLJwW9vuKkHp--fHCBWmFaqxE_DEMigbl7Usdbz6p_CSau_av_4nHeawZepUPitKQfDgULbTP55P4CWe6-xwhJ9LJA85Rl_3rRq1FVMswpCvAuTVBMi0IIhaqMADlF2', 'width': 4624}]",-6.875052699999999,106.1844281
"Mekarsari, Rangkasbitung, Lebak Regency, Banten 42392, Indonesia",Curug pamujaan,ChIJd_8WheCLQi4RsfNII3ipo-c,4.5,"['tourist_attraction', 'point_of_interest', 'establishment']",4.0,"[{'height': 6120, 'html_attributions': ['<a href=""https://maps.google.com/maps/contrib/117364161241363444356"">A Google User</a>'], 'photo_reference': 'AUGGfZm0jDpnEksZKekJkmIjRFt0dP91QvFw4LByO_bls8b_coG-OPRqWSCpWumXa72JypnofnC0T64XUs5FQhkOAx616JSM7P16pbYm42-68QVhylyN7L6xKAxjMJzYa2ZvpHRdKGeV2pugySdh2K78NBjiTKceo-XxXjZsSBjwjpoNwbmL', 'width': 8160}]",-6.8482275,106.1686476
