formatted_address,name,photos,place_id,rating,types,user_ratings_total,lat,lng
"XR32+PP, Palau, Balaesang Tanjung, Donggala, Donggala Regency, Central Sulawesi, Indonesia",Camping ground,"[{'height': 4160, 'html_attributions': ['<a href=""https://maps.google.com/maps/contrib/108724843845655842558"">A Google User</a>'], 'photo_reference': 'AUGGfZlvrtcNSkohT-0ei5cZ3ZlsrOTYCbcvAoTnAzozUNFUGW1yyjFzkZdtrATz3jZtY_4d_lCIBKOJSdErHS0O_xg_WfNhbh0lebDSN-tO4qXnQ-1UR9I8kZgQ8NDo2iFsPUsAotteyUWYhtBp29eI4mDMm4_Q1fn4ZsNUOsYBIyt3YzPW', 'width': 3120}]",ChIJN6J1BwwLii0RjiZWGhHSnmo,5.0,"['tourist_attraction', 'point_of_interest', 'establishment']",4.0,-0.0457132,119.8018497
"WJXJ+4C, Ketong, Balaesang Tanjung, Donggala, Donggala Regency, Central Sulawesi, Indonesia",Destinasi Wisata Bengalo,"[{'height': 3096, 'html_attributions': ['<a href=""https://maps.google.com/maps/contrib/111273361014311348788"">A Google User</a>'], 'photo_reference': 'AUGGfZnwBmd9B7Dhi10FSX-auCrXm5OEy6WbphOBTb1-qt5s2YFYzKLmYmEbyb9GyUAEgEkpO_KTxHEkTFhPvTHGspn1LoaghWhH1xAtplZQrHoulUPmIdRXxpkuv4mwDKL8-hYSCPxuTmRQVx13wU8cSmVlymiuqwb_pOoEeg225u1wh6oI', 'width': 4128}]",ChIJ_1MCiYd3ii0R6WM76aG1pVU,4.3,"['tourist_attraction', 'point_of_interest', 'establishment']",4.0,-0.0521773,119.631066
"WMC2+QP, Ketong, Balaesang Tanjung, Donggala, Donggala Regency, Central Sulawesi, Indonesia",Panju,,ChIJuQlan9xxii0R5Q5TA_4emTY,5.0,"['tourist_attraction', 'point_of_interest', 'establishment']",1.0,-0.0780288,119.6517744
"Palau, Balaesang, Donggala Regency, Central Sulawesi, Indonesia",Tanjung Batu,"[{'height': 732, 'html_attributions': ['<a href=""https://maps.google.com/maps/contrib/114242131457740669897"">A Google User</a>'], 'photo_reference': 'AUGGfZlbJyl50Y1pkRnJyCKa6T7EZm_MC396t1nox_3uNZGzwQwkZXdy96XK41vZ8DXNPhdk6ua8hzCdHGLNmHswATLJPvWBdYxU3FKgwNV8umiISNcP4xK7vnMS3RXkotCb01bjWENeh1C_rEOsNpZk2NsJdVrIhMmHYWZC7niPdu9-oap5', 'width': 976}]",ChIJXRI8U4xzii0Roxs182ZXL0Q,5.0,"['tourist_attraction', 'point_of_interest', 'establishment']",1.0,-0.0719016,119.7592921
"WJFX+95, Ketong, Balaesang Tanjung, Donggala, Donggala Regency, Central Sulawesi, Indonesia",Pantai kabobeng,,ChIJ4RxQYNFxii0R24rT34PwZYA,0.0,"['tourist_attraction', 'point_of_interest', 'establishment']",0.0,-0.0765546,119.647965
"XJV4+QJ, Ketong, Balaesang Tanjung, Donggala, Donggala Regency, Central Sulawesi, Indonesia",Equator line,,ChIJf_NBCQB3ii0RtlRKje6UFks,0.0,"['tourist_attraction', 'point_of_interest', 'establishment']",0.0,-0.005749,119.6067589
"WJGW+C9, Ketong, Balaesang Tanjung, Donggala, Donggala Regency, Central Sulawesi, Indonesia",Pantai menesungga,,ChIJs4n7EMlxii0RUdJqCSnFwYY,0.0,"['tourist_attraction', 'point_of_interest', 'establishment']",0.0,-0.07394239999999999,119.6459168
"VP2X+9GF, Walandano, Balaesang Tanjung, Donggala, Donggala Regency, Central Sulawesi 94355, Indonesia",Napo,"[{'height': 2448, 'html_attributions': ['<a href=""https://maps.google.com/maps/contrib/105445233242811141361"">A Google User</a>'], 'photo_reference': 'AUGGfZmfa4p_oAqLf4SV7GgoEF6TAWNN0aGxaEwa3rGIwG5tiyJztsNBAa1mfzXUh4OyQX1E6299_g6POujLRTRNbT8ii4d4vGBgkL9cUjFEJYGJms6VR8hAU5jDMyqyspCzNhYd9FTx-7-IsQVnAbHF4rGDG0VEeFmhKpXJQb8TFjV6wnDB', 'width': 3264}]",ChIJI_5XtgBtii0RjSBw1uLahCE,0.0,"['tourist_attraction', 'point_of_interest', 'establishment']",0.0,-0.1490673,119.7487959
"XJ97+8M3, Ketong, Balaesang Tanjung, Donggala, Donggala Regency, Central Sulawesi, Indonesia",Pantai sikea,,ChIJ164pdwB3ii0R0LeyNvLvhHg,0.0,"['tourist_attraction', 'point_of_interest', 'establishment']",0.0,-0.0317252,119.6141567
"VRJ9+W85, Jl. Mapaga, Labean, Kec. Balaesang, Kabupaten Donggala, Sulawesi Tengah 94355, Indonesia","Taman Wisata Mangrove ""TANJO LANGA""","[{'height': 3456, 'html_attributions': ['<a href=""https://maps.google.com/maps/contrib/116895811135995018852"">Subhan Syamsuddin</a>'], 'photo_reference': 'AUGGfZlQo1oNItnrV9X8DCRO-fScrTviWCAp-1WtmsRwO_K_pnjs9MRieClQlIqNiTOJ0HRSZssiSQ2SxAmVHwoE02UcKJ_Sdd7_eKoK4kwxgS0Bz9K9rrZ8iBIHPhebK7kd3BGhYfCu58icPT2iBgr8OD_sBn9bHVrvqdEXeyiQfh01jlDl', 'width': 5184}]",ChIJ3_BuSqANii0RJ9XfAIrBvUk,4.2,"['tourist_attraction', 'point_of_interest', 'establishment']",10.0,-0.1177298,119.8183443
"Manimbaya, Balaesang, Donggala Regency, Central Sulawesi, Indonesia",Wisata Terapi Udang Merah,"[{'height': 540, 'html_attributions': ['<a href=""https://maps.google.com/maps/contrib/114222642559679164783"">A Google User</a>'], 'photo_reference': 'AUGGfZnu4IBm4PP9jrpxQo9XH5njYagMn-ErFOmJkMPA4CjlkuGdoQir--Gxl18MIvDUEQ2kMAd4F3dO4FjIJuc_BJaOwLrhD-NGG1_MNMvCh8Dvh1xlZ-cy6AVd9EQ-jk47rFa6aF_SLfZrTzoxFV3ItdEL5mQixRjlvct3m7rQuir9lxBx', 'width': 720}]",ChIJX-6b9853ii0RrUOU73-DphY,0.0,"['tourist_attraction', 'point_of_interest', 'establishment']",0.0,-0.006169099999999999,119.6063398
"VR66+J3M, Lombonga, Balaesang, Donggala Regency, Central Sulawesi 94355, Indonesia",Lombonga Beach,"[{'height': 4608, 'html_attributions': ['<a href=""https://maps.google.com/maps/contrib/109736287877479867598"">A Google User</a>'], 'photo_reference': 'AUGGfZnNhYySRe0XlPoMQ9BOF1NB3JT_cQQ7sz_BsHOCUWgg99ImkBM5kJv6UCwTk8eFuACYnd2hvtu5JUVfH99kHtPDpBkWlqPHop0A_jD6XO82DTEZR9V14XCZrNu-3RosL0UD_2H2hU2QXbC5WzOXsRlVqQyauYn959sXklX_ZkrDBV4r', 'width': 2592}]",ChIJW83UNGANii0R8VZSYZL18o8,4.8,"['tourist_attraction', 'point_of_interest', 'establishment']",4.0,-0.1384005,119.8101726
"XP42+J54, Jalan poros labean, Rano B, 94355, Indonesia",Danau Rano Tobalesan,,ChIJoT5TTj51ii0Rmxc4EFypnzI,0.0,"['tourist_attraction', 'point_of_interest', 'establishment']",0.0,-0.0434967,119.7004448
"RRJ4+9JH, Lompio, Sirenja, Donggala Regency, Central Sulawesi 94355, Indonesia",Sivalenta Beach,"[{'height': 2988, 'html_attributions': ['<a href=""https://maps.google.com/maps/contrib/112946302318505808350"">hendra sidharta</a>'], 'photo_reference': 'AUGGfZn-2tBbmUJftKYnTwxX_a_ES72KN6884BDlIX7nibJl-Iq9Z07sKFFZOianAPzedZsxbtb2mubq2SAyR_k0iHsRLvB8MHxytlzmGpBIUHyDqvOq4_-5mcumypakrVeZbpXlKbbCUDZVoeV4KvPPWjus4xM6Wd8M-VQx58XG1HDX6WdT', 'width': 5312}]",ChIJybv7YyMTii0Rdy1nGo6xZIc,4.3,"['tourist_attraction', 'point_of_interest', 'establishment']",351.0,-0.1690708,119.806623
"RRH5+4WG, Lompio, Sirenja, Donggala Regency, Central Sulawesi 94355, Indonesia",Pantai Parimpi Indah,"[{'height': 3120, 'html_attributions': ['<a href=""https://maps.google.com/maps/contrib/104948274848323754051"">ijhal s</a>'], 'photo_reference': 'AUGGfZlsf4BSrG5n3el-qv2XnEbM1d0olhguIlRDfW51EbDASNhX9CFX6uYpMGwFlpYAF43GOH9UqaNWrpgU-HesKQ1wOb44cqst2URHYoJKmBt_UR2MR-NcQYmzAoJ582yR8m9QHSZUY74zfH4RB_OVw1hzKtEKulzgzbA2WskVu-cFlbXI', 'width': 4208}]",ChIJixATBj0Tii0RikE8BaprKQQ,4.2,"['tourist_attraction', 'point_of_interest', 'establishment']",35.0,-0.1721784,119.8098262
"WPXR+JG2, Pomolulu, Balaesang, Donggala Regency, Central Sulawesi, Indonesia",Tempat ikan,,ChIJKfYtovN1ii0RbaYCunchtAs,0.0,"['park', 'point_of_interest', 'establishment']",0.0,-0.0511658,119.7415352
"WR6V+2F, Meli, Balaesang, Donggala Regency, Central Sulawesi, Indonesia",Pantai Meli,"[{'height': 1844, 'html_attributions': ['<a href=""https://maps.google.com/maps/contrib/110072941076176138649"">Muhammad Irfan Thontowy</a>'], 'photo_reference': 'AUGGfZn4gPwdjOIOzZ6sQJTRaul44QSImFzmawbt0VJfVeYNG9o9iYMglgZVziGgnB-uN_d98thjj6A1Y7hiF20JSyfHTtdKkJYidkdruYKm09Wpr0VAinSZh1_ttKCwKo4JNwi50X0zWfDZi9iQjD5IiJk52efkvUKH-WysSPO8OBNOQwFf', 'width': 4000}]",ChIJ4cyxGHANii0RbWPHGE1xx4c,5.0,"['tourist_attraction', 'point_of_interest', 'establishment']",2.0,-0.0899287,119.8437143
"VR6W+VPM, Labean, Balaesang, Donggala Regency, Central Sulawesi 94355, Indonesia",TPI Mapaga Labean,,ChIJmagQLgATii0RvtA57sbsMJ8,0.0,"['tourist_attraction', 'point_of_interest', 'establishment']",0.0,-0.1377904,119.8468043
"XJ6C+5CH, Ketong, Balaesang Tanjung, Donggala, Donggala Regency, Central Sulawesi, Indonesia",Magauk Balaesang,,ChIJhUKGLQB3ii0Rc8FEWV2dMAM,5.0,"['point_of_interest', 'establishment']",1.0,-0.0395082,119.6217502
"2W35+CR8, Siweli, Balaesang, Donggala Regency, Central Sulawesi, Indonesia",Kalebora,"[{'height': 1920, 'html_attributions': ['<a href=""https://maps.google.com/maps/contrib/115379397371210103752"">Mufrad Rifaldi</a>'], 'photo_reference': 'AUGGfZl2PY0YkaxFPWLZgm5SeTt_8DLTrv0mn4JnRylN5xWVbpelmz8AY8buGAXHb1Qti3u3KwxxxOUMwqAC1xLGhe3lOX6lu5K0ZZAIP15lTXzMF2RWdLB6FZ20S5eZd6HYVri-FANYgt-72VM56nS6WwN4xL977to4zy5qe7qomlMQSbKN', 'width': 1080}]",ChIJ6cPkSgD3dTIRoi1AZwuL8yw,5.0,"['tourist_attraction', 'point_of_interest', 'establishment']",1.0,0.003539199999999999,119.9095846
"WVJ4+FP9, Tambu, Balaesang, Donggala Regency, Central Sulawesi, Indonesia",ANJUNGAN KHATULISTIWA,"[{'height': 4080, 'html_attributions': ['<a href=""https://maps.google.com/maps/contrib/111399760484916115361"">A Google User</a>'], 'photo_reference': 'AUGGfZnBxSUgcO1RWr5MhyvjuRseebDSdu3kbkpGtqVn23aVMeZXOLtdTYKAQ2RIoUDtGsDrDCkG5Q924C-KtXGFU1OFU0g5iBCWkYcD4SvWdYpAJo9vP3SgOIdZgWYLZfg0WSVFwen5KhTQ3g7zg7RLVrRxj_Y8UybPCDhNRCthSYOtlEm7', 'width': 2296}]",ChIJW6A1WmsNii0Rw0dgnd9XT2c,4.5,"['tourist_attraction', 'point_of_interest', 'establishment']",2.0,-0.0688392,119.8568554
"XV9H+XRP, Mapane Tambu, Balaesang, Donggala Regency, Central Sulawesi, Indonesia","Pantai Lentora, Mapane Tambu","[{'height': 4160, 'html_attributions': ['<a href=""https://maps.google.com/maps/contrib/111235879276585918932"">Dayat Lambojo</a>'], 'photo_reference': 'AUGGfZkZB7gXZ6doD3D8Ez-_b3Dp-OgUmYjKc5fGroWTHszRJ4Mauz0QKVMVk5m-o37jRGA1uUkGw8R1uejnX5SPR4_RnJkhNDoTfIyt-FJKZ9TsAcgqdYEsvunOMulWxvRZ1QpOglS_oB0-oJVGkoJiZxxbIfgfdF3LkqqkvjJHcco-eiB9', 'width': 3120}]",ChIJWbSmyZcLii0R0KWkzkujiFg,4.6,"['tourist_attraction', 'point_of_interest', 'establishment']",9.0,-0.0300257,119.8795848
"RRF7+36, Lende, Donggala Regency, Central Sulawesi, Indonesia",Pantai Park Manado,,ChIJpaoYaQATii0RXYoEg7AA1k8,0.0,"['tourist_attraction', 'point_of_interest', 'establishment']",0.0,-0.177295,119.813081
"2V2P+23, Siweli, Balaesang, Donggala Regency, Central Sulawesi, Indonesia",Equator line Siweli,,ChIJG-KN5vH3dTIRrxu1WGmLlrY,0.0,"['tourist_attraction', 'point_of_interest', 'establishment']",0.0,5.3e-05,119.8852329
"3WVM+Q6, Sibayu, Balaesang, Donggala Regency, Central Sulawesi 94356, Indonesia",Air terjun tomarampung Desa Sibayu,"[{'height': 479, 'html_attributions': ['<a href=""https://maps.google.com/maps/contrib/109123400857175062046"">subhan renaldi</a>'], 'photo_reference': 'AUGGfZklCXzhlMzPAkwIej2SfQXyVm3fvkrqUje6Qc6ULLJazzSTIkfwOndJpwRL9CoPri4-cVBQ7eRonREgZE6JcTDr8lcSGFiI8ym83PKUAT0UmN5hCIp1dPlm8ZxW5IZmK7KJDTK0yhhYmpRQsLXiz310wc1dZZbdHLtlEzjL5mECwwuG', 'width': 720}]",ChIJU0v5hILxdTIRHp8N396gRgw,2.0,"['tourist_attraction', 'point_of_interest', 'establishment']",1.0,0.094466,119.9330509
"WWJC+FRR, Torate-rate, Tovia Tambu, Kec. Balaesang, Kabupaten Donggala, Sulawesi Tengah 94355, Indonesia",Torate rate tovia tambu,,ChIJTTFCAgAPii0RhD_oa1MRQZc,0.0,"['tourist_attraction', 'point_of_interest', 'establishment']",0.0,-0.068772,119.9220112
"4V48+RR, Malino, Balaesang, Donggala Regency, Central Sulawesi, Indonesia","Pantai Wisata Manggrove, Desa Malino","[{'height': 4160, 'html_attributions': ['<a href=""https://maps.google.com/maps/contrib/103842043429529538360"">A Google User</a>'], 'photo_reference': 'AUGGfZk80kU7CmPurKDWa84uBpUYEuOpl3_IcV9MiRSCpgLP_pMIJN7NdO3R3WoJhT4mc1bsLxpOpSXkxJ817PR0SkPHpf2ydZNQAXn6wRxBQ4nKZMpCMoS5AVuv2ZFQBKHGg91EgZsqzLiuidDnqK8ZTPdW25nM_vbJQ4SSO863Duyu87yV', 'width': 3120}]",ChIJM5_kjhPzdTIRhakHJgzVtUo,5.0,"['tourist_attraction', 'point_of_interest', 'establishment']",1.0,0.107032,119.867103
"Sibayu, Balaesang, Donggala Regency, Central Sulawesi 94356, Indonesia",Pantai Sipure,"[{'height': 1080, 'html_attributions': ['<a href=""https://maps.google.com/maps/contrib/102393044009939625898"">Hery Purwanto</a>'], 'photo_reference': 'AUGGfZkIqE53KrlWyFFawuooEqCDkflOmFteyQqAXaJjv8AEIJxvxQ96d9fyX8PJ0Ic8GFX0wxIEaiGTrsam4IBmX3r8yaFepEhZbjl9vd_botbttzDeGTunhqdTAO-zaiIe809QRHGq3sxqb_Pc8nE1VdSYCm0IUFHfPCs8ZOvR-pUBMWhY', 'width': 1920}]",ChIJ8Rj9cKLzdTIRW9G0vzrirAY,4.6,"['tourist_attraction', 'point_of_interest', 'establishment']",12.0,0.0814419,119.8779279
"XJ4F+CGR, Ketong, Balaesang Tanjung, Donggala, Donggala Regency, Central Sulawesi, Indonesia",Rumah Nenelaki,,ChIJBfia8gV3ii0RscWo5Q3l0-I,4.0,"['point_of_interest', 'establishment']",1.0,-0.0438822,119.6231517
"XJV4+8MX, Ketong, Balaesang, Donggala Regency, Central Sulawesi 94355, Indonesia",Mercusuar Tanjung Manimbaya,"[{'height': 4000, 'html_attributions': ['<a href=""https://maps.google.com/maps/contrib/103177998613888341501"">Yockie</a>'], 'photo_reference': 'AUGGfZlC_vWKN7G_iMF0KheLVCPQgeaPndADoCS53vgQnqtqy-lvSRlghozKiYidgHODVww76b_YziYepKWpuKHkgilV5JfgpDEGuzcc6HSvymyQtk0po-QjGD7xhLBCAokgRFVTYE7BzoaemmFwNiGN9GLGJ4IXRuAGHsNouH0Uov92Xs6U', 'width': 2248}]",ChIJqygTsvl3ii0RMh_azz5VOG0,4.7,"['point_of_interest', 'establishment']",10.0,-0.0066289,119.6067223
"QVGX+PPH, Balentuma, Sirenja, Donggala Regency, Central Sulawesi, Indonesia",Lokasi kelapa hj labaso,,ChIJDWst2AIXii0RXjNblUysJa0,1.0,"['tourist_attraction', 'point_of_interest', 'establishment']",1.0,-0.2231834,119.8993554
"4WV4+47, Budimukti, Damsol, Donggala Regency, Central Sulawesi, Indonesia",Green khatulistiwa farm,"[{'height': 4142, 'html_attributions': ['<a href=""https://maps.google.com/maps/contrib/110439289849262947617"">zhaky Hobbit</a>'], 'photo_reference': 'AUGGfZm-4eaBq5LC8tTLHYmElyxKQhcSWEbVcgm1qDK1JJw577sCb0-23pByX0X3wzd8dKJS9BvzJXGHLPhqFtm8w4DsRne9A6K6NOeV-OizPLK-3x9jeITRh52cFi-b4OF87hfLv_RnqSZ96SO6tVpQ2OQZz4aegkkUBspQK_dvJIkj-HtN', 'width': 3102}]",ChIJr3a99GLvdTIRKOgEaFHU52E,5.0,"['tourist_attraction', 'point_of_interest', 'establishment']",2.0,0.142869,119.905711
"5V94+MH, Talaga, Damsol, Donggala Regency, Central Sulawesi 94356, Indonesia",KEBUN DAMPELAS,"[{'height': 1472, 'html_attributions': ['<a href=""https://maps.google.com/maps/contrib/104806845807687260693"">JUFRI ZAITUNA</a>'], 'photo_reference': 'AUGGfZnJm0qd3UjgDjM8U_G6T3tvnojXQQLRONx2RbuQaOynimngaZa00yA3nn0v6wHS_Xqehq89-ZPpOkK7eBjPPkAW2SeD22yt6grKtU9c6oqWRHfWmplmMZvKyOtAo4BTwJvfavEWgzDx6euoqps22v5RlTsjhFFt6RCu2xBIEROF67v7', 'width': 3264}]",ChIJbzobJXXtdTIRrKC853ni9uo,5.0,"['tourist_attraction', 'point_of_interest', 'establishment']",2.0,0.1692417,119.8564583
"5RGX+QH7, Talaga, Damsol, Donggala Regency, Central Sulawesi 94356, Indonesia",Danau Talaga,"[{'height': 1536, 'html_attributions': ['<a href=""https://maps.google.com/maps/contrib/110925740507599162550"">Abdul Wahab</a>'], 'photo_reference': 'AUGGfZkoUbWinps9ymJYWhrRPo3tqkgmTyqflk4mT0VJ_LfrUXdZ9kIYZ35QM9hR_tHiiyJfli_sfzl3vIf3rI4fks8BeeROvNHTyfvlxrASM6gubc2KC3-v0IO0zExTSup9k0VwsAFp2MBjSceROqMGJ0WxggbFld71rQnU46xHyfDNY757', 'width': 2048}]",ChIJydTw70LsdTIRygNmbTEH7Pk,4.4,"['tourist_attraction', 'point_of_interest', 'establishment']",32.0,0.1769129,119.8489188
"5W33+MX8, Budimukti, Damsol, Donggala Regency, Central Sulawesi 94356, Indonesia",Grenn khatulistiwa farm 2,"[{'height': 4142, 'html_attributions': ['<a href=""https://maps.google.com/maps/contrib/110439289849262947617"">zhaky Hobbit</a>'], 'photo_reference': 'AUGGfZncO0yAbGo7msPNnRD7B6fGzewVv7YcnZzmckR0bq5Bc4pjWM0ck5ruHl-4PJjrRG4MWHolnQFZSw9aNC3rD8dVoCSdLLBifOdUVWWsJXmJw_XYBTXLdPilMKHIHo6-DKUeH1dg4a-jgBqzsjYkGI5W7IC2Mngmt5cIDJ-iGDzB5-KM', 'width': 3102}]",ChIJf3B4enzvdTIRv7rbBY7lOaE,5.0,"['tourist_attraction', 'point_of_interest', 'establishment']",1.0,0.1541584,119.9049401
"XWX3+FR7, Siweli, Balaesang, Donggala Regency, Central Sulawesi, Indonesia",Dalia,"[{'height': 1800, 'html_attributions': ['<a href=""https://maps.google.com/maps/contrib/100646783285017630519"">irfan tampedor</a>'], 'photo_reference': 'AUGGfZnHdPosgV569dTlzcARToiakPGBnOsBUWHRziGEMthDq47lA5j4Se57d-Yr3yFoZxUJ_eOUPZ1RJxlsr-MUj_NcC3-pOHR1bHgC5PPFDSIVo6wPvpkcfcMi8hrKRxYxIWMcCu_tusBN95uRtJC_2QOM5R1qOr0jWD2OfJELu4ekq9_5', 'width': 4000}]",ChIJySPd3WoJii0RICm1SENLnAs,0.0,"['park', 'point_of_interest', 'establishment']",0.0,-0.0013394,119.904536
"5RJX+5VP, Danau, Damsol, Donggala Regency, Central Sulawesi 94356, Indonesia",Desa talaga,,ChIJB-bIYovtdTIRBviDdPa75MI,0.0,"['tourist_attraction', 'point_of_interest', 'establishment']",0.0,0.1804531,119.8496976
"XWR8+QF9, Siweli, Balaesang, Donggala Regency, Central Sulawesi, Indonesia",Kalibora,,ChIJBfl9eQAJii0R9I2AP0IIQeU,0.0,"['park', 'point_of_interest', 'establishment']",0.0,-0.0080839,119.9162276
"5RPF+JFR, Talaga, Damsol, Donggala Regency, Central Sulawesi 94356, Indonesia",SIBALA Cottage,,ChIJ76XeNwDtdTIRLMKD0TF9DyA,0.0,"['tourist_attraction', 'point_of_interest', 'establishment']",0.0,0.1866014,119.8236554
"5QGV+C6, Talaga, Damsol, Donggala Regency, Central Sulawesi, Indonesia",Aluoge,"[{'height': 2448, 'html_attributions': ['<a href=""https://maps.google.com/maps/contrib/111327405327782916752"">A Google User</a>'], 'photo_reference': 'AUGGfZm_Y6Uw6ex9q-7W1sRFJc3nKk0HHBTWuxSo_SkmfCwfoEU3s1VXxTcSXMXsp1aRdt8sLcS3uWZF8Roiv1n9qNuHBlWzMbFzKprKoL214E8CWA0H9mS9hBc1ntVdoj6J0A2EHbwtD4wNKpJ7bwgiKRJf28JE721lQBZA3RrfjIWW6__N', 'width': 3264}]",ChIJyYjlXgDtdTIRBlpRw3aOERY,5.0,"['tourist_attraction', 'point_of_interest', 'establishment']",2.0,0.1760733,119.7930333
"6R9X+9X8, Malonas, Damsol, Kabupaten Donggala, Sulawesi Tengah 94356, Indonesia",Pantai Bambarano,"[{'height': 1824, 'html_attributions': ['<a href=""https://maps.google.com/maps/contrib/113850511914056144061"">Lidia Yesiprima</a>'], 'photo_reference': 'AUGGfZm9mz-1dgEZn4IBh2b8aolErGIfkGI8NgBMLYkaVgYi6SQehujvxesDA4ruRku8PFTtiIg3Q0S38-uQYNb6gmRoCx8ybHpVvOEf9dtrrrBVUVhtnPmopx0sYKhoce0M1SsonB2VytEqD8fbXPtwsN0fIp-2EtfyE-XevYRB3PvGqBi4', 'width': 3232}]",ChIJga-116_rdTIRWxyR3FGPBO0,4.5,"['tourist_attraction', 'point_of_interest', 'establishment']",582.0,0.2184164,119.8499618
"5R76+2G, Kambayang, Damsol, Donggala Regency, Central Sulawesi, Indonesia",Maruwom,"[{'height': 960, 'html_attributions': ['<a href=""https://maps.google.com/maps/contrib/110501426515562315486"">Made Bentar</a>'], 'photo_reference': 'AUGGfZnj3y1N_jkV_4HDyFmOqFaUjvrQiqaZM--Pdxdelgpzlqdy4aaA39ms4GxZ2uZz02j_2rZgwtAjMsXuRZ6zTZfXDTfi00kr07wbyfDSiTfjij0-EX9N8oq8uBYIhl_o3-69zPKD_jop7Xee5EjMyd1757Hzt0n4WqyD-_tSv6sae3wW', 'width': 720}]",ChIJC9deKQDtdTIRa8YfE26kxRU,0.0,"['tourist_attraction', 'point_of_interest', 'establishment']",0.0,0.1625939,119.8113225
"6R28+78, Talaga, Damsol, Donggala Regency, Central Sulawesi, Indonesia",Kawasan Pangan Nusantara,"[{'height': 3000, 'html_attributions': ['<a href=""https://maps.google.com/maps/contrib/111078647622069907349"">A Google User</a>'], 'photo_reference': 'AUGGfZlQOm9o2p3HlZc0QMoBLs9ve9mvqPS63WVI04N8SOEIQsSDxToWlvK1S3l5uu15sMg03HpxHkzyG8WgQS-sAprdfyMRcA1zFxBkUnIM82wRbcmzs6WC8ktzf1Jg3F4Z5aQA4Z48rCIQCKO7HTZ-EYlsqC5nfOMgfiOBROUFIyfLFYFU', 'width': 4000}]",ChIJaXLDRxzrdTIRpzwrMm7B0pA,0.0,"['tourist_attraction', 'point_of_interest', 'establishment']",0.0,0.200674,119.81576
"6WQ3+J2F, Jl. Tolitoli - Palu, Ponggerang, Kec. Damsol, Kabupaten Donggala, Sulawesi Tengah 94356, Indonesia",Pantai Barokah,"[{'height': 3120, 'html_attributions': ['<a href=""https://maps.google.com/maps/contrib/109273629503931961959"">SITI FADILAH</a>'], 'photo_reference': 'AUGGfZkabl8FAe2narbEkv8l8B5Ff9kiwO06QiqC7TMRvxytAAUNuRRK-_BqcKutFvK23NnPqUbf0Qxoh4xdplRwwR3Vk2VUyKwMRVfbFRpxNMvLGD8_3ZCV_dq9zssiNwBReb44Gc8mn9L_IhY3lFSBQArAOlHG1ZFhZ42rU6MZvi8eVJCQ', 'width': 4160}]",ChIJczsU3jvpdTIR0A2Keo4mi0g,4.5,"['tourist_attraction', 'point_of_interest', 'establishment']",20.0,0.2390525,119.9025539
"Sabang, Damsol, Donggala Regency, Central Sulawesi, Indonesia",Pantai Salur (Ogo Salur),"[{'height': 1800, 'html_attributions': ['<a href=""https://maps.google.com/maps/contrib/116605978715574790529"">ahmad kosasih</a>'], 'photo_reference': 'AUGGfZngUuQU6JroWU0Nhf6ve8XIUniZ-40qupq2Tp3PZNC27227dX5l2UhiM6Yp4hmjqN7W1_wj18mkmxI9ozxQDYdL8A_xSmrq9oBk7dshBczvHJbMDd5ToYqz89X_HeDGnk8k_p0bAqsvCYU_-Q_M26K58QR4ffu43LdVOAfqLfag0m0O', 'width': 4000}]",ChIJJQ2HRafrdTIRwxlmVMmoJbI,4.7,"['tourist_attraction', 'point_of_interest', 'establishment']",50.0,0.2155747,119.8361662
"VXG7+RGG, West Kasimbar, Kasimbar, Parigi Moutong Regency, Central Sulawesi 94474, Indonesia",Kolam Air Panas,"[{'height': 1280, 'html_attributions': ['<a href=""https://maps.google.com/maps/contrib/107528479549197929881"">A Google User</a>'], 'photo_reference': 'AUGGfZmZD-JV99tguFMYWORwTvF3PM8YZxiGLqaU9c0-IbdwV-sve1cLNrsebXV3C0D160zrgNp6mJKceR1xaxl3ZCY65yrX53vH1c5dqQop3avvqc75FurKZuFBzDvOyjxo6eV6v_bPee0gN-B0pgTs5KTHqMiVEeBDJmSyyjsr1DdqNG2G', 'width': 1920}]",ChIJmfYg23MPii0R39Eg1Ygz_MI,4.1,"['tourist_attraction', 'point_of_interest', 'establishment']",9.0,-0.1229333,119.9638417
"7WCV+F9, Ponggerang, Damsol, Donggala Regency, Central Sulawesi 94356, Indonesia",Bendungan Desa Malonas Kec. Dampelas Kab. Donggala,"[{'height': 2250, 'html_attributions': ['<a href=""https://maps.google.com/maps/contrib/116467870728106882954"">Stefen Laksana</a>'], 'photo_reference': 'AUGGfZk1AFp4AAoD1O8YNtRMkafJoBcQCx3Dg4JUw_i22YKrVw_nLJpMmW6TWV1VGIT7diaeYqcOTMBJk1h_dvBv7Izqz8qicq06uXSUSYRwqwPGZ27wjqBuqKoAx_KV7rlqlZVIGf67vgbS-glAHpiMfNIA8IJDi00Arv1JHAZm4r2AThjD', 'width': 4000}]",ChIJbwIrzXbDdTIR5Bm916EG4hs,4.3,"['tourist_attraction', 'point_of_interest', 'establishment']",3.0,0.2712018,119.9434016
"VXQ5+RC, Kasimbar, Parigi Moutong Regency, Central Sulawesi 94355, Indonesia",Peerkebunan cengkeh,"[{'height': 1920, 'html_attributions': ['<a href=""https://maps.google.com/maps/contrib/105692650617955465437"">Al Arav</a>'], 'photo_reference': 'AUGGfZkPRCAiHr8C9oqwFFED13OGuEoC1MjSB8Ezt_ZuEJFGYIW7-1mlVCgkzPlPjnnkTr1pAK9Abhpqg6_pQptLgKGTbNU51ehW9rdk6xwbh84e_jPJItEdIlOoGGQgEO4AfhbeFY2gBc4lmQYzxZlPv_lQNhmwi2mfo_fEQzwTGpwNmER6', 'width': 1080}]",ChIJHzG__68Pii0Ri_Hrzzbwdao,5.0,"['tourist_attraction', 'point_of_interest', 'establishment']",2.0,-0.1104583,119.9585984
"VXG7+W64, Jl. Tambu - Parigi Moutong, Kasimbar Bar., Kec. Kasimbar, Kabupaten Parigi Moutong, Sulawesi Tengah 94474, Indonesia",WISATA MATA AIR PANAS BELERANG,"[{'height': 1080, 'html_attributions': ['<a href=""https://maps.google.com/maps/contrib/103684914848928981101"">inael pontoh</a>'], 'photo_reference': 'AUGGfZknVC8PP58QRP1_J_WOJiTqRG5L9bjnyS1xAYJjm-jSHiJL0zCS1hG18dzBYXEEVKdoBquhDaG5Aq2NRxyGCp6Za7uaE2iW86PSOTHSq4Fxdr8SQOqpV3pr8_2FA1X9gg6t1H5F7i_yWa2LizgBZgVpT7e6S5f0bCZNEutA2tZuYjX9', 'width': 1920}]",ChIJ-a8_eAAPii0RCQ9qPM-yKXM,5.0,"['tourist_attraction', 'point_of_interest', 'establishment']",1.0,-0.1227334,119.96309
"5H2G+CWR, Surumana, Banawa Selatan, Donggala Regency, Central Sulawesi 94351, Indonesia",Wisata Mangrove Kaombona,"[{'height': 1800, 'html_attributions': ['<a href=""https://maps.google.com/maps/contrib/109698275478145260620"">A Google User</a>'], 'photo_reference': 'AUGGfZlvgiCYr5NCesaIm394e86Jo_k9WEylMvvn4Xdx-YR2FOkV-8nkJgUUw-pfDWdwACkyz0Tww2yiquLCiQ9sXRgq6u5iX-FlYRtRaxj0RSMigmgYFB9Cuur-AK84QrpbgGaI7Xg0h9HkQAK1OBfaRB7FA3gcbICy9jbJMAfMWzNCefg5', 'width': 4000}]",ChIJUQ_Co32Ziy0RKpzsJviYlaQ,5.0,"['tourist_attraction', 'point_of_interest', 'establishment']",3.0,-0.8488981999999999,119.5772687
"4HGJ+JP8, Watatu, Banawa Selatan, Donggala Regency, Central Sulawesi 94351, Indonesia",Cafe Dua Putra Resort and Cottage,"[{'height': 3920, 'html_attributions': ['<a href=""https://maps.google.com/maps/contrib/106555808087927275793"">A Google User</a>'], 'photo_reference': 'AUGGfZmKzYfVwUfgUkZUqr6bDFcchBQLSFO_6AahHVE-emwy1C1U3VkC32gcJbPPDjEBJlvu8sTGek4JAfukvbgXAzCPHxsV0ltVsOLr5W9ofRab3O0Tcc8DKF_cljHpTfuRWwUTyK3KmIHcXh339n1gKSPoi0cZEkyL8RRz1sxqCxQiVlO3', 'width': 6944}]",ChIJaUdfdtmbiy0RBflyLRBRyNM,4.5,"['tourist_attraction', 'point_of_interest', 'establishment']",26.0,-0.8735476,119.5819702
"Jl. Poros Majene - Mamuju, Tosale, Kec. Banawa Tengah, Kabupaten Donggala, Sulawesi Tengah 94351, Indonesia",Puncak Donggala,"[{'height': 3014, 'html_attributions': ['<a href=""https://maps.google.com/maps/contrib/101696440595995351444"">Alan Kyuubi</a>'], 'photo_reference': 'AUGGfZlq2ZkCUvUyG_SWIUzCylxtrYEssKWzMRXvK06Gvws1pNU5fJw2bAy5AhI0E41oIZchug5yg6Pzo7tTlyAwQVqjYRLPM9rZC1JFNKBjl5sKeYxpkkE-m0RBJboMO8nfRF66WWlguI_WbyfBI9a_PvokBPkcCrk4w66ScQC3B4UIu00H', 'width': 4030}]",ChIJW4XgBa29iy0R6KL_Xls9BQ8,4.5,"['tourist_attraction', 'point_of_interest', 'establishment']",16.0,-0.7548349999999999,119.6837683
"6MM9+JWQ, Tosale, Banawa Selatan, Donggala Regency, Central Sulawesi 94351, Indonesia",Pantai Pompole Tosale,"[{'height': 1280, 'html_attributions': ['<a href=""https://maps.google.com/maps/contrib/106503953168049552942"">A Google User</a>'], 'photo_reference': 'AUGGfZnkCZQ5npD4aStd7HD6LOh-gPpGtBCzbWWB2DtNrfWhG2JYfQP4M1sIAs2RjLnRQWnGKJdRmTeQ2AJUUs1auo30A5ZP33PfpsyOEA1Hw_q_9jM7oqPfz2oDpMFKhdtrOLaQd057epmzlS2H8HSLTlSZa46e0lRegcnt9tVADO1jOFZ2', 'width': 1280}]",ChIJD1iqDEq9iy0ROX1XgTdmqQM,3.7,"['tourist_attraction', 'point_of_interest', 'establishment']",3.0,-0.7659157999999999,119.6698646
"6PQH+9VQ, Lumbudolo, Banawa Tengah, Donggala Regency, Central Sulawesi 94351, Indonesia",Air Terjun Pangasintoli,"[{'height': 4096, 'html_attributions': ['<a href=""https://maps.google.com/maps/contrib/103484077052063169043"">Dani Ristanto</a>'], 'photo_reference': 'AUGGfZm7dgR-IHnXQIsl7zceHt4h_Iku7YiXksMulbXrcygPkLpMPHPv1Gd6SHSp0-Pm1NPwVzYLAsthxiOIJMerbNmWFsf3cKL-39n-sKH9RB7DyNpKovj-LWVDmTdxfYYxOMtcIh5IyS5YJyQ-pfYCw9mlgAVPf-c5odcbBZcLY0Hx5yqA', 'width': 2304}]",ChIJd3cx1hK_iy0Ry3tPtHrxsdg,4.2,"['tourist_attraction', 'point_of_interest', 'establishment']",6.0,-0.7615274999999999,119.7297385
"6P3V+V5, Powelua, Banawa Tengah, Donggala Regency, Central Sulawesi, Indonesia",Air terjun Saluntere,"[{'height': 4000, 'html_attributions': ['<a href=""https://maps.google.com/maps/contrib/111622323707466937993"">A Google User</a>'], 'photo_reference': 'AUGGfZkEDb3N1cN6AY1SlmB9PSpuYlLGI5h7UZgZx6PU96cJUplsSwHmGtNKIUQqWWXRa8sL5vDbqcO_uR_0eqGihVh2sI0uVmdcE1ESqlwULqt8m0zTDI5EFxg-DTTjGN6XAfIdXN7mosdvDzQWJ9MSbBXwTgeAMcpTGiYsldigprkNPZrV', 'width': 3000}]",ChIJ1y0Fz5CViy0RM0F8oE0WoQA,3.0,"['tourist_attraction', 'point_of_interest', 'establishment']",3.0,-0.795282,119.7429889
"Jln. Trans Sulawesi, Tosale, Kec. Banawa Sel., Kabupaten Donggala, Sulawesi Tengah 94351, Indonesia",KTM Landevaso,"[{'height': 405, 'html_attributions': ['<a href=""https://maps.google.com/maps/contrib/106503953168049552942"">A Google User</a>'], 'photo_reference': 'AUGGfZlS8a0eXCFPFoEfFYPqRN_h11rhK3Y_MoVIV2b9Vwlc1kOv5tJ9xsngNOvpc_Kqj-IzNFEhnbIUSB3wSwd7rGxSrYnQHyq1ATy3HMsSa-AUqYwJLlzdGC_9_K7dj5VbzWTStO5Tl4lcVOw_EBhqlywKjNTXtPMM8Fc8waZ-hLqihBe4', 'width': 720}]",ChIJrQaTPF29iy0RwNU27SB23a4,4.0,"['tourist_attraction', 'point_of_interest', 'establishment']",3.0,-0.7690387,119.6806668
"7MFJ+VXM, Towale, Banawa Tengah, Donggala Regency, Central Sulawesi 94351, Indonesia",CV. SULTAN BANAVA DONGGALA,,ChIJEciMlAq9iy0RLIlcbdiHtGc,0.0,"['tourist_attraction', 'point_of_interest', 'establishment']",0.0,-0.7252888,119.6824297
"7MMX+V2, Limboro, Banawa Tengah, Donggala Regency, Central Sulawesi, Indonesia",Studio Desa,,ChIJ87EwOQC5iy0RYqCRNOjgUDQ,0.0,"['tourist_attraction', 'point_of_interest', 'establishment']",0.0,-0.7153068000000001,119.697557
"7MR8+4QW, Towale, Banawa Tengah, Donggala Regency, Central Sulawesi 94351, Indonesia",Pusentasi,"[{'height': 4000, 'html_attributions': ['<a href=""https://maps.google.com/maps/contrib/109554163721834487526"">Yui san</a>'], 'photo_reference': 'AUGGfZlHk3D-oTge59eMTQVsYyU1bvNbDOM896HIFfLYU1v2vgG-bubwCXO6PFkIzvlVPXkFnKnuSXwh4Bk5dlq36ylTdoQwE5bf0C_qYxoystlrLpR65n3ntHDvYcv8hwXcN1oBn3Vv3rpCp_CYYQa1BylPuy6C_WGwCcTxvLQbU6WJBceC', 'width': 3000}]",ChIJz2n1Y5G7iy0RWRSTptd9h9k,4.6,"['tourist_attraction', 'point_of_interest', 'establishment']",128.0,-0.709634,119.6669413
"7M8J+4WH, Jl. Poros Majene - Mamuju, Salubomba, Kec. Banawa Tengah, Kabupaten Donggala, Sulawesi Tengah 94351, Indonesia",Peta Desa Salubomba,,ChIJhzvCDLC9iy0RjF21WjDKZ9I,5.0,"['tourist_attraction', 'point_of_interest', 'establishment']",1.0,-0.7346929,119.6823462
"5J2C+598, Lalombi, Banawa Selatan, Donggala Regency, Central Sulawesi 94351, Indonesia",banawa selatan,,ChIJnx1ecwCXiy0RUeEMcuqLNtg,0.0,"['park', 'point_of_interest', 'establishment']",0.0,-0.8495901,119.6209388
"6QWP+9QG, Loli Tasiburi, Banawa, Donggala Regency, Central Sulawesi 94351, Indonesia",Bangker Air tawar kapal,"[{'height': 2610, 'html_attributions': ['<a href=""https://maps.google.com/maps/contrib/108871032290690921831"">A Google User</a>'], 'photo_reference': 'AUGGfZmzsy5qYnyu0tkb2WK9zMLnR4IXdS5M4FHM7oD1JcvNg1u4OULIqbLF5IbP7qvu0WQ4qdPiB0w-iPrPzOHzbqt-9nnoI5eplUi_PSDxK1IN_lAuBINEhBH6f6FMRzRLmeVFWqzuWMOfcg_FsG8R7zNMDNqDseqOkG6euHknDQEfxlTd', 'width': 4640}]",ChIJTdWvVGe_iy0RAfxsghhD5Pg,4.5,"['tourist_attraction', 'point_of_interest', 'establishment']",2.0,-0.7540562,119.786949
"7MR8+4QW, Wisata, tebing sunset libutona, Towale, Kec. Banawa Tengah, Kabupaten Donggala, Sulawesi Tengah 94351, Indonesia",tebing sunset,"[{'height': 2250, 'html_attributions': ['<a href=""https://maps.google.com/maps/contrib/113720732435813666679"">alzenius ST</a>'], 'photo_reference': 'AUGGfZlTjFQOK7nQXkGOVa-pe1Mo-czIObmY13q_BFWs-YD9Zer8HzGWqI7TEyGI1pwZ70Ynj5k82geluGUk36pUqrIHRVyOnuFUEHLP2HBySyDQRvfh5zLdMfnYLiquiju1Wm2hAihA6y5_fDPfycVP6zG-S_a308k79LhyP9HEzcT7uNzX', 'width': 4000}]",ChIJ9RlErBa7iy0RfPinmwBRxAI,5.0,"['tourist_attraction', 'point_of_interest', 'establishment']",4.0,-0.709634,119.6669413
"Kabonga Besar, Banawa, Donggala Regency, Central Sulawesi 94351, Indonesia",Pembuatan Paket Tour,"[{'height': 975, 'html_attributions': ['<a href=""https://maps.google.com/maps/contrib/106123738543425612490"">A Google User</a>'], 'photo_reference': 'AUGGfZl3xx1_kx4WsIohY5pdRrZHDTQ01irnwvAxULJlANvqAp12zAAJ68h0f_lBC7coIXeXmlyxG54QYrqVztf3w5v959LF45cYLSW0OkdJe6BOFCVzU6Ano_77h6iQdJlXYKjFWej71y6FewNx_GXmhJjNhTzLursMSX7cTQ7bzGqv_IjL', 'width': 990}]",ChIJu81lOfC5iy0R9Fcpc0zIBFw,0.0,"['tourist_attraction', 'point_of_interest', 'establishment']",0.0,-0.7081268,119.7620629
"6QVF+296, Loli Tasiburi, Banawa, Donggala Regency, Central Sulawesi 94351, Indonesia",Loli Tasiburi Waterfall,"[{'height': 3456, 'html_attributions': ['<a href=""https://maps.google.com/maps/contrib/104526871863444551114"">alfian iskandar</a>'], 'photo_reference': 'AUGGfZlaw1uvOz8Aq42yoFTb3TYgrRTLnNfLMvD9QhVABo8F6RCpXlW57Ye88DTR7ZTSnTWbhH2NtlZqPHmbQmZlSdSCZNeRM_0H0Q7s8bSArnOOLOVSXgA1D5zLOOVTfg9v44-RS5y63mBeuBeeLrRMdeHIE-Ok4XPnTYKbGQYs6z0pakuR', 'width': 5184}]",ChIJIZKijpu_iy0RZsezFlUbky0,4.3,"['tourist_attraction', 'park', 'point_of_interest', 'establishment']",222.0,-0.7574702999999999,119.7734028
"7MPP+J87, Towale, Banawa Tengah, Donggala Regency, Central Sulawesi 94351, Indonesia",Lokasi -Asmayanti dan Asmaningsih,,ChIJU-zKUmC7iy0RSYvfDBVQYRg,0.0,"['tourist_attraction', 'point_of_interest', 'establishment']",0.0,-0.7134634999999999,119.6857964
"6QVF+2C, Loli Tasiburi, Banawa, Donggala Regency, Central Sulawesi, Indonesia",Air Terjun Pangasi Loto,"[{'height': 4000, 'html_attributions': ['<a href=""https://maps.google.com/maps/contrib/111430209254037517382"">deni karsana</a>'], 'photo_reference': 'AUGGfZn7_DXUmwSQDe2G2ks2Z2vhSvbdrFYmGDkqmwZfaoBl_Ure31XNtOW0IXRMIPIUcemwJGQTJQcdUuB6BvzbIHz02xR-HQ0bORzol5Ei0rLOQMfHOhDEGTXWjteLa7Qaro-i6E4teGM1znudbP6b26scK8MtNpZ0nwm-90IyVV3femH4', 'width': 2992}]",ChIJ0cR3Hd-_iy0RCZ-3oAmDNNo,4.1,"['tourist_attraction', 'point_of_interest', 'establishment']",29.0,-0.7573885,119.7736131
"8M2Q+QXC, Jalan, Ganti, Banawa, Donggala Regency, Central Sulawesi 94351, Indonesia",Manggaribi Tree House & Camping Ground,"[{'height': 1836, 'html_attributions': ['<a href=""https://maps.google.com/maps/contrib/106276081550574022623"">A Google User</a>'], 'photo_reference': 'AUGGfZlAiboq6VeJdObk-x36u2oH0C1t_OBibfn4Nd3sieT7yb8KHzlJlYHGrXyHwrhbmJBYZm65dH-x5Q6En6Ytq924PgH9YUzVhZy78_TcJ6bFepfmsEmOtb1pcSVdx5zSf7BKHcENna1ovHEqiWgq0zfOD_xxS6bkoSEBCP5spnaYWnDN', 'width': 3264}]",ChIJCfaWbFa7iy0RqdHWSAlFqDY,5.0,"['tourist_attraction', 'point_of_interest', 'establishment']",2.0,-0.6980582,119.6898888
"7MW9+4QV, Towale, Banawa Tengah, Donggala Regency, Central Sulawesi 94351, Indonesia",Wisata Tebing Livutona,"[{'height': 2992, 'html_attributions': ['<a href=""https://maps.google.com/maps/contrib/115144417139572601263"">Eka Arya Saputra</a>'], 'photo_reference': 'AUGGfZkWN7LCUGIfmpEAJRvgT1_9CP0AHLU0-UrCRq5ymr-Hvm7K1nn8bWenEE5m--vjbHnNloQ_-3_iswxnGG5qctFelUxa7KapVhQENwd3jeMNGR78pX_EJw2gh-XjAMf8PLFUc5nPvd3U2nuXs75ZDN0kb3qMFfG_uBVfKUjh5knZAcUj', 'width': 4000}]",ChIJrfVF7iy7iy0RcEZDPTYxMu8,4.6,"['tourist_attraction', 'point_of_interest', 'establishment']",7.0,-0.7046287,119.669422
"8Q24+257, Kabonga Kecil, Banawa, Donggala Regency, Central Sulawesi 94351, Indonesia",Kawasan Wisata Mangrove Kabonga Kecil,"[{'height': 3120, 'html_attributions': ['<a href=""https://maps.google.com/maps/contrib/103580241049963539624"">A Google User</a>'], 'photo_reference': 'AUGGfZmYfXyGRRyEZ6GgqxUCsUtLeT-W80ZMFmBibXt5pgINJFmfmSiJeUc7Ui6am66ekCY6NqTgrw-7pt5E1GqsQNw_BjeWhxuo_S5jiQhCYWmzIDwwFWOVNEKImBAKpRyyzz_oKb0BsfVkUd7XD4rtyOULYkPdjLdZZAJHlF0d_Gv9-oC2', 'width': 4160}]",ChIJo38YkLe5iy0RqmWtshoZlLU,3.0,"['tourist_attraction', 'point_of_interest', 'establishment']",2.0,-0.7001105,119.7580831
"8QG2+86H, Gunung Bale, Banawa, Donggala Regency, Central Sulawesi 94351, Indonesia",KRATOS GOD OF WAR,,ChIJ7-v0XQC5iy0R6-lV-DPsHdE,0.0,"['tourist_attraction', 'point_of_interest', 'establishment']",0.0,-0.6740685,119.750699
"3PGR+QQR, Lewara, Banawa Selatan, Sigi Regency, Central Sulawesi 94351, Indonesia",Puncak Bukit Dusun 5,"[{'height': 1034, 'html_attributions': ['<a href=""https://maps.google.com/maps/contrib/115871371589218453946"">A Google User</a>'], 'photo_reference': 'AUGGfZlARrwxxPP6fpZxem5qlrvE6PeK41hzXTE7_rePLrz1rIz4ghD9YX_0o9IHMq9qjQa_8Er2FSMqqIi0ofO_9_W9Ez3X7ABFFJrf9NtmIHJoi2V9llEfJx6i211CMzubJsR1PdAiBdfuYQ0KYh6KXlxCSGIfTDsy8Ny2XN2aeb7eSCtT', 'width': 1600}]",ChIJF9igY9-Niy0R-yv2OfGDZcA,0.0,"['tourist_attraction', 'point_of_interest', 'establishment']",0.0,-0.9230153,119.7418869
"7MV9+GQ, Towale, Banawa Tengah, Donggala Regency, Central Sulawesi, Indonesia",Bolo lia 1,"[{'height': 4032, 'html_attributions': ['<a href=""https://maps.google.com/maps/contrib/103070084837833728204"">A Google User</a>'], 'photo_reference': 'AUGGfZlhOaL6kY7Glgtvl1aYPrV6f-W4A0v5V2XsuZ8O6hOOuv7mmKKt5Dl9VVQuYzAn8ED6cqexr5yA_pw0uWseWr9Ua90ScE8hQ2dkgJ_4E-9WMoZTZAgNavwfptz-s1RktmFUEzQU0SjNUm60BQIV_BKUwAQfUWozx1Y6V2gIm2Ywk2RH', 'width': 1832}]",ChIJgxSMQla7iy0Ru9iX97PuQRY,4.8,"['tourist_attraction', 'point_of_interest', 'establishment']",4.0,-0.7062309,119.6694092
"7MWM+JPV, Limboro, Banawa Tengah, Donggala Regency, Central Sulawesi 94351, Indonesia",Pantai Kaluku,"[{'height': 1840, 'html_attributions': ['<a href=""https://maps.google.com/maps/contrib/116895139274934611709"">Jahy Class</a>'], 'photo_reference': 'AUGGfZlxvBeTD7ATKjIsfFIFxoRNKQJbsJhRLU5wyQFcBvXHeay0mlss2tFJ06UkhVk8GjcUQqW9QHUGbdi4R99MK228kgR9xKVz25tfSDkFhWfM-BTHZQNEAlECuAdrfnjix0_6m5x4QqSeHVYZWidYmdsrnGypk2aw1xK9CMET3N5l7ewF', 'width': 3264}]",ChIJSS-CscK7iy0Rv-VsfNTp2gM,4.3,"['tourist_attraction', 'point_of_interest', 'establishment']",113.0,-0.7033832999999999,119.684295
"Unnamed Road, Towale, Banawa Tengah, Donggala Regency, Central Sulawesi 94351, Indonesia",Bonebula Beach,"[{'height': 2268, 'html_attributions': ['<a href=""https://maps.google.com/maps/contrib/103070803151733956384"">kelik</a>'], 'photo_reference': 'AUGGfZmT1ogUZu2NdpLdzFd2mu7a8EqopxuRLDtI3PjGHHBSkDA0Zggv8X425Mv3T_7KBsWBnkTYUCoXaisZD6-Cz6Gew4m3R5Lx0MxCJ0rtpA1l6a_ZcnV-klcgWrCxPO2sgAnOV5Ku5mppmqGfwgy7jubLSZuMCHOj4hX4nOqCCVC-EK5U', 'width': 4032}]",ChIJXSGc16O7iy0RRvWDmWC7jas,4.5,"['tourist_attraction', 'point_of_interest', 'establishment']",481.0,-0.7049470999999999,119.670027
"Jl. Trans Palu-Donggala, Kabonga Besar, Kec. Banawa, Kabupaten Donggala, Sulawesi Tengah 94351, Indonesia",Travel Mangrove Forest Donggala,"[{'height': 3000, 'html_attributions': ['<a href=""https://maps.google.com/maps/contrib/102491131159293423682"">a donny t</a>'], 'photo_reference': 'AUGGfZm60j7SXFWarjgOpbs0oSFTxXJbmW0-wWVJuOyz3wethI-Jh-sOWGC4t_J84I0Y2689fyGtTIrqu8EkcM-MvEOIWrR-Um-Y9MsT8du9ZkPZ3c1Cp5xlSUtY0_fsx1lAHdujPMoPzq6c4puni0_R07BuTA4RLbZkVuVIcLfqFQc6UCaj', 'width': 4000}]",ChIJwwyFvsC4iy0RA5uUbaoqBOw,4.4,"['tourist_attraction', 'point_of_interest', 'establishment']",337.0,-0.7039664999999999,119.7660296
"7MR9+M4V, Towale, Banawa Tengah, Donggala Regency, Central Sulawesi 94351, Indonesia",Pantai To Bolo Lia,"[{'height': 3000, 'html_attributions': ['<a href=""https://maps.google.com/maps/contrib/109554163721834487526"">Yui san</a>'], 'photo_reference': 'AUGGfZlUXMCzVBfoXGPmX_5rYg9eEqrm0ghQZuCxi3gEyvrw93yvmWcD3z9OXjHpG9tv9tqLzM9isohzAzr0QYHdYP-alIHBlRucX1V0p8rAoXg7yVG5gqmz_1zR8jLl7PF5Q0mqR74CqsvfRUwb7Bjlln7MmrVIPI5jp4W1OQpYY8Jeph8h', 'width': 4000}]",ChIJDRTHU0S7iy0Reqe0p2CYZ_0,4.5,"['tourist_attraction', 'point_of_interest', 'establishment']",11.0,-0.7082746,119.6678039
"8Q25+Q27, Jl. Poros Palu - Mamuju, Kabonga Kecil, Kec. Banawa Tengah, Kabupaten Donggala, Sulawesi Tengah 94351, Indonesia",Objek wisata mangrove kelurahan kabonga kecil,,ChIJa14o1J-5iy0R4bxEcjkeCis,0.0,"['tourist_attraction', 'point_of_interest', 'establishment']",0.0,-0.6980867,119.7575351
"7MR9+XG, Towale, Banawa Tengah, Donggala Regency, Central Sulawesi 94351, Indonesia",Pantai tupa,"[{'height': 2250, 'html_attributions': ['<a href=""https://maps.google.com/maps/contrib/104597653129392066394"">jefrichal jeff</a>'], 'photo_reference': 'AUGGfZnRi44O9TCWS9IqD7IVESDaIsBz6JnD9ZAaO43uv8KG770RexZ7fn70F7Km3BlEF6rgjI9a1jp2e-t4GTut3UgaStWpRIeRgAxyP9RcZ3AY4OTYC1XRMm63Gdx7q2QOoLGlWY3UcIQY99nAZs20cbBuUwSaafE4OYhL4LWpyMNuOXMY', 'width': 4000}]",ChIJ9Q9me4y7iy0R-XNPaE737J4,4.9,"['tourist_attraction', 'point_of_interest', 'establishment']",12.0,-0.7075621999999999,119.6687957
"8P74+24H, Limboro, Banawa Tengah, Donggala Regency, Central Sulawesi 94351, Indonesia",Pantai Kulolu,"[{'height': 4032, 'html_attributions': ['<a href=""https://maps.google.com/maps/contrib/113905170855825710523"">Beatrice Tj</a>'], 'photo_reference': 'AUGGfZnqNSbuz_cQEXWEJPxhtH_g7qVSaPZ_cfBjvhh1ZJ3HIuHvS6ttfQZBzQ23Fl0LUFAPw5_YhPgOb1TC5gdFw3jak7Qi5rfMd_XYmGTAH5-NEHX7vN8iBmNeNUu81apHTl-9HSP95peo59ilSwDBBprfZpQGc9uFLDGBRBmsZ1-0IJHz', 'width': 3024}]",ChIJUVi2l6y5iy0Rc2W5hLNDJWs,4.7,"['tourist_attraction', 'point_of_interest', 'establishment']",28.0,-0.6874313,119.7053602
"Maleni, Banawa, Donggala Regency, Central Sulawesi 94351, Indonesia",Pattiro Lappaloang,"[{'height': 3120, 'html_attributions': ['<a href=""https://maps.google.com/maps/contrib/118387861979079515256"">A Google User</a>'], 'photo_reference': 'AUGGfZmi2otowYIesZw_YfPpe7J-nUnmE7wqcdcvfWnVUIyCJGVv4epILAVcOOp7n6_cRFmk1uaV7iF83_0De7mM6WgT1YI4OMrDSIi9lQ8osrTeUQbTt1SZzveVZ1jioH3C0aV77OkOA1Rvnc1TQK94uY52OiXz0DBTe93Vd_pUbMfOlgeE', 'width': 4160}]",ChIJPZGOjgK5iy0RO_rOi5W-sUE,4.6,"['tourist_attraction', 'point_of_interest', 'establishment']",14.0,-0.6751768,119.7334383
"XPMP+4M, Tavanggeli, Kec. Pinembani, Kabupaten Donggala, Sulawesi Tengah, Indonesia",Bantaya tavanggeli,,ChIJzXSgWwyLiy0RiXHDQe5M0RE,5.0,"['tourist_attraction', 'point_of_interest', 'establishment']",1.0,-1.0171875,119.7366875
"6QWP+44M https://maps.google.com/?q=-0.754363,119.786896, Loli Tasiburi, Banawa, Donggala Regency, Central Sulawesi 94351, Indonesia",Wisata Pantai dan Kuliner Loli Tasiburi,"[{'height': 1080, 'html_attributions': ['<a href=""https://maps.google.com/maps/contrib/111417592108037023354"">Dunia Ababil</a>'], 'photo_reference': 'AUGGfZmCqcZx4LzXhN03edUa_xhQ_joeMv0yrVnrymtRwcXlKQi6aXRDKePjdtvlrXHG_k2_0uovCPWh8SEEbEH7wKSKknXSh-dyyYIzSqt_IMww_DS2TC9n7JFP0UNzhjA33LWr26ICsP-Xg2naWaLuQaMmcR8D_6TfB7BQWA8SsV-yW42M', 'width': 1920}]",ChIJpWr0tL2_iy0R_oHO-Eu5sbc,4.5,"['tourist_attraction', 'point_of_interest', 'establishment']",19.0,-0.754088,119.7865819
"8PG9+G3Q, Boneoge, Banawa, Donggala Regency, Central Sulawesi, Indonesia",Pantai Sunset,"[{'height': 2848, 'html_attributions': ['<a href=""https://maps.google.com/maps/contrib/113912097615707083902"">ferah cyne</a>'], 'photo_reference': 'AUGGfZnoWLSRy5sJ3ISDG9dwVqDnPSPiEQ2Y6UVHL8kX8kdZu3G5frvLWq5sOgxigA-5Y-9qRvOX7OHfx_koBxWwChc88sw0DlggUCPfm4-_AzaHYZ2bcMfHKCG-ImVK24yU1DUm_LrHG5PZrFnrtCshQB4XPKloTjCUAGfAf9K__6YHlWZ3', 'width': 4272}]",ChIJKYGcoBm5iy0ReehPPDyJWxA,4.6,"['tourist_attraction', 'point_of_interest', 'establishment']",5.0,-0.6736658999999999,119.7177653
"8PPF+V7V, Boneoge, Banawa, Donggala Regency, Central Sulawesi 94351, Indonesia",Lr. Tanggul Boneoge,"[{'height': 3704, 'html_attributions': ['<a href=""https://maps.google.com/maps/contrib/114110473200964836880"">Mirna Raher</a>'], 'photo_reference': 'AUGGfZmf9jkDxwrlLFB5lSTQsqzfjY4hYP2xercu_x4sQHGf1GedaQ46HFuRZJlAI8Fnh9hAClixtin0wR4vyZCIpP4dxEuxxQZ-t0mK5kyEIlS3cHYfImJ6A_qAB5lgywjT-t3syWG3muu_jB1G_bj-_jR5UwNbTApRVtcbqUQdWk0No093', 'width': 3000}]",ChIJYWeuW-W5iy0R_amcWbDEo38,2.5,"['tourist_attraction', 'point_of_interest', 'establishment']",2.0,-0.662756,119.7231681
"8PG9+R4W, Boneoge, Banawa, Donggala Regency, Central Sulawesi, Indonesia",Pantai Pasir Putih Boneoge,"[{'height': 3000, 'html_attributions': ['<a href=""https://maps.google.com/maps/contrib/100157025765033454431"">A Google User</a>'], 'photo_reference': 'AUGGfZmyVrhohDMTb06ErH2kSMkwwG5usBaDCwW2cSDjY_Aeot7BD5hADAY-tqc0j9u7fteB8SOwBUoiUcQAPdCI0e-yA_RmIVFatjkdKMRiO1v4OnjLHLSRAlbGXd71par_PJ9btea25FygMgpaFRqMjgYgUNacSGwOTGUN065jx3XFSmjV', 'width': 4000}]",ChIJRQeVT_e5iy0RZHuFyR-ThLg,5.0,"['tourist_attraction', 'point_of_interest', 'establishment']",2.0,-0.6728857,119.7178419
"8QF3+QR9, Jl. Poros Palu - Mamuju, Tj. Batu, Kec. Banawa Tengah, Kabupaten Donggala, Sulawesi Tengah 94351, Indonesia",Pohon Mati Goneganti,"[{'height': 1080, 'html_attributions': ['<a href=""https://maps.google.com/maps/contrib/102088846168998332982"">Adityah Kasim</a>'], 'photo_reference': 'AUGGfZnxl0GCJsWysaPcmyXZO-LUFwao_06C4iCuSkNd_BjU7vry__Iz1xmIrowYZbi0kcZ2E0pB9zdDBPqQg5Mr9R_yDZZHceqja16WZos6C8LlGJ4FH0Qgug4q8ewtA8TAkSRHZFlEZ_kMSSISXUTrmFYq1-RuJyYGCV3InIRUJiF9TU0z', 'width': 1620}]",ChIJ-yt5T4m5iy0RFwuVm6dMY3w,4.5,"['tourist_attraction', 'point_of_interest', 'establishment']",2.0,-0.6755772,119.7546013
"7P29+W8F, Lumbudolo, Banawa Tengah, Donggala Regency, Central Sulawesi 94351, Indonesia",ValaLoe,"[{'height': 420, 'html_attributions': ['<a href=""https://maps.google.com/maps/contrib/104037526462722010991"">Kaylila El</a>'], 'photo_reference': 'AUGGfZnpgLXRbPWKdhFu4ah2evvaFmVoG4GEwdiGXQkFnrF4kfikAxlU48Iwu-fzyVbMMBttZwW6a7V0T7uudleyMResACI1NKu20qcCShQORBXePomvijRhO2ySh7S1ZBTttF6WEXPGRYvoq3bcyz8xIV9kOQIkLzxKiEhY1dGiZkzERE3h', 'width': 630}]",ChIJVceRyqq_iy0R6NyMwWhuFik,5.0,"['campground', 'park', 'lodging', 'point_of_interest', 'establishment']",1.0,-0.7476921,119.7182905
"8Q27+P84, Jl. Poros Palu - Mamuju, Kabonga Besar, Kec. Banawa Tengah, Kabupaten Donggala, Sulawesi Tengah 94351, Indonesia",Pulau Levuto Kabonga,,ChIJ8V3fCo65iy0RmAQsyJgwGZw,1.0,"['tourist_attraction', 'point_of_interest', 'establishment']",1.0,-0.6982398000000001,119.7633236
"Pusat Laut Donggala, Towale, Banawa Tengah, Donggala Regency, Central Sulawesi 94351, Indonesia",Pusat Laut Donggala,"[{'height': 2992, 'html_attributions': ['<a href=""https://maps.google.com/maps/contrib/108943634954411381359"">Norman Marantika</a>'], 'photo_reference': 'AUGGfZmF2-jEedaxclSGlzBR72Vj5XdR1YH4YRNDIakLeH_a5Vltba-RNWNtplkY74sXSPS420Gs_UIqqjMVNJLizeN5RXTjxMeaxU8cXUa320bIy0BHeRnVOEm3ULno0CDd8hJVGkZdoeaB7wCaf0UoHV1FTlZ9N1SZJLM_bsjGVitvOA5y', 'width': 2992}]",ChIJXyB9ZJG7iy0RvO9mLncEzX0,4.4,"['natural_feature', 'establishment']",517.0,-0.7096954,119.6668974
"6MWM+9HR, Jl. Poros Majene - Mamuju, Tosale, Kec. Banawa Tengah, Kabupaten Donggala, Sulawesi Tengah 94351, Indonesia",Persinggahan Donggala,"[{'height': 2250, 'html_attributions': ['<a href=""https://maps.google.com/maps/contrib/113720732435813666679"">alzenius ST</a>'], 'photo_reference': 'AUGGfZkQg2UATbZrRTPcSVNoRkEhOwwNu2oQuDApIdL6eKqO_gDWdnRZi1fbzeBgUDKNALXjTRxBcmWsabE3Nw33bnKuZHdyknbhp5H2E_c5jF1olY7kArvixTYRkoEs9ifCJ4ejRX-IGbuEGQRMq3PDUTF6rZtlpkJWAKMRWxK_JUCwSP3N', 'width': 4000}]",ChIJERsm6y-9iy0R-uDcsKv4nD8,4.5,"['point_of_interest', 'establishment']",22.0,-0.7540222999999999,119.6838798
"7MQX+XM3, Limboro, Banawa Tengah, Donggala Regency, Central Sulawesi 94351, Indonesia",Tongge Island And Resort,"[{'height': 864, 'html_attributions': ['<a href=""https://maps.google.com/maps/contrib/101072331096677672961"">Usmar Ebenz</a>'], 'photo_reference': 'AUGGfZn3JPWDR1iXCNi8wrT_YoOXIVrTFVYlAjhqpKdP0_vOsF8Hf8JTl_F-r-qxAEN4lOMWrRZBtnylJ1TP6iHC8EaVaa7Qo2-rdXQpTjtirbor0MZz7tv1mxi8va9fALmd-uBlF_6bo_BqJfDEI67PxxTqAYi8JM5Hl8X2Ypm3Avz9F1UJ', 'width': 1152}]",ChIJAQAAAFm5iy0R-7KiAvwYBkY,5.0,"['spa', 'lodging', 'point_of_interest', 'establishment']",1.0,-0.7101215,119.6991642
"Pantai Kaluku, Limboro, Banawa Tengah, Donggala Regency, Central Sulawesi 94351, Indonesia",Pantai Kaluku,"[{'height': 2250, 'html_attributions': ['<a href=""https://maps.google.com/maps/contrib/113623885814251391506"">Agus Karundeng</a>'], 'photo_reference': 'AUGGfZkJsOVrh8VkHoH0YxbWmKvQWnEEF4soLIYHXbdbLk7gxPQdOsvnPwk6ee5aXejRYZtB4Pt7xxcp4ZE7UQmGaEq6j8YS4t6oCiXPGu5V-tRJrQNf53OY2_6dVd4eq6bUmiDbesqg-hOv-jxH7TGJdMuL5GcyIhXhJAEaW34d5mm1GShy', 'width': 4000}]",ChIJJ9El0em7iy0RvqorOfDlu4I,4.4,"['natural_feature', 'establishment']",248.0,-0.7033762,119.6842912
"2HXM+4HJ, Unnamed Road, Malino, Tommo, Kabupaten Donggala, Sulawesi Tengah 94362, Indonesia",Kasimbar banawa selatan,,ChIJMTT7_eqFiy0RpjgYQizebVM,4.5,"['lodging', 'point_of_interest', 'establishment']",6.0,-0.9521756000000001,119.5838603
"4HGC+H4P, Surumana, Sarjo, Donggala Regency, Central Sulawesi 94351, Indonesia","Perbatasan Sulteng-Sulbar, Desa Surumana-Sarjo Indonesia","[{'height': 1020, 'html_attributions': ['<a href=""https://maps.google.com/maps/contrib/106210526338399228701"">A Google User</a>'], 'photo_reference': 'AUGGfZmpch6ieJ7npQT1E00E-ExDsrBBA5q3BMCWx0LcCn2f1Rw_iI-K1r-vtb3C7bTdr837PBDFMfEfzN7vL1PbwppTszOBjyjuLJz2KiITmDkPXdcZfIiX75kW0q1GTbKxa4GCBVWYJtA9wiEnl95wPoIINfotUHKHxTWM7kg19-_Dp2dO', 'width': 765}]",ChIJRQoDfMabiy0R_tTyZZQ6oxk,5.0,"['point_of_interest', 'establishment']",2.0,-0.8735341,119.5703217
"Salubomba, Banawa Tengah, Donggala Regency, Central Sulawesi 94351, Indonesia",Pondok senja Salubomba,"[{'height': 3897, 'html_attributions': ['<a href=""https://maps.google.com/maps/contrib/118315969575921445731"">A Google User</a>'], 'photo_reference': 'AUGGfZldmHL3LXlRjuZBOU6t_2hD-nkbH_LsqTTv2CZZZHlE3zl-VFGvVxow3g5r4TN-iTSAFe7nuSV3l9htN-YKnSIW571bPhw1iA8keDtpZSdd_tVeQSngy6o3b7wwrNM2aKcizAk05PsEtqGBxwwa2DixlGAZ0uEBsVWdIc9XOmKKGTXD', 'width': 5846}]",ChIJMfSP_Z29iy0Rbd8kT4kn84o,5.0,"['lodging', 'point_of_interest', 'establishment']",5.0,-0.7451403999999999,119.6859354
"4HP2+WC, Sarjo, Pasangkayu, West Sulawesi, Indonesia",Wisata Pantai Kalao-Lao,"[{'height': 1080, 'html_attributions': ['<a href=""https://maps.google.com/maps/contrib/109257477881121174962"">A Google User</a>'], 'photo_reference': 'AUGGfZn9xlOGldLryI0MvdQGomz_iP0x6VdVsRtLjJFvXyCyUauJq9zxQ15y7p4Ci3Xo5Txo2DK16h5B6n4F1jFdUa1PVd_9wAwExL_2souxaNIelF6hk3tuJDnIHOdpkXuJXb38zdOJoT9VAQymAUsZKt-Bjdc1dZBIf8zUyHCKYioKo61c', 'width': 1920}]",ChIJt8oSWkmbiy0RX2rVh0hG9vQ,5.0,"['tourist_attraction', 'point_of_interest', 'establishment']",2.0,-0.8626815,119.5510806
"Towale, Banawa Tengah, Donggala Regency, Central Sulawesi 94351, Indonesia",Kirana Beach Retreat & Spa,"[{'height': 2240, 'html_attributions': ['<a href=""https://maps.google.com/maps/contrib/115645966455036677135"">A Google User</a>'], 'photo_reference': 'AUGGfZmjV1Nt7UkcooYK8aWzvx-b-0K9XXYwLBcJg14VqkZifHZV1g0QagZ2cU8KUZEGe_gphXXQmKqG1juhtrWj5eCuy3wRmhdcubxcdwp-x23bGzpU_wGC_JyRKNYlmDCAO4JWZF6_NQQwsRNCK_5JVJ63wB_0byAd3md8gpsNoIC6glsf', 'width': 4608}]",ChIJB3iKeAy8iy0RUTjUAhv0Dco,4.3,"['spa', 'lodging', 'restaurant', 'food', 'point_of_interest', 'establishment']",6.0,-0.7166273,119.6622996
"3GFF+4CR, Maponu, Sarjo, Pasangkayu, West Sulawesi 91574, Indonesia",Pantai Wisata Maponu,"[{'height': 960, 'html_attributions': ['<a href=""https://maps.google.com/maps/contrib/102679195515135663484"">A Google User</a>'], 'photo_reference': 'AUGGfZmcCLDk9XxglkZKCx_8vpDfBf5Yao9WwW8QG_r2z3RAVXRxZoAhgj3BB393s11bxBhqqZWOF5IRAW8sspsJJId6EUXg7isyd9fpdszsUCZzyqmBxtkKREGZSc8lZ6WKRqm6Qp6kvZ3qVCtyl6FsTLxFYKpbBnBK0QgsOtV76L26ViuS', 'width': 720}]",ChIJKwZOU3eFiy0R9-Opyc-twzo,4.7,"['tourist_attraction', 'point_of_interest', 'establishment']",10.0,-0.9271438999999999,119.5235309
"4HFP+XJ4, Watatu, Banawa Selatan, Donggala Regency, Central Sulawesi 94351, Indonesia",Penginapan Simpati,"[{'height': 3472, 'html_attributions': ['<a href=""https://maps.google.com/maps/contrib/104241985060367026741"">muslimin hapik khawaru</a>'], 'photo_reference': 'AUGGfZnK-MPOqFILAwgaFL-RdWexghkme35xu2GxXqtz-DpLaPAmwUqAl8n-c0ChtIF4r5E8ztDP8ArE_NyquFeTwhLUG-E83agBHYsoaeXsMvvPvJhReTJsJkBfc4jIQZeq5IP2nmDYaUQOZirKy6vj7E3YOOBMb-T8ea2fHbd5wGoXtETO', 'width': 4640}]",ChIJW0PFAmyaiy0RDOiN1doIdvU,4.0,"['lodging', 'point_of_interest', 'establishment']",19.0,-0.8751196,119.5865838
"5JRG+HP, Tanahmea, Banawa Selatan, Donggala Regency, Central Sulawesi, Indonesia",Usman Taher,,ChIJfei2zxyXiy0Rc3zVPofuC7w,5.0,"['lodging', 'point_of_interest', 'establishment']",1.0,-0.8086036999999999,119.626775
"2GW5+F8R, Tampaure, Bambaira, Pasangkayu, West Sulawesi 91574, Indonesia",Tampaure Beach,"[{'height': 1080, 'html_attributions': ['<a href=""https://maps.google.com/maps/contrib/111473718626145192906"">Ahmad Mirna</a>'], 'photo_reference': 'AUGGfZm7qt0phazWavV0Emhp0ThY7Qq9PGLbX_raIXHm3moYBJZHyHqjsrlB9kgrVO860tG18lxttIOxxaZRS-0Uu_x00HI3EZthaAG2fcOwZoxIOu6KRZNjz-enGt9_uCsvEF-3eCxDjSsdjx2MhZQJ6N2ef94epCROFJ0OkxkY8Q3_Z7E5', 'width': 1920}]",ChIJhSvWmH-Diy0RI0Co6uLMqcE,3.9,"['tourist_attraction', 'point_of_interest', 'establishment']",15.0,-0.9537648999999999,119.5082662
"6R43+Q35, Loli Oge, Banawa, Donggala Regency, Central Sulawesi 94351, Indonesia",Buvu Uma Tu'a,"[{'height': 3120, 'html_attributions': ['<a href=""https://maps.google.com/maps/contrib/100528351624523860383"">A Google User</a>'], 'photo_reference': 'AUGGfZl_Tkurn9RDo8vShvWV30ksKLPASTdOOx7PXHZw2gkJdPr3yWsMoO8wjZMPRs9TrQXveEjTiRa108XMOAjzq_qxAQqXrKTUwuEx4lP6ZG4PfOec7FCaf8VeWYZiaMVOw2OXhogVhau11v0HYJ7vYODQZD8z8zJhMQRlBuuV84A1UnQr', 'width': 4160}]",ChIJs9isCgDriy0RfXDCRBDin68,5.0,"['tourist_attraction', 'point_of_interest', 'establishment']",3.0,-0.7931206,119.8027217
"Boneoge, Banawa, Donggala Regency, Central Sulawesi, Indonesia",Kura-kura beach,"[{'height': 1066, 'html_attributions': ['<a href=""https://maps.google.com/maps/contrib/109090345959403710121"">A Google User</a>'], 'photo_reference': 'AUGGfZlLwnVObktegNOSrQ1nKnRaM7kOalcf4xwHHDxNLyQ3ak8I1ew5hRi3OLP-YOSHsNLCcmZMVb52NwU3UHNKHS7v10A7oXo2VWWB9gXXyd0HCmvNhc-uaVUnFaLfbtqYmPljLD9_aFwYd3X4cr4erR9TfpNYznVjcgz8ZWPW9dV5MH2F', 'width': 1600}]",ChIJTbbqzkq5iy0RJJ1otKNlmp4,4.4,"['tourist_attraction', 'point_of_interest', 'establishment']",170.0,-0.6530538,119.7259311
"8PWG+PX, Boneoge, Banawa, Donggala Regency, Central Sulawesi, Indonesia",Sunset Rumah 40 Cafe Resto & Villa,"[{'height': 3000, 'html_attributions': ['<a href=""https://maps.google.com/maps/contrib/103198518971580871653"">Andi Efan</a>'], 'photo_reference': 'AUGGfZmkBsD-RD15GLnBrzrcJ91XaBjB_wY1Ib810NBSZ0VY_h7QuvUtcmuIeXZUyv_u3Kl4q-T_MGXwEdEuKCx71S-HGWSeJYMdd201lKdG1-71AbI0YIU_xCZqS45e93zVhAtCJN0779UJt21w50TI8HHI36E1pXR_yY39BjJegAKtQS9l', 'width': 4000}]",ChIJeRw_YQ23iy0RF0QgpVVozu0,4.1,"['tourist_attraction', 'point_of_interest', 'establishment']",230.0,-0.6531359000000001,119.7273812
"8PWG+PX, Boneoge, Banawa, Donggala Regency, Central Sulawesi, Indonesia",My Rich Beach,"[{'height': 3648, 'html_attributions': ['<a href=""https://maps.google.com/maps/contrib/100231415849828429300"">A Google User</a>'], 'photo_reference': 'AUGGfZkISLT3-kXTPTxaf8_RNIrCf4XSFYFLqrxpLXlwnmESsWeQV8GsVPAfAh_TleNV17rdpakXRm2s6YMa3Z4d6_XfDmf9R8Fbi35BwhDuW-NOZHzqKITwyOSh149Vj82W_K6z5CHrp5CO39eo6DYdDZoohkt5ZcuKMKA4-ii3LOHsEF1n', 'width': 5472}]",ChIJy_0rKwC3iy0R4ZKr-FRRESw,4.4,"['tourist_attraction', 'point_of_interest', 'establishment']",7.0,-0.6521043999999999,119.7264025
"9P3Q+JMV, Labuan Bajo, Banawa, Donggala Regency, Central Sulawesi 94351, Indonesia",Tanjung Karang Beach Donggala,"[{'height': 2448, 'html_attributions': ['<a href=""https://maps.google.com/maps/contrib/103185394572457152970"">amang wib</a>'], 'photo_reference': 'AUGGfZlGTj2Rb_Mal_FYcBHLetawfNcg1ca4WE68uTPmQWm16oAFEBpXEO8RysUrJxynYUXeFBdpjr_-Hcg1yRNQ2WZ6I_PgAqMrpT-hwEEOrpv63GZV5oYh7LkiZ9kpiNCyqkMMPrdtcXTDD5Owsvp_uQ_sO3qG0uptPydW-S6VeoEaW0Dx', 'width': 3264}]",ChIJT8pMOHe3iy0RPkclhtJKetA,4.4,"['tourist_attraction', 'point_of_interest', 'establishment']",411.0,-0.6458886,119.739182
"7QX3+4M5 Ampera, Jl. Tanjakan Ganti, Kabonga Kecil, Kec. Banawa, Kabupaten Donggala, Sulawesi Tengah 94351, Indonesia","Kabonga Kecil, Kabupaten Donggala, Sulawesi Tengah","[{'height': 3264, 'html_attributions': ['<a href=""https://maps.google.com/maps/contrib/100157025765033454431"">A Google User</a>'], 'photo_reference': 'AUGGfZksaohcSGzebXXkTBBTzXIPL224bwC-CZS9GHUCotjm3aVRMwIYOjrYNvgc_FZdCSs6wffoWywp85b4BGkcyHRKz68nzBul54Eqv9ck2OrH1bUuQrzNJDRVVRxhV7RzL3vraNoArOGjtMnLw6qUjRx9aEiBCU2E4rjSbKipFy94GNtU', 'width': 2448}]",ChIJq5cGN3G5iy0RaOo1fQ718gE,0.0,"['park', 'point_of_interest', 'establishment']",0.0,-0.7016312,119.7518848
"8RW6+F2M, Lero Tatari, Kec. Sindue, Kabupaten Donggala, Sulawesi Tengah 94353, Indonesia",Bionga Beach,,ChIJ9-yKSm_Hiy0R_AI6567u6Fg,0.0,"['tourist_attraction', 'point_of_interest', 'establishment']",0.0,-0.653783,119.8100495
"8RP9+757, Labuan Salumbone, Labuan, Donggala Regency, Central Sulawesi 94353, Indonesia",Al Azhar Beach Camp,"[{'height': 2340, 'html_attributions': ['<a href=""https://maps.google.com/maps/contrib/100018606046999654631"">A Google User</a>'], 'photo_reference': 'AUGGfZlArdYCrx3iHLsWonqpiNOcD-MomoVAzsH6CsnXLIV4AWRfbb-Qi4oMGu7Ujy4T3e0sT8_35lG5vl3gF5kxZNqWV2jqjVCR1PipO5WR-o7OWaX5HMENov3mSiWqUyiLopy_CBR3AmG94vafvOApZEfF9VQF24kqBMV2HxsweqUXFjeU', 'width': 4160}]",ChIJI3fAQHPHiy0Rbc7Cxgkmntw,4.6,"['tourist_attraction', 'point_of_interest', 'establishment']",33.0,-0.6643414999999999,119.8179144
"8RM9+79H, Labuan Salumbone, Labuan, Donggala Regency, Central Sulawesi 94353, Indonesia",Gugusan Batu Karang Pantai Salumbone,"[{'height': 4096, 'html_attributions': ['<a href=""https://maps.google.com/maps/contrib/113868558548479691058"">A Google User</a>'], 'photo_reference': 'AUGGfZk9eyQnyD6QditNqfnjM5XQ-gdxIPYt3bVzGHB7aMZAv4XQgi_x4mbjaFU_DQmm13SXWbe_fAKg6iv6z6wCH2NoTMK0Xl3bPqvVcO4aZCqetgD14Rwz0A7u4AOwxNFraWlojLN1xR8YnyPd0R03jeqjlrs4_XVaEG8g-LB3AVWyprjK', 'width': 3072}]",ChIJdS51YwDHiy0R0DTvGjsP9nU,0.0,"['tourist_attraction', 'point_of_interest', 'establishment']",0.0,-0.6669986999999999,119.8176466
"Tanjung Karang, Jl. Karang Ria, Boneoge, Kec. Banawa, Kabupaten Donggala, Sulawesi Tengah 94351, Indonesia",Tanjung Karang,"[{'height': 3468, 'html_attributions': ['<a href=""https://maps.google.com/maps/contrib/117817513283918212116"">A Google User</a>'], 'photo_reference': 'AUGGfZnSzRe70yAcqghCvXVDbzGXd93iI6NRkcKKyHeA4ivtyqFEF3X0k_3tpaQCgqGkvrh2Q3sBnkUOB63y8wKFxnjFHdJBfBkRhJxai4KSqAZ09nJBnsA-UqzffSCXeYsi2c8AQSrytr0eWYi6LyA3ujGFYo9i9IkABNSfePgVLRLTVuqt', 'width': 4624}]",ChIJ6WItvG-3iy0Rq20J4yedC-A,4.2,"['natural_feature', 'establishment']",37.0,-0.6447222,119.7291667
"5Q3V+86W, Buluri, Ulujadi, Palu City, Central Sulawesi, Indonesia",LOKASI KEMPING,,ChIJURFnHUXriy0Ra0DD9ug39vE,2.0,"['tourist_attraction', 'point_of_interest', 'establishment']",1.0,-0.8466427,119.7930658
"8PGQ+PV7, Boya, Banawa, Donggala Regency, Central Sulawesi 94351, Indonesia",Park City Donggala,"[{'height': 3120, 'html_attributions': ['<a href=""https://maps.google.com/maps/contrib/104212323505197999380"">umrah 678</a>'], 'photo_reference': 'AUGGfZnHDIDnYmGW63BQpOhizZwLU1Qs9BWIQwju56Mt1ufLTRCGV-RjYRr1pPFCfsA4OF4_INDqZrJbGTCLeg5vCuGgcmH9_fTjfLGwqKeOy6gIl3iu6EVnA-f7BpcUCJ0PDY5Mxw7eF-G-uxx5vyJkgIOrLHfsamX999iUXqaRLO7zui_D', 'width': 4208}]",ChIJeX3dVbS5iy0Rdcg4IWH80uc,4.0,"['amusement_park', 'park', 'point_of_interest', 'establishment']",243.0,-0.6732056,119.7396757
"Buluri, Palu Barat, Palu City, Central Sulawesi 94229, Indonesia",Puncak Salena,"[{'height': 1844, 'html_attributions': ['<a href=""https://maps.google.com/maps/contrib/106138237068122971559"">Jafarudin Saleh</a>'], 'photo_reference': 'AUGGfZmmkd1fhlCRLQdJggleJJJfq2QUccv_fcElqk0lDrgbMKoIDoY4Y4dc-dJ6NO8x2TbtvWGPTSXSKm98szuzVqMzRfVBVY5sbR9OQQrUtGNLybfiHOkQGuE8gOS_iQZp8cVo3pY5WfSqE3N0PAFcoAoa7WztYaKLj452sVXWtJ1uZOx7', 'width': 4000}]",ChIJo7lh3ODriy0RW76-Fwkq9iA,4.7,"['tourist_attraction', 'point_of_interest', 'establishment']",128.0,-0.8460174,119.7915356
"6Q4M+6VJ, Talaga, Damsol, Donggala Regency, Central Sulawesi, Indonesia",Kawasan Food Estate Desa Talaga,"[{'height': 2160, 'html_attributions': ['<a href=""https://maps.google.com/maps/contrib/111472141750562982274"">Redy Fahrun</a>'], 'photo_reference': 'AUGGfZnLI8vTlRtxc58y9037wsW8blqlF3kS_rwOouARR6ot8H8ZcqemLGMy8arjNz6VfdVDojWy6BSyL3qTo39UdD0QIATE5cyDecItcnceugzM7B5U__30Y9IS8j6l5qiT_puLTmGHlGPtcR_wWLEo1quiYkPQXUeqw-PyD_DbcnHJ0oDn', 'width': 3840}]",ChIJaXIZZ_eVdTIRmSamDi3OjXM,4.0,"['tourist_attraction', 'point_of_interest', 'establishment']",2.0,0.2055999,119.7846343
"9VMJ+76, Rerang, Damsol, Donggala Regency, Central Sulawesi, Indonesia",Wisata Pantai Berlian,"[{'height': 3264, 'html_attributions': ['<a href=""https://maps.google.com/maps/contrib/116218907637639585888"">A Google User</a>'], 'photo_reference': 'AUGGfZkDn0YrNoc_iNUOHYZqPJ13eDvJaHZGUdq8BLyC0h9rF42bDIcou15tyXU4mxbkX1J1WTTZ4HthUxZJ8b0dhQMcQdTPTl06VU63Jq3IlpK9MBQ15DFxx34KTObqTn0NHDafgoFubQsNAxkEUYeFjjoQtdoUtB-m2Xl7EAMj-zKq-7jK', 'width': 2448}]",ChIJBRnfEZzHdTIR2E3-S-kr_LM,4.3,"['tourist_attraction', 'point_of_interest', 'establishment']",3.0,0.3831704,119.88051
"8V58+M6, Rerang, Damsol, Donggala Regency, Central Sulawesi, Indonesia",Manimo beach,"[{'height': 2252, 'html_attributions': ['<a href=""https://maps.google.com/maps/contrib/100218444694204212508"">A Google User</a>'], 'photo_reference': 'AUGGfZkuNriTP2SgFPiIjM1cviMKYWkgZeo93qPaEuD6SXw4aAF3ZCtDmQb0JTmdRK6Q-Wdq5wodDk7vgCqKj_qZCVvZVKKBv5RO6C89bY0hyHDLZ8z4eKhNWdn2xA0gR5lH_DB44G2W5gFbhhSWpw6exoh3O1sk6JnSk5-jwOfNN7Swukvr', 'width': 4000}]",ChIJ8ULBOgDBdTIRRcmJv1-8tf4,4.5,"['tourist_attraction', 'point_of_interest', 'establishment']",2.0,0.3091777,119.8656065
"6QHQ+HG3, Pantai bambahano, Kec. Damsol, Kabupaten Donggala, Sulawesi Tengah, Indonesia",Pantai Propat semata/ wisata Goa,"[{'height': 4608, 'html_attributions': ['<a href=""https://maps.google.com/maps/contrib/101014180091983803558"">arko riyawan</a>'], 'photo_reference': 'AUGGfZmZYu8ldJhcpMZ1dpdVaA28_oOO7jJMDOMXBx3XfquLPeICMrAr4QXexNrnCxVOk2MWURWzEPoiVBblK0mKODfVM72i_ZcImQZKA4TZvtJ5RAXrJhylm-LdzlKamnrRj5t_gaws5deOs6haJ-hjGqqhOQFMsCUat3Jf5OB_ox8aVX6x', 'width': 2184}]",ChIJVZ3POcXrdTIRO-hzqhSmIwU,3.0,"['tourist_attraction', 'point_of_interest', 'establishment']",2.0,0.2288877,119.7887846
"8V77+C4H, Rerang, Damsol, Donggala Regency, Central Sulawesi 94356, Indonesia",Pantai Majang,"[{'height': 2448, 'html_attributions': ['<a href=""https://maps.google.com/maps/contrib/112743278114454996777"">MASPAR MUSLIMIN</a>'], 'photo_reference': 'AUGGfZmuJdZVwFRSZCrgvWHf5c6CXHlJdTvUKaxU5ka5PqbusZ9g3-CJeXW_vmsbCtFigAixw7_Fo4ibLmG_SGIDR2vBJMs4jT5bAJlORcSkco_VfXtcEju6HQV_3YGrmuzl0N0kq0Sp6WkTxPE8MFHgWfDvReWLEULWcCq2U9GZStVTzDsy', 'width': 3264}]",ChIJ04nQuEbBdTIREGH1ko29cCw,4.1,"['tourist_attraction', 'point_of_interest', 'establishment']",36.0,0.313555,119.8628639
"8VP4+9M, Rerang, Damsol, Donggala Regency, Central Sulawesi, Indonesia",Kebun kelapa,,ChIJC1pQbwDHdTIR9MZN6R--2z0,0.0,"['tourist_attraction', 'point_of_interest', 'establishment']",0.0,0.3359823,119.8567418
"FW78+HF9, Pangalasiang, Sojol, Donggala Regency, Central Sulawesi, Indonesia",Wisata Mangrove,,ChIJKUnyQQDNdTIRU5q1bbsUxZ0,0.0,"['tourist_attraction', 'point_of_interest', 'establishment']",0.0,0.4639218000000001,119.9162276
"CV9Q+C6, Pangalasiang, Sojol, Donggala Regency, Central Sulawesi, Indonesia",Pantai Sipator,,ChIJq9VicgDPdTIRDP0EJ85uzos,0.0,"['tourist_attraction', 'point_of_interest', 'establishment']",0.0,0.418506,119.8880304
"FWH3+V6G, Pangalasiang, Sojol, Donggala Regency, Central Sulawesi, Indonesia",Pantai Pangalaseang,"[{'height': 3072, 'html_attributions': ['<a href=""https://maps.google.com/maps/contrib/115540957721291208924"">AbD GaFoeR</a>'], 'photo_reference': 'AUGGfZlZHkPKFWNErQB8YGhSl3zRA6K8s1JvVpoZQl7BucHWh_1MtWJpEowjM6VbctwrmSRn38pqZZ6hzJ1_STLBj31CovtAUz-wW9269_3lW1wmzJFmLaAGGz8zv94iwKr4lBiwPzpGZsafjwJWXgI5VEY8VncHwZCvx472_NsOh-JoHKQx', 'width': 4080}]",ChIJOZn9cITNdTIRen_6bx-ZK-8,4.5,"['tourist_attraction', 'point_of_interest', 'establishment']",15.0,0.479692,119.9030733
"FXJG+8HF, Tonggolobibi, Sojol, Donggala Regency, Central Sulawesi 94356, Indonesia",Pantai Wisata Lembosu Desa Tonggolobibi,"[{'height': 2322, 'html_attributions': ['<a href=""https://maps.google.com/maps/contrib/103197648860985332979"">hamdy dhi</a>'], 'photo_reference': 'AUGGfZnZEaF5Hj5M1nqOj-375bd2Ollrtzn4kSExZRMM9udwO2Ck-R70g3VSaDNm3Qs5JVL7PYSmG1iSCsmcCc69CmgccgfgwDVieUNHG5hT8phTThBWQiAKediQmCtHbc8dFPIXr6td_Ht4uYZSqsYll4Jo0CUaxryVOmx_bzmHcpuI34IY', 'width': 4128}]",ChIJoelAnHbRdTIR9qN7TQnVLfE,5.0,"['tourist_attraction', 'point_of_interest', 'establishment']",1.0,0.4808249,119.9764346
"9VJ6+84G, Unnamed Road, Labuan Toposo, Kec. Labuan, Kabupaten Donggala, Sulawesi Tengah 94353, Indonesia",Water Jomblo,"[{'height': 1440, 'html_attributions': ['<a href=""https://maps.google.com/maps/contrib/104377626880492068599"">Tagfir Firlan</a>'], 'photo_reference': 'AUGGfZmaGQ8qHqx2VYsOgubeI0-7p0WgYpgrH3e3er889OXSH_eLjnOwJyM8nsale9ro1qu-m-c-FKzjTEkDZ0ihwIprXW-vtXpKq4oiy1CmXUFUsMjy66nGxkI9hBYlFMiI72alx5wBTd-kgSaOioD19MXXoGDs2LgsXPNIrRN9rAs833bU', 'width': 1440}]",ChIJu9KM7inJiy0Rl8et8As4yj4,3.0,"['tourist_attraction', 'point_of_interest', 'establishment']",4.0,-0.619193,119.8603326
"XPC6+375, Dangaraa, Pinembani, Donggala Regency, Central Sulawesi 94362, Indonesia","Dangara,a pinembani",,ChIJHXRUGgCLiy0RowF6MvTJSL0,0.0,"['park', 'point_of_interest', 'establishment']",0.0,-1.0298674,119.7107494
"XQ8C+5F, Tamodo, Pinembani, Donggala Regency, Central Sulawesi 94362, Indonesia",Puncak Tawoni,,ChIJWfqHjbCLiy0RlDw0KKwhT24,0.0,"['park', 'point_of_interest', 'establishment']",0.0,-1.034565,119.771187
"QH6C+MP, Bonemarawa, Rio Pakava, Donggala Regency, Central Sulawesi, Indonesia",Lahan duren,"[{'height': 4608, 'html_attributions': ['<a href=""https://maps.google.com/maps/contrib/112644321513909949814"">A Google User</a>'], 'photo_reference': 'AUGGfZmpebnoolmFRqYvdKS_2V_9ApifTV1aIjslIC8_AHAgaOlSeRMYY6q3b0YNEHMZSIIwvb3NeYHRywTGkLy5J35z8v6Za7rxymZ_gM7trZolGJ-8NRfbaN7KMMUT22Vbsol2YPh9s73ukjSooHT6ID-hYI6vRkWdW5e0i89Dusg6y3bA', 'width': 2592}]",ChIJZ7BkJQBljC0RkyMKymVfpww,0.0,"['tourist_attraction', 'point_of_interest', 'establishment']",0.0,-1.2383368,119.5718573
"PH39+7VG, Pantolobete, Rio Pakava, Donggala Regency, Central Sulawesi 94362, Indonesia",Anthon Sherlin khals,,ChIJlSsWQgBnjC0RwtHXLGUODZ8,5.0,"['tourist_attraction', 'point_of_interest', 'establishment']",1.0,-1.2968125,119.5697031
"PH3P+PPC, Pantolobete, Rio Pakava, Donggala Regency, Central Sulawesi 94362, Indonesia",Pasole bete,,ChIJ3WKZgXZnjC0Rs93I_zCEUzg,0.0,"['tourist_attraction', 'point_of_interest', 'establishment']",0.0,-1.2956905,119.586766
"JHV5+MR, Lalundu, Rio Pakava, Donggala Regency, Central Sulawesi, Indonesia",Permandian sungai minti,"[{'height': 2340, 'html_attributions': ['<a href=""https://maps.google.com/maps/contrib/102007233614689496658"">Bohe Narsis</a>'], 'photo_reference': 'AUGGfZmCqmXU_jotOnqbo9PGWVshXkync6qUGpLf4NwA2DyI4kUg2LEpAusG9URstKL8uwcahcUSiAKxWn7Twuw0sH2xX8kuA3lRzHyUu1R4yFq7Chi2J14DAgPh42ZvpOVWWRedWAbggOu9jlUTW6tLKrD2VP_Sh0GUCuM_bT25P7HD8aX_', 'width': 4160}]",ChIJbb4ZZABdjC0RdkHQVngv-Qo,0.0,"['tourist_attraction', 'point_of_interest', 'establishment']",0.0,-1.3558404,119.5595282
"MGCH+X7, Minti Makmur, Rio Pakava, Donggala Regency, Central Sulawesi, Indonesia",Kebun durian Susanto hadi,,ChIJDfGSk_hdjC0R3RhykyLtOOE,0.0,"['tourist_attraction', 'point_of_interest', 'establishment']",0.0,-1.3275864,119.5281524
"MG6W+CPW, Bukit Indah, Rio Pakava, Donggala Regency, Central Sulawesi 94362, Indonesia",Pantai minti,"[{'height': 2448, 'html_attributions': ['<a href=""https://maps.google.com/maps/contrib/114372236988522510024"">Idris Ainul Adib</a>'], 'photo_reference': 'AUGGfZkmIVUZZU0PsMVY_cVQe0R5dG33kPolBU0qWvQNfzqvPe0XPs_YJDtu1hrvYeXy5Ed_t8sch_DP1Z7PBQ28_Hdz5KZKxRBsnPgWdokw1nj7e6KGd_hFj3LJUjZrWyz_UNFFvDSzgJyRtvg1Dx2foY3GTfX37rh2Z6paW6Mr3xOFj0Mx', 'width': 3264}]",ChIJoT1LYlBdjC0RtKLyAh7t0qc,5.0,"['tourist_attraction', 'point_of_interest', 'establishment']",1.0,-1.339025,119.545766
"MGVQ+5M2, Polando Jaya, Rio Pakava, Donggala Regency, Central Sulawesi 94362, Indonesia",Pondok Malam,,ChIJ9XQ8MgBnjC0R0cd8l-qfF6E,0.0,"['campground', 'lodging', 'park', 'point_of_interest', 'establishment']",0.0,-1.3060066,119.5392217
"JQ66+35, Oti, Sindue Tobata, Donggala Regency, Central Sulawesi, Indonesia",Alkhairaat Beach,,ChIJXTVQahhHii0RWUlU0vZKYnI,0.0,"['tourist_attraction', 'point_of_interest', 'establishment']",0.0,-0.389851,119.7604
"HRGP+M3H, Tamarenja, Sindue Tobata, Donggala Regency, Central Sulawesi, Indonesia",Tanjung karang,,ChIJwaGLZwA3ii0R1zH8jlJijgA,0.0,"['tourist_attraction', 'point_of_interest', 'establishment']",0.0,-0.4233155,119.8352303
"JQ47+P4, Oti, Sindue Tobata, Donggala Regency, Central Sulawesi, Indonesia",Yotje Beach,"[{'height': 1600, 'html_attributions': ['<a href=""https://maps.google.com/maps/contrib/114643767206708738206"">A Google User</a>'], 'photo_reference': 'AUGGfZnOkfiUxXJfH1bPGA2iJGXkvRdRZRv_N-0QTGvZ2qG6k7TgWsfpjbdF8fUtCtvlpp-eqfe-ZgAD2jlJO4AQMO_4-kyCuMgkTRbUrXZDJMZuWCPoBjTyko1aIAFUnwvFi6rhIaCJhNs5ScPdHV9hIxQ_KB_FFS_UcZdzRG-nlYqss4zr', 'width': 1200}]",ChIJfUzZdzNJii0Rms8F26xAwqc,0.0,"['tourist_attraction', 'point_of_interest', 'establishment']",0.0,-0.39323,119.76287
"HRMW+XP7, Tamarenja, Sindue Tobata, Donggala Regency, Central Sulawesi, Indonesia",Sumber air panas tamarenja,,ChIJGWLbRCo3ii0Rl6gzNrvLWws,0.0,"['tourist_attraction', 'point_of_interest', 'establishment']",0.0,-0.4150767,119.8468043
"HQM5+34, Batusuya, Sindue Tombusabora, Donggala Regency, Central Sulawesi, Indonesia",Pantai Batusuya,,ChIJR0CNJQNJii0RAXTwZqRqMno,0.0,"['tourist_attraction', 'point_of_interest', 'establishment']",0.0,-0.41642,119.7582681
"Jl. Tolitoli - Palu No.8, Ombo, Kec. Sirenja, Kabupaten Donggala, Sulawesi Tengah 94354, Indonesia",Pantai Ombo Sirenja,"[{'height': 3000, 'html_attributions': ['<a href=""https://maps.google.com/maps/contrib/115540957721291208924"">AbD GaFoeR</a>'], 'photo_reference': 'AUGGfZniqY5TKKkhSCCDycTVTzFzXmwmyzAkQioZ74dOE-b4wPltjTfzxkxDi4TT1jVx3JX4M19cXRgFnX1jpRQHHn7AfgLM-P1b04wbOpexjbCJuaSNTSIPd8uGAx_VP5dEmW42xq3XjoXPQSnN_6FNif12IBybjgMZK5O3eplJAM--J6qp', 'width': 4000}]",ChIJtUldKVNBii0RmdyAlMrcT9c,5.0,"['tourist_attraction', 'point_of_interest', 'establishment']",3.0,-0.2748935,119.7805764
"HQM5+34, Batusuya, Donggala Regency, Central Sulawesi, Indonesia",Pantai Labuantongo,"[{'height': 4032, 'html_attributions': ['<a href=""https://maps.google.com/maps/contrib/102088846168998332982"">Adityah Kasim</a>'], 'photo_reference': 'AUGGfZliVVJPD_RzPFPWQ9qdD4r0FhXEbQhYeR_CC_acNMl1AanTgzvr-myjT36qvDoaZQQwGU6GdVbfoBPdmonhFpBMf2tpJOAq0ivtjKpOiV7k4bXGo91w3_Iia-F7DaQqxXPfsR51yTbSN_RkMhLFqAdLQVDK6IT7hY6LxFZpjDuQUwDo', 'width': 3024}]",ChIJR4sYHrlJii0RtX5i2guZT5A,4.8,"['tourist_attraction', 'point_of_interest', 'establishment']",6.0,-0.4173678,119.7577877
"MVM2+6J, Alindau, Sindue Tobata, Donggala Regency, Central Sulawesi, Indonesia",Pengukuran Lokasi,,ChIJfTXtUAA_ii0RRk0JstmsOWA,0.0,"['park', 'point_of_interest', 'establishment']",0.0,-0.3168789,119.8515128
"MVG3+HF, Alindau, Sindue Tobata, Donggala Regency, Central Sulawesi, Indonesia",Pengukuran Lokasi 2,,ChIJ6TIdIwA_ii0R3rL3oJGUcKc,0.0,"['park', 'point_of_interest', 'establishment']",0.0,-0.3235371,119.8536294
"JQP4+WXC, Oti, Sindue Tobata, Donggala Regency, Central Sulawesi, Indonesia",Oti sindue tobata,"[{'height': 4000, 'html_attributions': ['<a href=""https://maps.google.com/maps/contrib/102875707274518401598"">A Google User</a>'], 'photo_reference': 'AUGGfZnS3fXaXh5M-zwUYvZ1--kQGpu8SGeir52ZmEKrXcYC32EolhE5IdZaqsT6skYxrR_bKEmZdt9WIRNYlabB2uZ5ENr2O4vRyCle5gLko2sRoiKpO4nR7CelPwaSS7m_M8XUAxgIV7s82Cndf-77ivSVHUdJySv_Q-2_rXuR43gp2WAi', 'width': 3000}]",ChIJGb3UZy9Hii0RY6nRDAnhthQ,5.0,"['parking', 'point_of_interest', 'establishment']",1.0,-0.3626963,119.7573884
"GQ55+XGM, Tibo, Sindue Tombusabora, Donggala Regency, Central Sulawesi, Indonesia",Spot mancing,"[{'height': 4624, 'html_attributions': ['<a href=""https://maps.google.com/maps/contrib/113099106593717024672"">A Google User</a>'], 'photo_reference': 'AUGGfZmZKlrEbyZOSM1ohjwmxmlxGXSXYRHGKo1Km5cr9wAQz71-hrx-4OHfXyQ_S_atf5-8QiUUOSdXpS7DVCFhtL8MIkPW-wSg8QAOiOkt2gQh5B6GUxn8qZg36zPMpqbjbhynRmmj6fGH3kmb5rS9CA5X15c8Rs7mcXZo66eF71oDRLuh', 'width': 2136}]",ChIJJ_A65wtLii0Rd2Lkm9A0D1s,5.0,"['tourist_attraction', 'point_of_interest', 'establishment']",1.0,-0.4907484,119.7586608
"GQ45+7P, Tibo, Sindue Tombusabora, Donggala Regency, Central Sulawesi, Indonesia",TPI Tibo,,ChIJdxuKZJRLii0RAJFAunWNxcc,0.0,"['tourist_attraction', 'point_of_interest', 'establishment']",0.0,-0.4940796,119.7595429
"FQQ9+22, Tibo, Sindue Tombusabora, Donggala Regency, Central Sulawesi, Indonesia",Pantai Indah Tibo,"[{'height': 1800, 'html_attributions': ['<a href=""https://maps.google.com/maps/contrib/109475789463939366835"">A Google User</a>'], 'photo_reference': 'AUGGfZlPzCHlRoztpfZyliepEzFv6cHPIRmyVLvi0b91sw59-3m0YIv-rvUxdU2OyP93t9GsHVmfEJLrJ5viLSqZWHD-So54ETN2-QAEWQPQ23AA77QdZGf2sIx0M2shw2ONh9rkXAOgd9pldJ5TU9IKVK5aEW-S4RJ-9ProiWo7-cy70TAA', 'width': 4000}]",ChIJXd6e8ftLii0RC3nfwWpctQg,0.0,"['tourist_attraction', 'point_of_interest', 'establishment']",0.0,-0.5124067,119.7675486
"GQ6C+Q5, Tibo, Sindue Tombusabora, Donggala Regency, Central Sulawesi, Indonesia",Sungai Tibo,"[{'height': 536, 'html_attributions': ['<a href=""https://maps.google.com/maps/contrib/112911011294712897007"">A Google User</a>'], 'photo_reference': 'AUGGfZne0iVgLku_gn3X72-511waOqF7ALM9xPxPpjZNXiiGASIlXTutHyfict0HAymkV14ah9J1oCHFXkj47T7dqS7Gp-VlgKfS868s6v_zCbtA8E_Q7LOPrMj8yGMvR428YNQe3HT-W4hIdNS6nAkcX7A14uQkh4kcSlp-gK5AOCg9eQIC', 'width': 715}]",ChIJz4qkax5Lii0Rsg3tfCTQD0A,5.0,"['tourist_attraction', 'point_of_interest', 'establishment']",1.0,-0.4880542,119.7704172
"FQ8H+73G, Enu, Sindue, Donggala Regency, Central Sulawesi 94353, Indonesia",Enu Beach,"[{'height': 2322, 'html_attributions': ['<a href=""https://maps.google.com/maps/contrib/117439525869857276579"">Ahmad Djaya</a>'], 'photo_reference': 'AUGGfZkT6uhiNPwRgmnGVeUe8-LlsP7Fui2CXK73oJEgVEezwFpsUbAoeWfBwRIC3_-Q7rpMWfyvbXqgtnnADCDkLy8KNCigYDIBO1b6NrasQemjVeL9c6NSyMUr0c5kSuSa1qc-mZEVaLPLRXLPCq3J-Hb5dzbmTSmlOC7uxSj4lTfcxa0Z', 'width': 4128}]",ChIJxxnGbkW1iy0Ra4tIZFAoHYo,4.3,"['tourist_attraction', 'point_of_interest', 'establishment']",333.0,-0.5343224999999999,119.7776907
"Marana, Sindue, Donggala Regency, Central Sulawesi 94353, Indonesia",Pantai 60 Manohara Sunset,"[{'height': 1600, 'html_attributions': ['<a href=""https://maps.google.com/maps/contrib/111028663446112035548"">A Google User</a>'], 'photo_reference': 'AUGGfZkY4dlr4JdgD0g-Y7YTg1upFAQeMUO38HUJ4Ne6fe9l0GvUBzq7QfmhYmNHE3A0605hfxqZQPo3G51Tzkhdr9PsjVpDbQEn5ODBuD_equdobAucCEDcVygE2TgXYEGXeXYQ2po5G0VzJLblfghyHiWpuEr2FYxHH27QnE5eCK4Szu78', 'width': 901}]",ChIJr7NBcxvLiy0RB5HJMFLFBJc,5.0,"['tourist_attraction', 'point_of_interest', 'establishment']",2.0,-0.5759115,119.7904138
"CRM4+4GV, Marana, Sindue, Donggala Regency, Central Sulawesi, Indonesia",Desa marana,"[{'height': 1920, 'html_attributions': ['<a href=""https://maps.google.com/maps/contrib/114416921358562121082"">A Google User</a>'], 'photo_reference': 'AUGGfZkzFKZM5LaaCOoWM5vkHlzQ6qMmJEs9v70Fj0occsh37UP4NEhz-rsSKgnn3uE8tyhK0q7s9Jm87QRqgDe2v8msW7UTioyLfN1ZIxuZtR68vZXF92asa8-_S86VTCL_P8VefIaYm6Dd9B3tlttU6vfECLEYGJx9SgIJDOJDUi0yDUdY', 'width': 1080}]",ChIJSdlDBkjLiy0R05KkS7uOT_Q,0.0,"['tourist_attraction', 'point_of_interest', 'establishment']",0.0,-0.5671345,119.8062912
"CQ2Q+GV, Toaya, Sindue, Donggala Regency, Central Sulawesi, Indonesia",Wisata Uwe Tombu,"[{'height': 1536, 'html_attributions': ['<a href=""https://maps.google.com/maps/contrib/116542150828709825244"">abee djalaludin</a>'], 'photo_reference': 'AUGGfZnbnCeTiAtjGIqgQoqxEfkCOMNY6F2-ZuT05vT0kmFgv-KgF6hhVegKiTychsJnYJPBTqXVOsLIlfdi2wMbNAiQLzhk8pr5_fTYhaPidmUUilPSca8ycqTiEcactXKXG-klXVKFsJGLAojQbzjGl06eAJv-_5OxkwP2NQRZnQwUEihP', 'width': 2048}]",ChIJy7DQkwjJiy0RUZqXfvEUo5M,4.8,"['tourist_attraction', 'point_of_interest', 'establishment']",8.0,-0.5986424,119.7896882
"CQ4Q+6V4, Toaya, Sindue, Donggala Regency, Central Sulawesi 94353, Indonesia","Pantai Ramba, Toaya, Sindue","[{'height': 4000, 'html_attributions': ['<a href=""https://maps.google.com/maps/contrib/110913252327798363000"">babar rahman</a>'], 'photo_reference': 'AUGGfZnqLcMY-i20HpF_ndWhXbSUzOtgqzCGWWcMdOQQAbMvcL0sD2k1nThWLeWswCST0AcQvlc2KJ2So1V65WVsZqfOSQC_pu7pzzBe31fZJ0B-kbaJ1YqcbsByRWJX5KlHpPtKQRe53epnq6li9N3oVhCIoYTccSiwdrh7aKanhOYCBll5', 'width': 6000}]",ChIJ_0eEacPJiy0RLAfrm0XEHNU,5.0,"['tourist_attraction', 'point_of_interest', 'establishment']",2.0,-0.5944956,119.7896946
"GQJ7+H89, Jl. Tolitoli - Palu, Kaliburu, Kec. Sindue Tombusabora, Kabupaten Donggala, Sulawesi Tengah 94353, Indonesia",Pantai Tanjung,"[{'height': 2340, 'html_attributions': ['<a href=""https://maps.google.com/maps/contrib/115837620606581403199"">A Google User</a>'], 'photo_reference': 'AUGGfZl64nsmdhnDc1r6SVKezsV2K9T0JVo8MUiDUgrLinG2F5jLZzbVfDQkjCCDf7MUbZ9krh3H1KAWJZM6EwLdfdgw2nHxEQELwfgvD86xallLIO1-ONc_xEQ76vGJLt-kN0E0qZZiYQCzLCPk1mwMYEgStly6cw3-Ppz2lrz1SAth5I9U', 'width': 4160}]",ChIJwTvBjBhLii0RUjg6GXqJlIE,5.0,"['tourist_attraction', 'point_of_interest', 'establishment']",1.0,-0.4693434,119.7632393
"CR76+VGG, Masaingi, Sindue, Donggala Regency, Central Sulawesi 94353, Indonesia",Air Panas Lingu,"[{'height': 1200, 'html_attributions': ['<a href=""https://maps.google.com/maps/contrib/114643767206708738206"">A Google User</a>'], 'photo_reference': 'AUGGfZm75dROfgk0N7p7h1nsJ981pka4lZXpNCVuFuAF4MdChEbI2h3BCTY8TiBCCfH9BfZaKttCZsKiT5jrM7GD_suX0A3xkWG4N3s39fTHJiyq7jHektUb5_j1X3dbUhJwG1lETzGA1icmOlpiBHVj8XeLktlV8HbtkdLwBr-3qTp4j36z', 'width': 1600}]",ChIJd0Py_nfLiy0RIAedzg15Rns,0.0,"['tourist_attraction', 'point_of_interest', 'establishment']",0.0,-0.584805,119.811676
"CQ8R+82Q, Masaingi, Sindue, Donggala Regency, Central Sulawesi 94353, Indonesia",Pantai Wisata Pangi Masaingi,"[{'height': 3024, 'html_attributions': ['<a href=""https://maps.google.com/maps/contrib/105396421120717741298"">Irma Ismiyati</a>'], 'photo_reference': 'AUGGfZk1fpDw76IiFEFii5u0LbOhPZB4LygLtnM7f89oZEMTflJpZezgDdokaWzZVI5Gn1MIXSjvNCYipgKiiDlBrQsuryC0L_RWDao8U0UpKHEWrxNCtsrZXs5xLobK28vWN-NU_yT3qe0UcMmPK9s-7EHBGeMCuIb3JOk3wghiIE3T0DBT', 'width': 4032}]",ChIJNQzZwmjLiy0RnUwFZMFP-pc,4.4,"['tourist_attraction', 'point_of_interest', 'establishment']",300.0,-0.5841723,119.7901157
"CR76+VGG, Masaingi, Sindue, Donggala Regency, Central Sulawesi 94353, Indonesia",Air Panas Masaingi,"[{'height': 4032, 'html_attributions': ['<a href=""https://maps.google.com/maps/contrib/111162925473709982178"">saifuddin say</a>'], 'photo_reference': 'AUGGfZlmRCqcl2jsYcvckP1H_9Uh-0U5Qzm7J3TEfjpydPF5_4JfVL23hj8ejzg-yT7buGydiStC_qqB6mjYir-cTpkOD25zQT_XNx_KctjpPYeKgOb2UsIPSf1rtAFRE7MXeF0hQQAVeEke1ts5KR8p_vTJ3Uc3BX9_xOLfgN68gs-vU97p', 'width': 3024}]",ChIJfRMiJjDLiy0RFOX6AFMqdMU,5.0,"['tourist_attraction', 'point_of_interest', 'establishment']",1.0,-0.5853216,119.8113212
"Marana, Sindue, Donggala Regency, Central Sulawesi 94353, Indonesia",Cafe Biru Pantai Panama Marana,"[{'height': 1824, 'html_attributions': ['<a href=""https://maps.google.com/maps/contrib/110232413321650223944"">Kar Tono</a>'], 'photo_reference': 'AUGGfZkkp8XzDyAvwpyvWRby9CRSmoAJokM6j1a_15DsU-7w8KTSa_DqxmDB6Za6e_Nmp8nXEk-KAEhrQ7IqWpbpJEXyafoauVMF53NsnbX4RnTLd4KS2Drro2ZSo-6qBTY0SMdop-9roVOsmqJdxjvycb3PXw_fXazpnDr4hqPYcF3RdUzH', 'width': 3872}]",ChIJO24R20fLiy0Ro9e-6riJxuA,0.0,"['tourist_attraction', 'point_of_interest', 'establishment']",0.0,-0.5803846,119.7904349
"Maranaa, Jl Trans Palu Sabang No.13, dusun 1, Kec. Sindue, Kabupaten Donggala, Sulawesi Tengah 94353, Indonesia",Pantai Mapane Bambu Kuning,"[{'height': 2322, 'html_attributions': ['<a href=""https://maps.google.com/maps/contrib/112572291766389460370"">A Google User</a>'], 'photo_reference': 'AUGGfZmKAKPrZQLlrxhSrgL7gmH4T7hrmhWCMN5qvKAAP1KUFiEFBZMzmZqv_1IuUNk-LGncnpCTuIUIURunKjdKTMmrOirkcHyKFFi-_a_vI2YuJI1fwa6OzCZryCIWTMXpg-PsXU4zgsIc9rByJHZQ-oQ9LH_Z9ZMu5Z0NzpiUlwwudvEJ', 'width': 4128}]",ChIJr7XuA9HLiy0R34NqB8Uxnbw,4.5,"['tourist_attraction', 'point_of_interest', 'establishment']",24.0,-0.5810162,119.7907649
"Lero, Sindue, Donggala Regency, Central Sulawesi 94353, Indonesia",Lokasi Camping Bulu Kadia,"[{'height': 780, 'html_attributions': ['<a href=""https://maps.google.com/maps/contrib/108418939927293612550"">A Google User</a>'], 'photo_reference': 'AUGGfZlcitu9RLqeWM2lMyLjdL4XNNvnznf-F1Uz6Yl_mxaP03LA5KosFbORUy32LJdq0rfmTctsr25gD5C4XDQtJVKKFURZxSKaUffs8wtP2_hCg5sZUG3x15ASDOjkz9VNpqW4lVndNNEqOD5XhWVZirouqe-0RkJlPYM0zaQloqFkhR7W', 'width': 1060}]",ChIJjYUuDhHJiy0RwA0ijRpqCTA,5.0,"['tourist_attraction', 'point_of_interest', 'establishment']",1.0,-0.6163831,119.8193963
"CQCR+MJG, Marana, Sindue, Donggala Regency, Central Sulawesi 94353, Indonesia",Pantai Panama,"[{'height': 4032, 'html_attributions': ['<a href=""https://maps.google.com/maps/contrib/112008575095168393106"">agnes cuteazha</a>'], 'photo_reference': 'AUGGfZkxTw8PAgbsQWAxftV23oGM-Pe2VL22yhpw-qKuMx9GkxlElnQ0ps7TQ8GuEmXjUsNbuH7Mg0vfiA5MCrGJsvZeYhgi1vNME7QMxt34ZQ-xgqfGk7B1idgVVm16jT7MhQV6S_Ooxw4qjhx5uel00M3wRDNfjrXbB9p4S3B2HIN4JG__', 'width': 3024}]",ChIJKWhLYybLiy0RVbZ5bzQsf4E,5.0,"['tourist_attraction', 'point_of_interest', 'establishment']",1.0,-0.5781018,119.7904526
"9RC6+9JQ, Lero, Sindue, Donggala Regency, Central Sulawesi 94353, Indonesia",Pantai Bolo Bungga,"[{'height': 1600, 'html_attributions': ['<a href=""https://maps.google.com/maps/contrib/114643767206708738206"">A Google User</a>'], 'photo_reference': 'AUGGfZm7cfCV9pIPvrp5oKj2cn_AO-0cZaLB97ZnwROr1Kl886WyurP5eGtulmdYivTXcL0AGVA1_Is7uDvtZxwj5sTTPYlOflw3U0ujXIkB4Mea2QIxybRH2nzVr48y9xr0zufulOfqerrnnbcwV_Uhu404SkYal72iZTzwEvigR0V1V1Bp', 'width': 1200}]",ChIJcRpuLOnJiy0RfA-XGQdGygk,4.0,"['tourist_attraction', 'point_of_interest', 'establishment']",2.0,-0.628958,119.8115884
"9RH4+889, Lero, Sindue, Donggala Regency, Central Sulawesi 94353, Indonesia",Dely Nagaya Cottage,"[{'height': 4080, 'html_attributions': ['<a href=""https://maps.google.com/maps/contrib/112293783585059338925"">Doni wahdi</a>'], 'photo_reference': 'AUGGfZmo3STkKIPsXNCcLw8hGWbc_i8aLzx9ZbpBbQFSwHvyF7hkMIeHJLV4mAMle3lAzxzuFUeQ18qm0CF0tyXIgj-itL0lJtGLb9eSNpDGIaM8OA8gAgO9KXAzWzCNHvgkicmPgQVUzOsDcZ_DfLXk8XsA2MrH5BtlHxqJLFZDkdNRSNZf', 'width': 3060}]",ChIJORioy-3Jiy0Rb4BEOs-S2Us,4.8,"['tourist_attraction', 'point_of_interest', 'establishment']",5.0,-0.622927,119.8051848
"9RG4+28V, Jl. Tolitoli - Palu, Lero, Kec. Sindue, Kabupaten Donggala, Sulawesi Tengah 94353, Indonesia",Sounena Cottage,"[{'height': 1920, 'html_attributions': ['<a href=""https://maps.google.com/maps/contrib/110608889050313575433"">Ajis Mercu</a>'], 'photo_reference': 'AUGGfZndidBvXADTxhSeeutwT-EtqQbgtFwveCUzT7yAHoYQ96ktLMbUOxwrFfY_fxz49QYv6f7otWhaFck_7QljcHt2_HamSIK1O2xaK2Se2bBj2HvkYGsvsyrBSeoVJZAGYGMOvKwm-mQKZ7ISBTocIOm-d94ZnScfSQRSdLV4jG1C34wO', 'width': 1080}]",ChIJ24uHFTrJiy0RenU4d_ucTsI,4.8,"['tourist_attraction', 'point_of_interest', 'establishment']",6.0,-0.6248959,119.8057843
"9QXR+2C4, Unnamed Road, Toaya, Kec. Sindue, Kabupaten Donggala, Sulawesi Tengah 94353, Indonesia",Pantai Toaya,"[{'height': 4160, 'html_attributions': ['<a href=""https://maps.google.com/maps/contrib/110698912420608151493"">A Google User</a>'], 'photo_reference': 'AUGGfZkpv2ADmVNYmMglHEIt98fBpoxnwlNbO5TxynkRzuWFOe_FFM2OxpYbSxyx4EdBadOpKdjgs-Yc0ZsNb7kdKIIe2SZFnDzHF0XQnDDhSwsGqXn9znbz_mkc7Pv8avWvYNHABFKXsSBJjt3nloGid7lUanKh5k-2FlKMJdDo11v-CEiz', 'width': 3120}]",ChIJLwJfhffJiy0RQVcNA8Y202w,4.3,"['tourist_attraction', 'point_of_interest', 'establishment']",3.0,-0.6024923,119.7910719
"9RC6+P84, Lero, Sindue, Donggala Regency, Central Sulawesi 94353, Indonesia",Pelabuhan Lero,"[{'height': 3120, 'html_attributions': ['<a href=""https://maps.google.com/maps/contrib/117325835049400564275"">Ahmad Junaid M Muchen Risilando</a>'], 'photo_reference': 'AUGGfZnbWGtLIc7CP3OjcEJgE3XgYqAt9068VYIb25jXei2VRjQ5KWgnNy0wFQ7fBgQscJ27coWSDNtRp9avCEfsLIE01kn68owgLm8Ey4jeLMOgUJ6lhIsDw2HZ-SYp4mpwlftTVPW_IohEwYTSvBMNR9wxwzYD9XVHX13TYQc0C-Zb8ZjT', 'width': 4160}]",ChIJvVdT7DfIiy0RTIhW2vBWzFo,3.9,"['tourist_attraction', 'point_of_interest', 'establishment']",30.0,-0.6282274999999999,119.8108364
"8WJ3+4R, Wombo, Tanantovea, Donggala Regency, Central Sulawesi, Indonesia",Air terjun Wombo Induk,"[{'height': 1200, 'html_attributions': ['<a href=""https://maps.google.com/maps/contrib/109576890126714225575"">Chaifhar lanipa</a>'], 'photo_reference': 'AUGGfZlDLb-XHKeUjZylg8gvTngA6LwsHXrX185p0-6wKO0As9z0XzzMetFVUZ6C3Z7KHGjKAnAWffXlMgyBeILyGARmUgVqn5B11SnAhfbaG1W7Hf9pdoz5MXzOK6R3am-wyjegYstFd6_FBUzplleYJ87X6yzDp9VukVECMUrKeBTcghh6', 'width': 1600}]",ChIJq3PVeA3Fiy0RfHIUej3dn4E,3.8,"['tourist_attraction', 'point_of_interest', 'establishment']",4.0,-0.66975,119.904583
"8V6R+R48, Unnamed Road, Wombo, Kec. Tanantovea, Kabupaten Donggala, Sulawesi Tengah 94352, Indonesia",Wahana Wisata Wombo Kalonggo,"[{'height': 588, 'html_attributions': ['<a href=""https://maps.google.com/maps/contrib/104657351632996481769"">romadi</a>'], 'photo_reference': 'AUGGfZm8ZGgo1DcKERVTtl4DJ6jqFbTsw4jYciRwJe35sunhexpqep6zPKmTVhBga7zRUwAdWxO1j2NMKDfmtRKr1NLwOMTbVFScRG4igiKZPWu24MQdhW6n9M6hOmu9BXML8suJDD1zcXsOKE9ulzRW5F-LFI1YCFrKYKgqUk5ZHDv77ksi', 'width': 1040}]",ChIJFxRTfqjFiy0Rl4pDkOO2TWg,5.0,"['tourist_attraction', 'point_of_interest', 'establishment']",1.0,-0.6879687,119.8903143
"Nupa Bomba, Tanantovea, Donggala Regency, Central Sulawesi 94352, Indonesia",SEGMENT-02,"[{'height': 600, 'html_attributions': ['<a href=""https://maps.google.com/maps/contrib/110146088387836545318"">A Google User</a>'], 'photo_reference': 'AUGGfZlsWVDa8XlYtH6ZZCxKa49xkqtSQxC0kdX3_4f8kU7nsU7Oeo7GABxJm6pdrJarR3JBV15RV8sYW0OVDOMtToGgavOLeHQHgV2BbY_bCj7HKNjlL3egzIQ6ZziLlKLSorWpjXp4amMvVxOYzJ891LrWTp8m7eDNvOgyTgzS8Mjmuy6i', 'width': 600}]",ChIJredWB1Hdiy0RTYIdo7wVKmE,0.0,"['tourist_attraction', 'point_of_interest', 'establishment']",0.0,-0.7214111,119.9826327
"Nupa Bomba, Tanantovea, Donggala Regency, Central Sulawesi 94352, Indonesia",SEGMENT-03,"[{'height': 600, 'html_attributions': ['<a href=""https://maps.google.com/maps/contrib/100175796040090437760"">A Google User</a>'], 'photo_reference': 'AUGGfZlQNb8bBqyj8WarhCGxMG719GMVZ74VvOEIbsDDniuS3xr5J12r4z0vl046QJfu8Jfu5JCC5jDzg4v7cY8lDOrAs967TTIlN92RmCQwoPFaAA2K_JJ0BjvEuUjzPB5xvAWTVl-mpSxzdIoqHH7kXPEL-zkMSLN7L8Wt0Iy7UWH2LdyT', 'width': 600}]",ChIJc_VbqSLdiy0Rz7smKDTFfzY,5.0,"['tourist_attraction', 'point_of_interest', 'establishment']",1.0,-0.7213299,119.9842025
"7XM7+46M, Nupa Bomba, Tanantovea, Donggala Regency, Central Sulawesi, Indonesia",SEGMEN-01,"[{'height': 4160, 'html_attributions': ['<a href=""https://maps.google.com/maps/contrib/117907000772345930854"">A Google User</a>'], 'photo_reference': 'AUGGfZmHdwDFTDzyR_1OaAzJ4OlIk1dYOo6VgRforKGsGuCJiXKMXJ1i_hmxzZzNPM3pllLRHoCCi0u944QJcu00VFb-M1JSZP33FA9U74AGqXekmNMLfvpHYpyJ6YzkPwYoCKm4Rip1_lDW8tK9KxSyG6DaYzLyrf2RyJZiYdAUE4chf6cu', 'width': 3120}]",ChIJE9ooksDFiy0RiSwgBR1xlOM,4.0,"['tourist_attraction', 'point_of_interest', 'establishment']",1.0,-0.7171549,119.9630603
"7W57+MRH, Nupa Bomba, Tanantovea, Donggala Regency, Central Sulawesi 94142, Indonesia",Air Terjun Pompo,"[{'height': 1472, 'html_attributions': ['<a href=""https://maps.google.com/maps/contrib/107045585933192111136"">A Google User</a>'], 'photo_reference': 'AUGGfZkSP-6rxGwN8_2GflQnaGKvcsNz_87BembpJ_2SsSELjhawdeRsM87KsEfz0T3qSI3NwkO_Dm5NuFdnP9Azk6auUputAEECgjWdcAo_IGhelGxbtJlewKd48KaIlefc0KnZKoJBbrXHWOWpr6VvMpEMF3A1ViNxnY-qVhnWNPx8EiHv', 'width': 828}]",ChIJP89v2kLDiy0REhUi0U_uiZs,5.0,"['tourist_attraction', 'point_of_interest', 'establishment']",1.0,-0.7408222999999999,119.9146178
"7W3F+VCW, Nupa Bomba, Tanantovea, Donggala Regency, Central Sulawesi 94142, Indonesia",Tamanggu Indah Waterfall,"[{'height': 3561, 'html_attributions': ['<a href=""https://maps.google.com/maps/contrib/109324265156947502591"">mac t</a>'], 'photo_reference': 'AUGGfZn2vX21y-et6Y1PudR7SVatOj5CT6gpLj7qxK1eToIgrS1IBiBIMxBz_ZyT229-sRZfVp6YnSbyjLoO6vxZvhrMTCMf7Xg3V-giKr3owez074iGMv4OAzooMYch7bHYETUct_VZgvHI7AB7zsxMJkDDGaO3I_MNU65RHVh3VfZCXaV8', 'width': 2003}]",ChIJXehqDcLDiy0R30jcRED4aaw,4.0,"['tourist_attraction', 'point_of_interest', 'establishment']",9.0,-0.7452536,119.923567
"6XVX+MP, Bale, Tanantovea, Donggala Regency, Central Sulawesi, Indonesia",Manjalata Waterfall,"[{'height': 6016, 'html_attributions': ['<a href=""https://maps.google.com/maps/contrib/106649781982354072755"">A Google User</a>'], 'photo_reference': 'AUGGfZlhbOjqeV8FGSi6_Slt_ESzXEs4zWXtOOVfDMN1eh77G5-cxELJXd4LRNIoCTeZ-8EqZTTjONkeu94IS4fcewER6O1GSbIC85e4wmo_0-MdLpEFSyg1hOhFwo3zVnzbQhMNfy6kMd5HKQVp_8uV23ajuNxdqKKUv3pPHdk3nbuIG7FR', 'width': 4512}]",ChIJITRpTQDdiy0REzsbxqAy49g,5.0,"['tourist_attraction', 'point_of_interest', 'establishment']",1.0,-0.7557541999999999,119.9993511
"7VX7+C7M, Jl. Pengga Lembah, Pantoloan, Kec. Tawaeli, Kota Palu, Sulawesi Tengah 94352, Indonesia",Danau Sibili Pantoloan,"[{'height': 1170, 'html_attributions': ['<a href=""https://maps.google.com/maps/contrib/106637043554564017459"">Angga Maulana Ibrahim</a>'], 'photo_reference': 'AUGGfZkB-2p4Ro0G4E5qoCyHXhpzlQulRIxymTcQ6oIKnqFWpXcjp1X5XAFexc2MHU7Kj-gtCUsW0nmRxGo_nTAUT5Xdet70vSher1qPQFs-a7VhEmx_8GoEDdj1p9CuGFTJlCAhqN6nTL6y_qAZfEozhxbnu04aPBjAfEzAoSFSHRI-68tB', 'width': 2080}]",ChIJQwRhxJXGiy0RE1-Pzkij3ks,4.3,"['tourist_attraction', 'point_of_interest', 'establishment']",109.0,-0.7014022999999999,119.8631871
"6X44+HX, Bale, Tanantovea, Donggala Regency, Central Sulawesi, Indonesia",Taman Mualo 2,"[{'height': 3000, 'html_attributions': ['<a href=""https://maps.google.com/maps/contrib/112197484226123831829"">adrianto adam</a>'], 'photo_reference': 'AUGGfZnMNUO7dkRYuaLiLyEaM67U3Q7tMmzVcZMXvn3W6OuF8t8KRjEyf4KGmWI8A2XaXB6oEApdWHo4e8uGj89sg608PiRB1CeVb9S2Ge5XpG98_P9bykdB_ympGSqYPMeBlCK0KkmFGaFP8yr2X0H-VoWDqqSJq3rWOEtnj9eLgK6Y2QJp', 'width': 4000}]",ChIJ6WT7AgDpiy0RLXiyvi3H2kk,4.8,"['tourist_attraction', 'point_of_interest', 'establishment']",4.0,-0.7935700000000001,119.95748
"7V4G+79W, Kayumalue Ngapa, Palu Utara, Palu City, Central Sulawesi, Indonesia",Uve vuntu,"[{'height': 4000, 'html_attributions': ['<a href=""https://maps.google.com/maps/contrib/101956392159536276350"">A Google User</a>'], 'photo_reference': 'AUGGfZmmur3nufvmiFeHylqCUyO-LhVpB7klaS7KVOYIrxONp1QexBN0wnthrf2kXhXDunpcidGuIjx0B556iWKBz0-lNbTuubH4KXiulZ0vVMF-HUbZB3maNLyPBi04kdiCBSeIIjXkeM2i68cLdTsIGsbevtnPX4GxTK12aQmU9ftmo08E', 'width': 3000}]",ChIJSx71xYfBiy0RhDW1t1_C-J0,1.0,"['tourist_attraction', 'point_of_interest', 'establishment']",1.0,-0.7442742999999999,119.8759668
"7XCQ+82V, Nupa Bomba, Tanantovea, Donggala Regency, Central Sulawesi, Indonesia",Perbatasan Kota wentira,,ChIJQyY3VwDdiy0RTdavTVnJSG0,0.0,"['park', 'point_of_interest', 'establishment']",0.0,-0.7291402,119.9875447
"8V25+HV7, Pantoloan, Palu Utara, Palu City, Central Sulawesi 94352, Indonesia",WISATA KEBUN PANTOLOAN OVA,"[{'height': 1200, 'html_attributions': ['<a href=""https://maps.google.com/maps/contrib/114793479737624720333"">A Google User</a>'], 'photo_reference': 'AUGGfZn8XFNefTKu2Yp-ri0ZJuVrXB8dQQ0pkWNwZrerI74n13UpzoR5K6EBG5hZ5-pgbEKsJirmfJtNoT-Ut6aa4kxFP57R0Cdbs2oVojfDQr5ZC0wWHo0JAE5DrPGGgPAJl7W10SC0zkjbx1yGS5UMSJ7jb-d40FrRhNLwwhTOR_hnQ9H4', 'width': 960}]",ChIJob7LqNLHiy0Rj-9t2-cUzHM,4.5,"['tourist_attraction', 'point_of_interest', 'establishment']",2.0,-0.6985945000000001,119.8596587
"7V97+49P, Jl. Tolitoli - Palu, Panau, Kec. Palu Utara, Kota Palu, Sulawesi Tengah 94352, Indonesia",Tawaeli,,ChIJLYi6BAbBiy0Rm0k4O3Qz3fA,4.2,"['tourist_attraction', 'point_of_interest', 'establishment']",5.0,-0.7298349,119.8634399
"7VF7+34M, Baiya, Palu Utara, Palu City, Central Sulawesi 94352, Indonesia",UWENTUMBU BAIYA,"[{'height': 4160, 'html_attributions': ['<a href=""https://maps.google.com/maps/contrib/113890028713754318867"">A Google User</a>'], 'photo_reference': 'AUGGfZlMb8WQi68sbI8h6UoHqAkkjGkVZslVRB3ecgocoL2G2iTUEkL3ZGPPBzfYkVlyD9AEbuTFEQxhO0I10zSzQz-bvFj2R8xlczvtuFLLeYvBLHM1ZUCc2tt3P4zYIdAILbb5NkY0NwobRzC4Cgg6H3Cm6AEDd0RCNRSrP-umzg36YIIe', 'width': 3120}]",ChIJMUxZ9XTBiy0RdSfJ17-J_HY,4.5,"['tourist_attraction', 'point_of_interest', 'establishment']",22.0,-0.7272879,119.8628056
"Thalua Konchi, Jl. Thalua Konchi, Mamboro, Palu Utara, Central Sulawesi 94145, Indonesia",Pantai Delta,"[{'height': 2992, 'html_attributions': ['<a href=""https://maps.google.com/maps/contrib/107423054486596817469"">JUAL MUG DAN ACESSORIS</a>'], 'photo_reference': 'AUGGfZmSniJPfUxge1ePzpAl5Dluetj5rDvDda972lVBJrEHAB5z4hCFnGWhLDCOFjLhVB0dFc8ZNaO1tKkNZkEVbdyUQCNaFCtz7hGsft9NpKoKPR9v-N8v32aq2q2aMMTA3J6iPMAA4zEJUzWcY_rcvNsOzUO2D1o7eVFgaMYhuyslkuc', 'width': 4000}]",ChIJIf1tL2_riy0RaNInIzR8foM,5.0,"['tourist_attraction', 'point_of_interest', 'establishment']",1.0,-0.7895474,119.8631645
"7VR2+8JP Pantai Wisata, Jl. Makagili, Pantoloan, Kota Palu, Sulawesi Tengah 94352, Indonesia",Wisata Pantai Pantoloan,,ChIJS1-K7yTHiy0Ri4Oh1-msxvw,5.0,"['tourist_attraction', 'point_of_interest', 'establishment']",1.0,-0.7091523,119.8515752
"Tim, Tondo, Kec. Palu Tim., Kota Palu, Sulawesi Tengah 94119, Indonesia",Monumen Nosarara Nosabatutu,"[{'height': 3096, 'html_attributions': ['<a href=""https://maps.google.com/maps/contrib/107872578399219410852"">Estiyo Sumoko</a>'], 'photo_reference': 'AUGGfZlELdiKf0sYKePP73XkvylCXMmZCm7ezKadvpIvb4vzliQQAUGiyn2cNL-rbOCV9jduMK8RwYM30XM6wUu-l_-kE0cK0Fxg3_VsCEuCyEa_ms0gTvtiCqQQ9KpR9-0Q-TYfx5KWpT6wMeKpAlJTt7Fcv5KFcslBTTuoyb8ivvwnYTWj', 'width': 4128}]",ChIJ2e-Avc7uiy0RkhITKVqYoLA,4.5,"['tourist_attraction', 'point_of_interest', 'establishment']",318.0,-0.8560709,119.9118816
