formatted_address,name,place_id,rating,types,user_ratings_total,photos,lat,lng
"Q7CJ+QJ, Long Penaneh II, Long Apari, Kutai Barat, East Kalimantan, Indonesia",Liu mulang,ChIJqXVvRgDJBjIR-sDn4QDEyHE,0.0,"['tourist_attraction', 'point_of_interest', 'establishment']",0,,0.771956,114.2815511
"6MQ2+56, Long Isun, Long Pahangai, Kutai Barat, East Kalimantan, Indonesia",Tepai-Jangau Campsite,ChIJZ3nZfgAlBDIRzqBLVJQaSAk,4.0,"['tourist_attraction', 'point_of_interest', 'establishment']",1,"[{'height': 2880, 'html_attributions': ['<a href=""https://maps.google.com/maps/contrib/111365650871638450704"">anthony yeo</a>'], 'photo_reference': 'AUGGfZmiPmIMdfuhZbiXRSxrJDl7uO0Oyi9mDhPdmKyjdztSGGDB2EwZICLOxVaFUTHu4XFZFjaFbwKtw7iJhSIGZTjepWpAZc_CFp3V0xpohbJ5Tjm8_b5Cx2R77MPc5GlaBRZPq4MKpq22N_YzVomCBt-QkqNXfVnY2du3gLOoiy95WxSg', 'width': 7712}]",1.237912,114.6505478
"C65V+H7G, Long Apari, Mahakam Ulu Regency, East Kalimantan, Indonesia",Start S. Mahakam,ChIJK4jukQBzBDIRmbBrc0mLCjo,5.0,"['park', 'point_of_interest', 'establishment']",3,,1.4089432,114.2432058
"WRP8+3R, Long Tuyoq, Long Pahangai, Mahakam Ulu Regency, East Kalimantan, Indonesia",Tepai River,ChIJHazdOACJBjIR8Iem3bYQwY8,5.0,"['tourist_attraction', 'point_of_interest', 'establishment']",2,,0.9352486000000001,114.8171169
"CHGC+8J7, Lidung Payau, South Kayan, Malinau Regency, North Kalimantan, Indonesia",Dual point (kayaknya),ChIJI1keFgBBBDIRjpYDDPCozD8,0.0,"['tourist_attraction', 'point_of_interest', 'establishment']",0,,1.4257936,114.5715455
"WR96+QXJ, Sungai Tepai, Long Tuyoq, Long Pahangai, Mahakam Ulu, Kalimantan Timur 75768, Indonesia",Sungai Tepai,ChIJeXAFi1-JBjIRAGDB86WvbV0,0.0,"['tourist_attraction', 'point_of_interest', 'establishment']",0,,0.919459,114.8123984
"M776+J2F, Batu Majang, Long Bagun, Mahakam Ulu Regency, East Kalimantan 75767, Indonesia",Batu Besar,ChIJDZjYHABJBjIRmmrUth1CJ98,0.0,"['tourist_attraction', 'point_of_interest', 'establishment']",0,,0.6640691,115.2600506
"H52X+8G, Long Bagun Ulu, Long Bagun, Mahakam Ulu Regency, East Kalimantan, Indonesia",Wisata Kahang Hunge Buyang,ChIJn0MKIMJLBjIRrge3qJSF8DA,5.0,"['tourist_attraction', 'point_of_interest', 'establishment']",4,"[{'height': 4000, 'html_attributions': ['<a href=""https://maps.google.com/maps/contrib/108589303804986248968"">innal</a>'], 'photo_reference': 'AUGGfZkWJ9iEjSvAcn-RWAuylfwBtXlGT4lGef5iIuzdW34Q_tcCpYHL8YSKT10hbObhPzWGVb4LRW3gzwQVnVcYYfv4VSXrqJm4qj-fGpwv8OR1Lz3G57szV2lcRlUNVPOp2GJEtjeYs9JHT8pGKe1W_OvzjvniyrSxMX_sqhMRYGBRyAFN', 'width': 2250}]",0.5508566,115.1987998
"F7CJ+JF, Ujoh Bilang, Long Bagun, Mahakam Ulu Regency, East Kalimantan, Indonesia",Batu Dinding Long Melaham,ChIJX2IBomK3BzIRV0xUAh1iCXQ,5.0,"['tourist_attraction', 'point_of_interest', 'establishment']",10,"[{'height': 540, 'html_attributions': ['<a href=""https://maps.google.com/maps/contrib/115854061222221497884"">A Google User</a>'], 'photo_reference': 'AUGGfZnRhUr3nGrv2V-oIy7QAaP8eakMIXfB7GS3ItIJi5VLAjUrHchN02qI3OwDxfoFWnJ7dIlTy3q6mh33lxuUwJW-L717V4S3q9Z0pHQPyy31qGiMWisWk_G-ndgGOPogfoA0QFNLtKl3xu8Hj-LJP2Q9zui5CUH9oATrThXilLcYfPbf', 'width': 720}]",0.4715625,115.2811875
"H49G+77, Long Bagun Ulu, Long Bagun, Mahakam Ulu Regency, East Kalimantan, Indonesia",Jantur Jangau,ChIJUdKHGgtNBjIR20aQvRuD01w,5.0,"['tourist_attraction', 'point_of_interest', 'establishment']",4,"[{'height': 1600, 'html_attributions': ['<a href=""https://maps.google.com/maps/contrib/117660700283516593237"">SAPAR WADI</a>'], 'photo_reference': 'AUGGfZlL0IIkepmWEBjlAaS8BYz5v4vW_lKwqWmijE-_FSLtc_rW0LSOy8Sx_ubzAVakaPKQcJwIrdTROzKzToMOGNsWuqu8TcxPFrGvTRFp9zJbJM_nhic_826tCADMqlnSIcnPWc-XQeyVLnUKU6rXf67SIxcx6mLUsXCfkOExJynrr_vE', 'width': 899}]",0.5681875,115.1256875
"F7Q2+94, Ujoh Bilang, Long Bagun, Mahakam Ulu Regency, East Kalimantan, Indonesia",Berburu,ChIJi6NseAC1BzIRKVzCURim_co,0.0,"['park', 'point_of_interest', 'establishment']",0,,0.488426,115.250356
"G72C+CQR, RT.14/RW.Tikah, Ujoh Bilang, Kec. Long Bagun, Mahakam Ulu, Kalimantan Timur, Indonesia",Rumah Budayawan Art,ChIJd7Ok3V21BzIRHtPBog5AP6Q,0.0,"['park', 'point_of_interest', 'establishment']",0,,0.5011152999999999,115.2719048
"F6RC+WC, Long Bagun Ilir, Long Bagun, Kabupaten Kutai Barat, East Kalimantan 75767, Indonesia",Air Terjun Kelekup,ChIJYz2jRwC1BzIR8Cx7XdK7zAw,4.5,"['tourist_attraction', 'point_of_interest', 'establishment']",2,"[{'height': 2352, 'html_attributions': ['<a href=""https://maps.google.com/maps/contrib/113553687204052982075"">mukhlis san</a>'], 'photo_reference': 'AUGGfZlv_IumFhNgE80AkNp9MubPK07mtb2lj2e2990Cu5DxLTjYxBiVi5ba40wPgWFBU0M0f8OrB-I4hsExnt24g7DoMAWU0sVK6i1i8sq1RphSZIITai9W8xpJemltmH0APqY7hRKmzwmvX73iC4DIUHZ2dcNZXQbxlKj2FoBIO9B-LAjK', 'width': 4160}]",0.4923497000000001,115.2210307
"Ujoh Bilang, Long Bagun, Mahakam Ulu Regency, East Kalimantan, Indonesia",Hutan belantara,ChIJ336PBfC1BzIRUJKaQyjDNFQ,0.0,"['park', 'point_of_interest', 'establishment']",0,"[{'height': 1792, 'html_attributions': ['<a href=""https://maps.google.com/maps/contrib/101277995698402212837"">A Google User</a>'], 'photo_reference': 'AUGGfZnKlO4UxqAFr290BJOfI2vxzIPQqJyu_1fBVsMN2EWpaDsBvGPoaRkld2I11n8x7qngpi5V3G6LwzPD05o5q1k4ptKqJB4SNL5OrZC0Rr3t5mZyrbPENe4PRuXq16kCH6DI8y1UcwPsxDz1ctyOHVcCAci73nEcqrjLs8dq8BzQCZv3', 'width': 828}]",0.5011152999999999,115.2719048
"P27X+W9, Long Bagun Ulu, Long Bagun, Mahakam Ulu Regency, East Kalimantan, Indonesia",Riam Udang,ChIJ9VdScwBbBjIRyZKpOkoA0e0,5.0,"['point_of_interest', 'establishment']",1,,0.7148223,115.0483822
"4GW7+2P, Memahak Teboq, Long Hubung, Mahakam Ulu Regency, East Kalimantan, Indonesia",Batoq Ba'ang,ChIJiRAhyXjlBzIRIRWskprAWg0,0.0,"['tourist_attraction', 'point_of_interest', 'establishment']",0,,0.1450152,115.5142571
"39M2+RFQ, Lutan, Long Hubung, Mahakam Ulu Regency, East Kalimantan, Indonesia",Sungai Bentian,ChIJwbCebwDzBzIRin4TdUCoNhE,4.0,"['tourist_attraction', 'point_of_interest', 'establishment']",1,"[{'height': 4032, 'html_attributions': ['<a href=""https://maps.google.com/maps/contrib/114396778257996217713"">A Google User</a>'], 'photo_reference': 'AUGGfZmLRw9cLNJghC35XGYtuffhlZnd2Fw5IZZBTTvbi8kAGl9COfSkHYN6FOAdioXu7WvjOt-RMN_5yCQY2K1HmC3A9EXaqitCd7dJ_ED5PcX4zpTq3EflE0B18Dh6UCTTqgB74_33WGok2HpcEsUSXgZr2xBszZ8KPFjyVTdgKK7qdNnX', 'width': 3024}]",0.08458639999999999,115.3512365
"4364+WMJ, Unnamed Road, Nyaribungan, Laham, Mahakam Ulu, Kalimantan Timur 75576, Indonesia",Riam Buraq,ChIJ_zxq15qFBzIRNRVgk_IYHPw,5.0,"['tourist_attraction', 'point_of_interest', 'establishment']",2,"[{'height': 1872, 'html_attributions': ['<a href=""https://maps.google.com/maps/contrib/110360361180867224842"">Rahmad Supri</a>'], 'photo_reference': 'AUGGfZkueemcoH7ZIZQIaGJ4o2-GKWH292ou4jLTWgHjfjzvk_w8y-U8mWMVyUqNGLbTKBzcW_5drnjj3t4O7ijXGSUKs6Z3deLJRYjIE8r7vlRDDVZbTF1a680Pg_DnrB_2Ovmkfi84UFi2e3nMmOpqUgRkfQLdju8o7DT1yG4q83JPEkeX', 'width': 4032}]",0.112339,115.056642
"7VRM+5CJ, Long Beleh Haloq, Kembang Janggut, Kutai Kartanegara Regency, East Kalimantan, Indonesia",Sepan guang,ChIJvcjp7p1tCDIRr-E-asy-hZk,0.0,"['tourist_attraction', 'point_of_interest', 'establishment']",0,,0.2904589,115.8835058
"2G55+9H6, Kelian Luar, Long Iram, West Kutai Regency, East Kalimantan, Indonesia",Jantur Tenginan Biha,ChIJrZaeadj5BzIRmTxuDRvbcxU,4.0,"['tourist_attraction', 'point_of_interest', 'establishment']",2,"[{'height': 3728, 'html_attributions': ['<a href=""https://maps.google.com/maps/contrib/101722476229302061371"">A Google User</a>'], 'photo_reference': 'AUGGfZm4IlyN2jbpF0Plzs84cC5GtErBSiOZQoVF2t1tg_wRZQqEb2VnBlUiWTv2iqBUir-hMoQvGh8szrDA_7J7zbsW1qHz5j9kB390zz-BknoWZcjIEMGVrOa9Zjr_I5j6VmDjocTWMb82VQQaGlqQcmGNPh3zpk1yyqOxNcvB18rM8y_s', 'width': 2788}]",0.0084174,115.5088914
