formatted_address,name,place_id,rating,types,user_ratings_total,photos,lat,lng
"Jl. Sriwijaya No.59a, Jagalan, Kec. Kota, Kota Kediri, Jawa Timur 64129, Indonesia",spot hunting ka kediri,ChIJC_OxEgBXeC4RO7AzjYtC6No,0.0,"['tourist_attraction', 'point_of_interest', 'establishment']",0.0,,-7.8196711,112.0152621
"sonoerjo.Depan rumah makan Inak inak, Jl. Wilis Mukti I, Campurejo, Kec. Mojoroto, Kota Kediri, Jawa Timur, Indonesia",Rumah hantu Aseli,ChIJpWc2LgBXeC4RQsd3hgSLg-A,0.0,"['tourist_attraction', 'point_of_interest', 'establishment']",0.0,,-7.816544,111.9888788
"4X8X+RHR, Jl. Kediri - Tulungagung, Mitiran, Rembang, Kec. Ngadiluwih, Kabupaten Kediri, Jawa Timur, Indonesia",Kediri sonoan dikit,ChIJBe3_KQD5eC4ROfjWsQ6TbqU,0.0,"['tourist_attraction', 'point_of_interest', 'establishment']",0.0,"[{'height': 2122, 'html_attributions': ['<a href=""https://maps.google.com/maps/contrib/115856862957277781347"">Arif Zerro</a>'], 'photo_reference': 'AUGGfZk4PsePnnteZMA5L86yze3Uz4A8JV9DPz4H9DUyQG4xFXo6E2cFRw0uVvffolCL734DbTU_zUqx4g7UYFdvR-slrmEjxuEpbgEwQYteYFFCEq4CkVgtZ0GtVBoP1QUoiNr3I28HWzAnuZSGEUzJ1ZgFGYClJZ8a4SSUfuLV6AICJPza', 'width': 1729}]",-7.8828941,111.9989048
"4XVJ+WFQ, Sawah, Petok, Kec. Mojo, Kabupaten Kediri, Jawa Timur 64162, Indonesia",Sawah mujur ngetan,ChIJGYEKcABXeC4RLdmr3cl4AEo,5.0,"['tourist_attraction', 'point_of_interest', 'establishment']",1.0,"[{'height': 8160, 'html_attributions': ['<a href=""https://maps.google.com/maps/contrib/114069097619541050913"">A Google User</a>'], 'photo_reference': 'AUGGfZli8MgZVaS9xfvMW0kpMv1PdQDz9L2abIeVQB_m4HXa6TkY-GrhDiAbxAxrpC5vPgjXXUIXt4L92gFT0NInWu6kkf04kYEcjWlgYxvBg6J16Z1qHf0WmutW7mZk9IMCWB89MK5FHIOldUSolPdJ0ELbrikt_ZArn5o3LZ3YAXhJa3BU', 'width': 6144}]",-7.855171599999999,111.9812484
"52GP+8FP, Gg. MasjidAl Ichsan, RT.1/RW.12, Burengan, Kec. Pesantren, Kota Kediri, Jawa Timur 64131, Indonesia",BASE FARM KWT BANGUN SEJAHTERA,ChIJtTTo87xXeC4RNcDr7XSFKLc,4.8,"['tourist_attraction', 'point_of_interest', 'establishment']",15.0,"[{'height': 1080, 'html_attributions': ['<a href=""https://maps.google.com/maps/contrib/106852404922916992361"">Fato Fatony</a>'], 'photo_reference': 'AUGGfZkUKJF-zYeGDy_95-j4yDZWHU-LqIvsgc-sAokWkQIzpe0GgtnWCXy8KW-6fANjCyvWOY6973_hnoXkF3flemfibm9LuLXT4jEdH0r59euOlUHZoSe5dVju6uxxuSA6szHHAYh8JkRYq8HvxCI0rJoYOMrn-T51tGaK3agjfxHFMBL6', 'width': 1920}]",-7.824156799999999,112.0362011
"6245+2F5, Unnamed Road, Semampir, Kec. Kota, Kabupaten Kediri, Jawa Timur 64121, Indonesia",KAMPUNG DOLANAN SEMAMPIR,ChIJp7qVC-dXeC4RFFFq7AJP0VI,4.8,"['tourist_attraction', 'point_of_interest', 'establishment']",8.0,"[{'height': 780, 'html_attributions': ['<a href=""https://maps.google.com/maps/contrib/113532329760203782139"">Rantie Hariani</a>'], 'photo_reference': 'AUGGfZkETPvKdA74JP42x3Z0_hznc_Xr-75XjeP7muJEXoRy0m05ey7e086kgHkTc0PCYROz4_IufQtIht2GBts47-HQ57nVF_IGCmMt8qLGsfHZwamRrqLZejCVR-Zzkl03SegJESiybmyeKHIUrZQSbgu5j5bWU2_yGndKmTgmnpGAYdfu', 'width': 1040}]",-7.7949831,112.0087376
"4X9J+665, Nambangan, Badal, Kec. Ngadiluwih, Kabupaten Kediri, Jawa Timur, Indonesia",Duta wisata OMAH LAWAS,ChIJqy4SEo_5eC4RM5JXlCvRmTM,0.0,"['tourist_attraction', 'point_of_interest', 'establishment']",0.0,,-7.881978299999999,111.980609
"5XQQ+V5F, Jl. Mastrip, Sukorame, Kec. Mojoroto, Kota Kediri, Jawa Timur 64114, Indonesia",Cucu Bonsai,ChIJG2QG-AxXeC4RrFysseqSWYE,5.0,"['tourist_attraction', 'point_of_interest', 'establishment']",1.0,,-7.810160199999999,111.9876106
"Jl. Untung Suropati No.21, Pakelan, Kec. Kota, Kabupaten Kediri, Jawa Timur 64129, Indonesia",Maqom Syeih Sulaiman Al Wasil Samsuddin,ChIJPSFDfhdXeC4RBViW-gwlzfE,4.4,"['tourist_attraction', 'point_of_interest', 'establishment']",161.0,"[{'height': 551, 'html_attributions': ['<a href=""https://maps.google.com/maps/contrib/116424751421978205705"">Budi Setijoroso</a>'], 'photo_reference': 'AUGGfZl4tVHjDtArh65KQDsp3ZPLbCWVwWRYhMzQ1LwbIm-v9KBhhLbrr2xycQLHfzWlnRfnppNTXDkP-o3owcrQ5sHndBnCLcMK8dwJ9_MAbLxv5HIcfgLQ0aX-DdGxVnKi0kSVpLo6tpDRoCvA7-zwb55WI58F50wLquuULc2bk2PiigzC', 'width': 827}]",-7.8164351,112.0115523
"523X+F8J, Jamsaren, Pesantren, Kota Kediri, East Java 64132, Indonesia",Kali banir,ChIJjQ9MY7RZeC4RFcOWatOQkec,0.0,"['tourist_attraction', 'point_of_interest', 'establishment']",0.0,,-7.8462836,112.0482801
"5376+6WF, Ketami, Pesantren, Kota Kediri, East Java, Indonesia",Gantangan Dualima BC 25,ChIJS_o11NNZeC4R02SkJUy9J0A,0.0,"['tourist_attraction', 'point_of_interest', 'establishment']",0.0,"[{'height': 608, 'html_attributions': ['<a href=""https://maps.google.com/maps/contrib/110709378022817287371"">A Google User</a>'], 'photo_reference': 'AUGGfZlp65k-TSdvVQrNuSAl3T1Bq-maLNnJc_3CRYBZvDJRx5taCa7aNyse50C3O7Yl8m9dlgxTtboNK-596i30x1jUshtS4Di3PD1n6ZqIsxkmemzvtapECwImyg1S0zzp4XYYwgK1ZmXMLp2Rgz9Q6i7Fc9T4osXNsXs2yqDW3S4KQFj1', 'width': 1080}]",-7.836937299999999,112.0622896
"52XV+99H, Katang, Sukorejo, Kec. Ngasem, Kabupaten Kediri, Jawa Timur 64182, Indonesia",tempat senja,ChIJr8nXNQBXeC4RpzFgGoocGZ4,0.0,"['tourist_attraction', 'point_of_interest', 'establishment']",0.0,,-7.801556100000001,112.043476
"Jl. Cakarwesi Raya No.50, Tosaren, Kec. Pesantren, Kabupaten Kediri, Jawa Timur 64133, Indonesia",Sumber Cakarwesi,ChIJZ5Aa-_FXeC4RIa1TbbVx4Xs,4.4,"['tourist_attraction', 'point_of_interest', 'establishment']",223.0,"[{'height': 3456, 'html_attributions': ['<a href=""https://maps.google.com/maps/contrib/100295348613139037758"">dony kristiawan</a>'], 'photo_reference': 'AUGGfZngE51Bkq2uw7JCVOvJn7vA6cHQtaSJFDT9xq-JB2CTltDJyjRxlMmvEmFNpWktYQ7GLF0glxDWixlZcURAoeLyFCb316jnoCiVf7_7UwAxCk_p3YSVZ_XGVyrSvWQv_rl3axv0wCyTZxifQvaeeiYMWGJ60aXiRyhSbItlll1zsvCA', 'width': 4608}]",-7.857735699999999,112.0362293
"6234+747, Mojoroto, Kota Kediri, East Java, Indonesia",PANTAI PANJI ASMOROBANGUN,ChIJt_YkMQBXeC4RUlwUgCJuPBA,0.0,"['tourist_attraction', 'point_of_interest', 'establishment']",0.0,,-7.796827899999999,112.0052897
"Gg. 07 No.80, Banjarmlati, Kec. Mojoroto, Kota Kediri, Jawa Timur 63118, Indonesia",Kandang bahagia fram,ChIJrzl2sHtXeC4R7vahnQupP9g,3.0,"['tourist_attraction', 'point_of_interest', 'establishment']",2.0,"[{'height': 1920, 'html_attributions': ['<a href=""https://maps.google.com/maps/contrib/106098160077826876416"">A Google User</a>'], 'photo_reference': 'AUGGfZnp77IJNcrsTvV15crs4EqZCi86DpVyTjtIrJPFdHGyEG2-u3JGEU4Rb-FOKpax_mWMmhN7JV4gw_jgcv3w_aYHIKdcGVO_T8LVpG_djUllAkvCsGeH6bR9z6OZ0wH0rWBjWpX-my0Gsuo-53Cayptz9_txf_11j-GApTu_gJ3mhiu_', 'width': 1080}]",-7.8319219,112.0015969
"5XWG+RX6, Unnamed Road, Hutan, Kec. Mojoroto, Kota Kediri, Jawa Timur 64114, Indonesia",Captive Deer Brigif,ChIJ8bRLPshWeC4RNpwbARZfV3k,4.6,"['zoo', 'tourist_attraction', 'point_of_interest', 'establishment']",1841.0,"[{'height': 2250, 'html_attributions': ['<a href=""https://maps.google.com/maps/contrib/107148286792229707534"">Riska aveiro</a>'], 'photo_reference': 'AUGGfZmtfE3Su9CBQQJNFMK0Z-DSRnOH2faNg4Cuzux7g0VxhZEbyY4LqdcSkt0-23bn2oNIhIPAYru9HTI76X_KrwLkwwFoxvbYN3Wi7NmruHy8f-7zuVjmImaV3jLbhQw0cDsCm5ZmvO4WdWviEQ7B_SVY5NLyH-A7iDlT9nJ9R1XuEPXf', 'width': 4000}]",-7.802954,111.977384
"5XMW+6JM, Bandar Lor, Mojoroto, Kota Kediri, East Java 64117, Indonesia",Perumahan Elite Dzubayyinah,ChIJAcor5bJXeC4Rlj3Ebqy3YNw,5.0,"['tourist_attraction', 'point_of_interest', 'establishment']",5.0,"[{'height': 3000, 'html_attributions': ['<a href=""https://maps.google.com/maps/contrib/117601773786062521310"">A Google User</a>'], 'photo_reference': 'AUGGfZlMr1EMQTdTkTyj8s6PaEzhY19O5366EzCa7lr97brxvLfF2sNZk4nDA2EVKXRHSi0sj3reYgQ1xhIsDaZuUpMA-f-yddXPnju57TeYgbV29aKBtyVXXvjyLMNHYWXQ6agNuve05WgVVp6IXBPxgfuy7KJDcd9WvXg9CoHYVChxuQ1P', 'width': 4000}]",-7.8167889,111.9968159
"5XQH+5C8, Pojok, Mojoroto, Kediri Regency, East Java 64115, Indonesia",DAM,ChIJjcJjaQBXeC4Rmw7YobQJmto,0.0,"['tourist_attraction', 'point_of_interest', 'establishment']",0.0,"[{'height': 3264, 'html_attributions': ['<a href=""https://maps.google.com/maps/contrib/117203176867779033281"">A Google User</a>'], 'photo_reference': 'AUGGfZnkbd8nOGzYfuZNEZHvF-DWHLgXr0IpgUUjqHhW4tMrCuDgEn8EuTQuyc7H38-47LJV-nvjO-KtjK8IvXCkP-FoIBRy7yd-5WBcK7c2K6PD-MvLannBcU3iyyRMIZvkeHFgxiegmIpaBUlfmmBouseiE8Icp5qUle9NTPzMY0jv1GAA', 'width': 1472}]",-7.812595999999998,111.9789849
"Jl. H. Abd. Rochim, Ngadiloyo, Ngadiluwih, Kec. Ngadiluwih, Kabupaten Kediri, Jawa Timur 64171, Indonesia",JUAL BELI KAMBING KEDIRI mendobalap_99,ChIJR6tkUL_5eC4Rm0PuHu32b9g,5.0,"['tourist_attraction', 'point_of_interest', 'establishment']",1.0,"[{'height': 4032, 'html_attributions': ['<a href=""https://maps.google.com/maps/contrib/110824442411713967767"">A Google User</a>'], 'photo_reference': 'AUGGfZkx-DYoQ2fmKlthTDUclsKqAtiDl4cI5ja-TveUn7-sljX7wJOUl431WnM7sxSauUOc-FUVYHcwAv6TI0poEW9QjER2Mouq6fNLrpvp6iwmggu2L_3mW4hGihRQ8qsWbR9yhqd8C4aqARKgWcZsNKNwlka42RRJ8Lukb6HAQKVtktCH', 'width': 3024}]",-7.889011000000001,111.9821061
"628C+R9F, Putih, Kec. Gampengrejo, Kabupaten Kediri, Jawa Timur 64182, Indonesia",GUBUK TANI PUTIH 3,ChIJT1sBCwBReC4Rsypkm_Xjui0,5.0,"['tourist_attraction', 'point_of_interest', 'establishment']",1.0,,-7.7829262,112.0209288
"Jl. Perum Permata Biru No.2, Pakunden, Kec. Pesantren, Kota Kediri, Jawa Timur 64132, Indonesia",Taman wisata Teluk singa,ChIJqVIm0D9XeC4RTGgRNSDlXXQ,4.5,"['tourist_attraction', 'point_of_interest', 'establishment']",2.0,,-7.840613599999999,112.0341102
"5XVF+43F, Pojok, Mojoroto, Kediri Regency, East Java 64115, Indonesia",Goa Selomangleng,ChIJ-a5PNE1XeC4R73o6-dUIiJg,4.4,"['tourist_attraction', 'point_of_interest', 'establishment']",1574.0,"[{'height': 3096, 'html_attributions': ['<a href=""https://maps.google.com/maps/contrib/108377839577253876551"">A Google User</a>'], 'photo_reference': 'AUGGfZnIHGNrCSsTX7aRZRoFkMBZLNQhT3w4J690FdMfsatgsEJKt_P3fD128M731CMgd2SN8GCVK0MCypnF1DRn4HCFV6XkaK_K4fd2R8kfs6Y4UKbTn8REz5GL2PlRMgHmuQmXXW6Kp2zEQOd7RoetEW1wEr_vArADt3O3-XTAaPgXM4Zc', 'width': 4128}]",-7.8071917,111.9726861
"6273+27W, Mrican, Mojoroto, Kota Kediri, East Java 64182, Indonesia",Lokasi mancing,ChIJodDa_btReC4RyJp83gJCols,0.0,"['tourist_attraction', 'point_of_interest', 'establishment']",0.0,,-7.787392100000001,112.0032207
"Jl. Monginsidi No.35, Tepus, Pakelan, Kec. Kota, Kota Kediri, Jawa Timur 64129, Indonesia",Parkir bus makam al wasil,ChIJccEYTABXeC4RWc_ttskPvuI,0.0,"['tourist_attraction', 'point_of_interest', 'establishment']",0.0,,-7.818013700000001,112.0108056
"kali petuk, Gapuk, Bulu, Kec. Semen, Kabupaten Kediri, Jawa Timur 64161, Indonesia",kali petuk,ChIJ97TbGwBXeC4REyhZ9b7VZYY,0.0,"['tourist_attraction', 'point_of_interest', 'establishment']",0.0,,-7.850610100000001,111.9975227
"5229+Q4W, Rejomulyo, Kota, Kediri Regency, East Java, Indonesia",Simpang liama gumul,ChIJET9mJsBXeC4RJyrLuDGEMNY,3.7,"['tourist_attraction', 'point_of_interest', 'establishment']",3.0,"[{'height': 3472, 'html_attributions': ['<a href=""https://maps.google.com/maps/contrib/106221994315999124449"">Jimri Saudale</a>'], 'photo_reference': 'AUGGfZmB02wV5j033HQzSZ-59qW_5u5dw-PxXBpS16iumDB7rd2oqsjaLTuQWsdC1qe5HE6OycmrXj6SNCDuhcDyCnyVPBLemkZFTjKC1DaujZ7F8-n9ixNDxpCtERtmKxNzqWPi33R4-h9yAg-DKuVRGMSjBf4_rk9i8UK5ND7QIvp42agI', 'width': 4624}]",-7.848015599999999,112.0178286
"52MV+WHQ, Jl. Kilisuci, Doko, Kec. Ngasem, Kabupaten Kediri, Jawa Timur 64182, Indonesia",Kp berkah lele,ChIJN5SKXwBXeC4R9NwgoM5z4tA,5.0,"['tourist_attraction', 'point_of_interest', 'establishment']",2.0,"[{'height': 3472, 'html_attributions': ['<a href=""https://maps.google.com/maps/contrib/109705338340679908068"">A Google User</a>'], 'photo_reference': 'AUGGfZl6u2ZmmDOOll4ClPzAuItDSHsh8tBH03WquswDDGe9ynzFda5igSRvKprrPHlG9ICMJ3CJqQdHjeTUXDODANByZEQumah_OCKzXOcNLd9pPdb6gtUJxSgqrO4Omn-t_oLRcGF-GH9KxnFCnhpdgi-ot_qNpxL0Q0ND_9N4-lT4vNC5', 'width': 4624}]",-7.815169900000001,112.0439514
"Jl. Bunga, Ngampel, Kec. Mojoroto, Kota Kediri, Jawa Timur 40112, Indonesia",WISATAKAN.COM,ChIJ-8DYMqBXeC4R3vBeQoKD4tU,3.0,"['tourist_attraction', 'point_of_interest', 'establishment']",2.0,"[{'height': 4160, 'html_attributions': ['<a href=""https://maps.google.com/maps/contrib/112456766411983233428"">Agung Dewangkoro</a>'], 'photo_reference': 'AUGGfZn5LGqTFzYgJIK4VeklW8xNXg2HLKsp_HwQI61TrTSulMUeMfx5lT1SulxNeZTP1q-ZbvQlll0rlSOYvgVLfJ1MOzp0h0gaQsL80eVxtlP8oFSPUX9Ds6hzfiW3d8pSIbHOTHOAPSdSk2tfGrRms4rdF1zIvsAqCVTfCmIkMbtqaiI', 'width': 3120}]",-7.797864199999999,111.9960748
"42P2+5VX, Trate, Banjarejo, Ngadiluwih, Kediri Regency, East Java 64171, Indonesia",Sumber Trate,ChIJuaNU3IBXeC4RjZoo-xUOoBA,0.0,"['tourist_attraction', 'point_of_interest', 'establishment']",0.0,,-7.8645177,112.0022276
"Jl. Tinalan IV, Tinalan, Kec. Pesantren, Kota Kediri, Jawa Timur 64132, Indonesia",Omah Melon Kediri,ChIJhVXLrDBXeC4RO7VGJ45fYGA,5.0,"['tourist_attraction', 'point_of_interest', 'establishment']",4.0,"[{'height': 1920, 'html_attributions': ['<a href=""https://maps.google.com/maps/contrib/118178199833341999724"">A Google User</a>'], 'photo_reference': 'AUGGfZn3u_hRQt8QySaqfjVhxDQ82KzkP-Z8uPrDD_r0ADsc8MHX76uQ9njUv3ddgFoi2SfwDC09mwMfdJIVawFSFYEDex5LXJYCMBYhv3eyloDMYSC7v08a2ha8wOIyDWEgvO8AxQfCKGTZN-ypkPLx8CumRE6s6kBudNBSDEgtLm5PUkZb', 'width': 1080}]",-7.829694,112.0291205
"5338+69X, Jl. Raya Wates - Kediri, Tempurejo, Kec. Pesantren, Kabupaten Kediri, Jawa Timur 64138, Indonesia",PEREMPATAN MEKKAH,ChIJrYvRmypZeC4RoNqdHOUnMJg,0.0,"['tourist_attraction', 'point_of_interest', 'establishment']",0.0,,-7.8468896,112.0659887
"526X+FGC, Lingkungan Jl. Raya Kleco, Jamsaren, Kec. Pesantren, Kota Kediri, Jawa Timur 64132, Indonesia",Kebun KWT Mawar,ChIJYalqGhxZeC4RCPPIS80QUlk,0.0,"['tourist_attraction', 'point_of_interest', 'establishment']",0.0,"[{'height': 1920, 'html_attributions': ['<a href=""https://maps.google.com/maps/contrib/104487504750717749929"">A Google User</a>'], 'photo_reference': 'AUGGfZkVySv5BeMatZ1cIay_BPqRPEQZatrHSGW3kFQVW3KECcADfnwksI_RAcLpCt0EFOu48NUPuQ1DKmqH6xZhrJhIycOiL0S4a6IMiOlMSUFGGZhEYi-h0rQ5CJpxXz9uac2X1xu6DTr6dZe9lgNDx3jmm_bkX5kE0l_rc0lLQwPcmC0v', 'width': 1080}]",-7.838824900000001,112.048776
"Jl. Monginsidi No.47, Pakelan, Kec. Kota, Kota Kediri, Jawa Timur 64129, Indonesia","Kawasan Heritage, Pakelan",ChIJf-PLs2VXeC4RX1aTCZhNZaQ,0.0,"['tourist_attraction', 'point_of_interest', 'establishment']",0.0,,-7.8178772,112.0098686
"4XMV+2R9, Badal Pandean, Ngadiluwih, Kediri Regency, East Java, Indonesia",Kelinci Ndeso (JPfarm),ChIJsZqaDa1XeC4ROyQ2iNQz8Z4,5.0,"['tourist_attraction', 'point_of_interest', 'establishment']",1.0,"[{'height': 2000, 'html_attributions': ['<a href=""https://maps.google.com/maps/contrib/109622999972107184464"">A Google User</a>'], 'photo_reference': 'AUGGfZkbkK-x63AsHsyWuO57n6dTLC7uesn5NFIWPTHadsKfruy3VntFHLfkhM8VMyAmspR-iqNe21JAjeApfzC9Bli7AZYfcBEu09WlX8hGsVYnBl0ewH579YmqZtyfknBq7P3XVd6bx-wy4ZBzf9FqV5mGu5oFhfQxQN3xavOkyIkQKmp-', 'width': 4000}]",-7.8674502,111.9945953
"5XVG+FQ4, Pojok, Mojoroto, Kediri Regency, East Java 64115, Indonesia",Gunung Maskumambang,ChIJvezFocdWeC4R-7dY_AnQyQ4,4.5,"['tourist_attraction', 'point_of_interest', 'establishment']",87.0,"[{'height': 2340, 'html_attributions': ['<a href=""https://maps.google.com/maps/contrib/100991893083011945910"">Fajar Prayoga</a>'], 'photo_reference': 'AUGGfZkUMvdr4CEVDuApVOtBeTJR4ZOZQVtFD_UOsY9a89jHYSULXmLtDwxFZkEDuz6frDDaLfeTPffEuPD2RFUXq0fawMDZnaa7uSZM46l_iyxk7zypmXABM86ecngUYWGcKJnoDBj844VefNyphh_c37pyfojjM_7EckDdamiOYOBg8LnS', 'width': 4160}]",-7.8063748,111.9769646
"52WP+XW5, Tepus, Sukorejo, Kec. Ngasem, Kabupaten Kediri, Jawa Timur 64182, Indonesia",sawah,ChIJJ2bEcV9XeC4Rr3KMUK5d01A,0.0,"['tourist_attraction', 'point_of_interest', 'establishment']",0.0,,-7.802613699999999,112.0373671
"Jl. Super Semar, Ngronggo, Kec. Kota, Kota Kediri, Jawa Timur 64129, Indonesia",Ngronggo Sport Art Centre,ChIJ10qHF_9XeC4R8g2ei2QA4_s,4.6,"['tourist_attraction', 'point_of_interest', 'establishment']",9.0,"[{'height': 3216, 'html_attributions': ['<a href=""https://maps.google.com/maps/contrib/113028524655837601384"">A Google User</a>'], 'photo_reference': 'AUGGfZmi2dSdxGKpcIMYG2rNHrWDs9P4cBlH9ySzmRZc4C7JCkFZwjYERSdFV8C8nygs1HXNoiDq5o4dg0Id45ZB56aqwM5FCSfnUqes4oQ5jPOxFBBYj5ItnXbezGO0Djras95Xhyy03DDYluTuERMf4bfn03x_GCD1rCrlOGCc7vLqvc5p', 'width': 3072}]",-7.8446303,112.025655
"527M+MMQ, Jl. Puskesmas, Banaran, Kec. Pesantren, Kota Kediri, Jawa Timur 64133, Indonesia",Petik Buah,ChIJB6nFXG5XeC4RvSwoaZ6ISrA,5.0,"['tourist_attraction', 'point_of_interest', 'establishment']",1.0,"[{'height': 4032, 'html_attributions': ['<a href=""https://maps.google.com/maps/contrib/111172365025568632817"">A Google User</a>'], 'photo_reference': 'AUGGfZnAEkG3yGFEpSO8yDU63iK0flM8eJaNaij8wtzhzbxTf9jtNpsnPtTZ1DyKywVuroexXh-LsSLQHlcsT2BimzwdBa7dQG2Jaq27ZmHQ7sKrKhqJKWJqqqIYr4Mjd3taaGFX-VyFds6a0VEkAmOb5sklB0AiCku5SjFy0KFyWur8RrKJ', 'width': 3024}]",-7.8356257,112.0345504
"Gogorante, Ngasem, Kediri Regency, East Java 64182, Indonesia",Sumber Jlondang,ChIJxW-U7U1XeC4RviFa-RmJ2dU,4.3,"['tourist_attraction', 'point_of_interest', 'establishment']",10.0,"[{'height': 810, 'html_attributions': ['<a href=""https://maps.google.com/maps/contrib/105560425558717156662"">A Google User</a>'], 'photo_reference': 'AUGGfZl4VQKOftVxStO5akH2XsYNvc4I95whtxv9dGd_JR62WB549umzvwzyCAnqDVVzBr_ZjgROzLY6mAHV4O3NVNzSKwRcyrhco6GsWrJ0jTX7peUdDueCqzJtap8r-gsTkcJkxY42CxYOukTGJnFQFkPHpmBz4MMRI18ifwCV3q5Ae-jV', 'width': 1080}]",-7.8252672,112.0463999
"4XMW+RG6, Badal Pandean, Ngadiluwih, Kediri Regency, East Java, Indonesia",Pemancingan Tirta nirwana,ChIJtbntAzhXeC4RWlVUEP1qin0,4.7,"['tourist_attraction', 'point_of_interest', 'establishment']",6.0,"[{'height': 1800, 'html_attributions': ['<a href=""https://maps.google.com/maps/contrib/109583947116205718322"">A Google User</a>'], 'photo_reference': 'AUGGfZnFmlNarXBI0ISmPMnlw6iLMqJg4KLUIDjPWOc42i8vVtm1PbwCmrXTiTDLJ0q2C2NYcJTfLpfn3QgQlOe_7y7yjcoYri_FndWiyDeuwAQjjWwWrVUfV1aPPhQpYR_AFKw-6DcXbJSyH-JN4AgJv83dbsMIcgKxChuj_y_OhfXlIOB6', 'width': 4000}]",-7.865459899999999,111.9962808
"Jl. Stasiun No.37, Balowerti, Kec. Kota, Kota Kediri, Jawa Timur 64129, Indonesia",Photo Spot Mobil Tua & Grafity,ChIJM6p4AP5XeC4R-3ueHPU607s,0.0,"['tourist_attraction', 'point_of_interest', 'establishment']",0.0,"[{'height': 4080, 'html_attributions': ['<a href=""https://maps.google.com/maps/contrib/111400775860584598070"">A Google User</a>'], 'photo_reference': 'AUGGfZljW38MIiclb02dk26fZkuDpiwnW1_feo9czXTrdx62GQCdknhOWQIzIvewTbqYdid0pclPx82u-ueDH_C8JjOvoKZO4emVwqnELC629orqrtiM4MUjjaBDlOGQTC7dmOrLvBmZNVOMX42XYTLx3ueCwJRfg5IQH9jTJjFTZfMfoJJA', 'width': 3060}]",-7.8167943,112.0136624
"53G8+9J2, Tugurejo, Kec. Ngasem, Kabupaten Kediri, Jawa Timur 64182, Indonesia",KUB KANALAN BABA'AN LESTARI,ChIJsSXurCZZeC4R0d1wXxeM3jM,0.0,"['tourist_attraction', 'point_of_interest', 'establishment']",0.0,,-7.8241615,112.0656132
"Jl. Yos Sudarso No.137, Pakelan, Kec. Kota, Kota Kediri, Jawa Timur 64129, Indonesia",Pecinan Pakelan (China Town),ChIJeWMqmbJXeC4RAK3DG_PGUnc,0.0,"['tourist_attraction', 'point_of_interest', 'establishment']",0.0,,-7.819976599999999,112.0097136
"52JH+PVW, Banjaran, Kota, Kediri Regency, East Java 64129, Indonesia",Hutan Joyoboyo Kota Kediri,ChIJ07YzIGxXeC4Rr_wGcD5FubU,4.5,"['tourist_attraction', 'park', 'point_of_interest', 'establishment']",4293.0,"[{'height': 3456, 'html_attributions': ['<a href=""https://maps.google.com/maps/contrib/104940831040430020240"">Usman Naofal</a>'], 'photo_reference': 'AUGGfZn3k53vrAGYfVgZ6OdwQMNivoq-hOsruVjgdkC-Y1jrKOZoRllGKO2fUWfpw0m_Byt1AQ7x4lp36Tc7MUnsX1k0yfwQW6pXQEPaiu8EeGNNum3Ybsa6s6UyMxBbtakXv94DoPe8N1cBrm1n_2FVQg7AMdXVBxySR4ubOexGllTiIt-b', 'width': 4608}]",-7.8181385,112.0297159
"Jl. Sumber, Rejomulyo, Kec. Kota, Kota Kediri, Jawa Timur, Indonesia",Sumber Jiput,ChIJoXvBF2VXeC4RQc18prG8Z1Q,4.7,"['tourist_attraction', 'point_of_interest', 'establishment']",75.0,"[{'height': 3000, 'html_attributions': ['<a href=""https://maps.google.com/maps/contrib/111222795686048300777"">iqbal surya prayoga</a>'], 'photo_reference': 'AUGGfZmMQGctnC6GAlBmGtL-t8zjwYDQvOxALhNVsK6N2z5NoKgk16kf_vcoQiMTgkBFBZxoFPNWJZ28ZxYIFv5-XZYlfsKptFN7eTFuDNq-HQecmR9AGIViB5W1vIHIhVKIH3bqkiD17yYN7wB268L8t_itOdOmloG5qU_iW9AbjIXEeLxl', 'width': 4000}]",-7.8536911,112.0186208
"5XVF+2H2, Jl. Lingkar Maskumambang, Pojok, Kec. Mojoroto, Kota Kediri, Jawa Timur 64115, Indonesia",Museum Airlangga,ChIJyaZgDsNWeC4RStYB4vlCmcY,4.4,"['tourist_attraction', 'museum', 'point_of_interest', 'establishment']",194.0,"[{'height': 2250, 'html_attributions': ['<a href=""https://maps.google.com/maps/contrib/101829758953520650297"">Dian Nofitasari</a>'], 'photo_reference': 'AUGGfZkENn9kAD6RuXe_vrLqrUies-nfg8YOwG94Emy2Bn116uu_3J3mbhGZGzFfPeSwQ6OFXABzsT8CMhfu34Ew53L6DKLNVchhaDRtIccLhd7FpdUlc-ONXsuUhKj8lYPDxRivN6DgL4YZsx3r0LbMG_NuArtEKqrPjYrrQa3b3OCJCbAP', 'width': 4000}]",-7.807477899999999,111.9739062
"4XXW+GFV, Sawah, Bulu, Kec. Semen, Kabupaten Kediri, Jawa Timur, Indonesia",Spot,ChIJ1_IqPE1XeC4R4kLNOPFZt4I,0.0,"['tourist_attraction', 'point_of_interest', 'establishment']",0.0,,-7.851142499999999,111.9961661
"52Q4+4QH, Mojoroto, Kediri Regency, East Java, Indonesia",Pantai Brantas,ChIJp0XcoXJXeC4R_BU3EQRysDk,4.4,"['tourist_attraction', 'point_of_interest', 'establishment']",95.0,"[{'height': 3000, 'html_attributions': ['<a href=""https://maps.google.com/maps/contrib/113515272688461710356"">A Google User</a>'], 'photo_reference': 'AUGGfZlGayRFXHnJ54jtBzEUflPeElD1ZttI2Bwbf4aqOjWPwp6o2FuW9cKDEEiasfdbAvh1Ly9FW8L2JJ6MfmlRONu4ik2ldhnoxZmR_Fwv5p3J-tyKos2HcgIKBJUpIG2sRqtIAX-zDcpEryYUAClBrls5xgXvWhNoi3I5P3KJc6p5LBHL', 'width': 4000}]",-7.812183499999999,112.0069748
"Jalan Jenderal Ahmad Yani No.123, Banjaran, Kec. Kota, Kabupaten Kediri, Jawa Timur 64129, Indonesia",Taman Wisata Tirtoyoso,ChIJkY_r4mtXeC4RcEi3IuoEv8M,4.3,"['tourist_attraction', 'park', 'point_of_interest', 'establishment']",3363.0,"[{'height': 1080, 'html_attributions': ['<a href=""https://maps.google.com/maps/contrib/104324179087572876718"">Rizal Ardiansyah</a>'], 'photo_reference': 'AUGGfZnn5pU6ROYFDFf6qTEjpbcjTQOI6Bl3yRjpp5O9wNC7pUohJMT_DAA6pjbBGpvD1ngiOdMPUHCpke2B7xxMnllP_PZhqIP-wf_mDMId6hjkCtFccfOi-aYQlFLzu-wQs7aUopzVuBS_6Gyk4e2mq7-DH7dp_cD0Y91hjbZbbTkOWxnj', 'width': 1920}]",-7.816437499999999,112.0297484
"42XF+2JQ, Rejomulyo, Kota, Kediri Regency, East Java 64129, Indonesia",Tirta Wangi Barokah,ChIJrxfAppdXeC4RFYSAq4f6d80,4.5,"['tourist_attraction', 'point_of_interest', 'establishment']",17.0,"[{'height': 2080, 'html_attributions': ['<a href=""https://maps.google.com/maps/contrib/115286288015232746496"">A Google User</a>'], 'photo_reference': 'AUGGfZlR-ZGwQKIRIb2uGV5VghGCUHl-zhg9TN5u3wix7UTxq3iaRKLgby3OFee0vg0fiN01AuuywMs_7DIaQ7OW0M86Pg4t907cLnhiqap9of70e3FuNWTaH1KT30PZ_3M-FmanziKxXKhgyJw2zAKixJDK-ER1puiDDsQRmKSKpxRppYrc', 'width': 4608}]",-7.8524043,112.0241178
"4XWV+CJ2, Petok, Kec. Mojo, Kabupaten Kediri, Jawa Timur 64162, Indonesia",PANTAI BATHARA SUNYARURI,ChIJQzeCUwBXeC4Rzt1eNMG4V-M,0.0,"['tourist_attraction', 'point_of_interest', 'establishment']",0.0,,-7.853988900000001,111.9940241
"533H+FJ8, Tempurejo, Pesantren, Kediri Regency, East Java 64138, Indonesia","Sumber Banteng Tempurejo, Pesantren, Kota Kediri",ChIJqX_ouENYeC4RMlJFzQFbIMA,4.4,"['tourist_attraction', 'point_of_interest', 'establishment']",1484.0,"[{'height': 2250, 'html_attributions': ['<a href=""https://maps.google.com/maps/contrib/112152480599997738469"">A Google User</a>'], 'photo_reference': 'AUGGfZkLMq9FCDmY3DDuB6iSoEnToe2ovXqx1yXML5UnzkPMmIKU383E1P7tPp2PjZ2QppHQHmm-yDYMPvJIvHLeRCo-Z3zizy2A0n7uSDlUYznLSlqaPmj2QYax1OYgYAEi7d7Kq17AbN5VJUeB4v2cNfmkLTI-0TyJdan-Gxx8LtJiFWQh', 'width': 4000}]",-7.8463375,112.0790781
"5XMQ+X8X, Gg. Pojok II, Pojok, Kec. Mojoroto, Kota Kediri, Jawa Timur 64115, Indonesia",Kebon jeruk mojoroto kediri,ChIJy2rqmVxXeC4RdvbUvflpyIc,0.0,"['tourist_attraction', 'point_of_interest', 'establishment']",0.0,,-7.813591999999999,111.984978
"526X+86R, Jamsaren, Pesantren, Kediri Regency, East Java, Indonesia",Kampung tani,ChIJyziMZnJZeC4Ro-sTdPVDScI,4.8,"['tourist_attraction', 'point_of_interest', 'establishment']",10.0,"[{'height': 1600, 'html_attributions': ['<a href=""https://maps.google.com/maps/contrib/113980565010998842043"">ferry mahbub</a>'], 'photo_reference': 'AUGGfZkfYLCyvQe0z37AJ0UhSMJLm8cPljntQALuqPgBe9Gnk3f8DvR3qvK4CQySJTNsFINg1R9QQo5nngQzx3qyhDpDUT7v45TKAFlgQWQE6SfXfhJZmznlCHUnPh1MWeEgSgjyr4M_TrREkepT9Qh4Xm7O0jLMk1XhLaG7LzNAgJZOJgcP', 'width': 720}]",-7.839144699999999,112.0480193
"Jl. Mojoroto Gg. 6 No.29, Mojoroto, Kec. Mojoroto, Kabupaten Kediri, Jawa Timur 64112, Indonesia",Gurun sahara,ChIJ30e9DKVXeC4R1TsRVi3G6gk,5.0,"['tourist_attraction', 'point_of_interest', 'establishment']",2.0,,-7.799163399999999,112.0032354
"5229+Q4W, Rejomulyo, Kota, Kediri Regency, East Java, Indonesia",PROBOLINGGO,ChIJrWQeOwBXeC4RDeoXLz1EYLw,0.0,"['tourist_attraction', 'point_of_interest', 'establishment']",0.0,,-7.848015599999999,112.0178286
"Jl. Halim Perdana Kusuma No.14, Jamsaren, Kec. Pesantren, Kota Kediri, Jawa Timur 64132, Indonesia",Taman Bahagia,ChIJS_6DYQ1XeC4R44QUsxSgRHg,4.3,"['park', 'tourist_attraction', 'point_of_interest', 'establishment']",449.0,"[{'height': 3456, 'html_attributions': ['<a href=""https://maps.google.com/maps/contrib/116848330566227566560"">Darmawan Setiyabudi</a>'], 'photo_reference': 'AUGGfZnJ7qGb9ei_JsG6Qv6R-41-WZ-F3czRZccvQDG48VEChB9NxpkF5xYfuIwCE5OMNPtFqYxscCsn1RdAWYKEsc_gIKEKisEpj0f_Jl8aMrDAvI7J7VAivoZpVwNUrQyoPd7gHA8ZUcddHkTvJoD4VcND9ZAm-KtDPPhl01Bt9-qYEvpV', 'width': 4608}]",-7.82243,112.021951
"5357+RJW, Jl. Raya Wates - Kediri, Tempurejo, Kec. Pesantren, Kabupaten Kediri, Jawa Timur 64138, Indonesia",Taman Kresek,ChIJcVOoCjpYeC4RD5xo9kEYqCI,4.4,"['tourist_attraction', 'park', 'point_of_interest', 'establishment']",1124.0,"[{'height': 2250, 'html_attributions': ['<a href=""https://maps.google.com/maps/contrib/114301222290485059599"">Aditya Taranggono</a>'], 'photo_reference': 'AUGGfZlR4UgMgt09vJCI5AGpYfjeqR2ppLvS3bzoJuhqkKh--ecsuHStxzFz7KeqJfrEnyKIpKaji31Lpz6ERi8oYyKhvZ_P95RAAv8cN8lts6slCJEeakJ-9HC0bBHOt2Rac2dMQiSuRZmsTg8pOEXQHYeODLCIOraJ9jwSG02o8gFfeYuf', 'width': 4000}]",-7.840392999999999,112.064067
"5362+8FM, Jalan Raya, Kleco, Jamsaren, Pesantren, Kota Kediri, East Java 64132, Indonesia",Sumber Wedok,ChIJxZyGEDVZeC4RUsk56dw-t_s,4.3,"['tourist_attraction', 'point_of_interest', 'establishment']",3.0,"[{'height': 2160, 'html_attributions': ['<a href=""https://maps.google.com/maps/contrib/109367920126364491499"">A Google User</a>'], 'photo_reference': 'AUGGfZnmbvvfZ828zh6prOD-SfOBDUMcSYl_s3LA3kagaSmimSupF-HRFDKW-M5mwNVX6szoF57HaxnPMb9RuMKSoC4nhRg-TkMcOUXpofQFuLT00eUx-oZkApbhct02PRs_-9J6Vo38X6ay-HP7Zd8bnMPkHjR4vnpu5cdj92hLZOHhXyCx', 'width': 3840}]",-7.8391736,112.0511729
"4XCW+6M5, Ngreco, Rembang, Ngadiluwih, Kediri Regency, East Java 64171, Indonesia",Waduk Ngreco,ChIJN8WcKYH4eC4RCUEqUcrmesY,4.1,"['tourist_attraction', 'point_of_interest', 'establishment']",256.0,"[{'height': 4160, 'html_attributions': ['<a href=""https://maps.google.com/maps/contrib/116870433764262110107"">A Google User</a>'], 'photo_reference': 'AUGGfZnz9caG8LgTcM3aC5NcqT7vCftObZuyuHjkI_32tDBBdJoX14TouQK-UqFxzteqdDpjU2jdG3FBeKEhW-7mfwj2Xz1i09U9p0hzH1mlJTIh2kMjd-sWD1UYdJFDdTzAoVjTKmwbty6Z7TKUnNTpzjjdQxyNUwoLrSTw-p0wQnIW20TM', 'width': 3120}]",-7.879491499999999,111.9967331
"53FF+5QG, Krajan Lor, Wonojoyo, Kec. Gurah, Kabupaten Kediri, Jawa Timur 64181, Indonesia",taman wono patirtan baruklinthing,ChIJz-L7JrBZeC4RUXcI9PDkeV4,0.0,"['tourist_attraction', 'point_of_interest', 'establishment']",0.0,,-7.8270691,112.0744643
"539P+G6C, Turus, Kec. Gurah, Kabupaten Kediri, Jawa Timur 64181, Indonesia",Wisata Ngenter Kali,ChIJMRbD8FJYeC4REA6Ya1X6zSE,3.7,"['tourist_attraction', 'point_of_interest', 'establishment']",10.0,,-7.831177200000001,112.0855085
"Kerkep, Gurah, Kediri Regency, East Java 64181, Indonesia",Sumber Sirah,ChIJ2-KR5CFZeC4RK8mpRwvfU-Q,4.4,"['tourist_attraction', 'point_of_interest', 'establishment']",376.0,"[{'height': 3468, 'html_attributions': ['<a href=""https://maps.google.com/maps/contrib/107942468234731671839"">A Google User</a>'], 'photo_reference': 'AUGGfZl3mcZJo4Wyczheg-eaM6ySidwb4459SsrA02F6HGEhGZpgwxD7Owa_vbHHqblRBinoXJueXj2SCxV0mewAQyfCNpP200fjYE25aAOOOuYIkg7gauNXqg6YFQ3Lx38i7kbiuy4gNIKiGlJqRzhX9AeD4BmCpDlJZjrkHu65Su0H6gSF', 'width': 4624}]",-7.8059267,112.0991011
"645V+V22, Area Sawah/Kebun, Gayam, Kec. Gurah, Kabupaten Kediri, Jawa Timur 64181, Indonesia",Candi Tondowongso,ChIJidKsV1NZeC4RaNul4JZ4Cp8,4.0,"['hindu_temple', 'tourist_attraction', 'place_of_worship', 'point_of_interest', 'establishment']",91.0,"[{'height': 3120, 'html_attributions': ['<a href=""https://maps.google.com/maps/contrib/104119381198847151713"">Ahmad Fathoni</a>'], 'photo_reference': 'AUGGfZn3CLEP2rOvJi8yG44fT0lddd4E9uDbJFdkAxDRSYvesl4T2ZeO7fXKrtgB63cJ9J5IW_j8AJL5Vwrqsm7n8rqDm60Gq1vMmcOA9SZ8l8MK_t5bq0bJdr4f_3Yr2U0rDZ31mm1p-UWS4EWm2L0Rc7ibmGZMsWgIDBZVTsjgkxYaKWAP', 'width': 4160}]",-7.7903715,112.1425069
"5XV5+7WM, Hutan, Mojoroto, Kediri Regency, East Java 64115, Indonesia",Watu Bengkah,ChIJp10nv6VWeC4RfKgnL4_Fk54,4.6,"['tourist_attraction', 'point_of_interest', 'establishment']",225.0,"[{'height': 3000, 'html_attributions': ['<a href=""https://maps.google.com/maps/contrib/103379849188252398993"">Rizki Aga</a>'], 'photo_reference': 'AUGGfZlxmUNobXHQyrNLJ3dvuseqyyJwQTePFDcCUpCgvqJENDaDh6zGAz6CFc9Q3DAukcbj7QRJ21T3CzZTI2zeNM1b2Mj86z2_VcMDKEPOZBw8B26H-3hDJSZWDSQo98B4vMQ5tUVQPcr7dALHwE91mvv1RHbtvQBYSlzPdVezEO0z_noK', 'width': 4000}]",-7.806779099999999,111.9598024
"Jl. Perintis Kemerdekaan No.90, Ngronggo, Kec. Kota, Kabupaten Kediri, Jawa Timur 64129, Indonesia",Taman Ngronggo Kota Kediri,ChIJg7USTaRXeC4RgZ_CPb_JzWs,4.4,"['tourist_attraction', 'park', 'point_of_interest', 'establishment']",3848.0,"[{'height': 2448, 'html_attributions': ['<a href=""https://maps.google.com/maps/contrib/106175350927334757165"">A Google User</a>'], 'photo_reference': 'AUGGfZlOy5_393IIHD4_-qP2KTL04_DHcx_Q9vUmWG6EvZw3JqfQBXTxIrLrCjWnKJol147fUJMbzFJE0qLOoVEEaO9G6Lr8VrtBxtX9CR5apKary7dYE9EZRpzMgtkfbFZ5pZg1zig4Eqx72DJcNZyBwgDu0pLi9P8NONh9Ie8j6bFvalYd', 'width': 3264}]",-7.838575799999999,112.0111312
"Jl. Thamrin, Krajan, Dukuh, Kec. Ngadiluwih, Kabupaten Kediri, Jawa Timur 64171, Indonesia",Wisata Sugih Waras (WSW) Dukuh,ChIJn2g3ukf4eC4RbkNHc4eCAkU,4.3,"['tourist_attraction', 'point_of_interest', 'establishment']",1308.0,"[{'height': 1846, 'html_attributions': ['<a href=""https://maps.google.com/maps/contrib/103501433349266996818"">khozinul asror</a>'], 'photo_reference': 'AUGGfZmOC_7oFemo0xh-Kmk05Js4Cix3tXywFgyvL4JzPuHnTMZo41FKjgbGjWPudArc6SDyGB-QmLKct0m64X0KOBj5BXd4Yb1Bifhh5X35Ge5GeEIhHMc2E0MiMH4iEsgr-Iet21MHb1VCVCXFRtE2O4cgknx4M__C4pbFverfbu-23ECN', 'width': 3280}]",-7.9023102,112.0217112
"Kompleks Simpang Lima Gumul, Sumberejo, Dadapan, Sumberejo, Kec. Ngasem, Kabupaten Kediri, Jawa Timur 64182, Indonesia",Gumul Paradise Island,ChIJN0nFcLP5eC4RAw5IW6VPl7U,4.3,"['tourist_attraction', 'amusement_park', 'point_of_interest', 'establishment']",4204.0,"[{'height': 2368, 'html_attributions': ['<a href=""https://maps.google.com/maps/contrib/118231992291185240186"">shony jr</a>'], 'photo_reference': 'AUGGfZmiocbA18OooN0jHXNzNPy8c6iPz63pmLAHDD__gmMpOWnt2YCDUzF6bcQ5uUgoEHKfrhBrDPjVvjjiGgVmyNPnhEB2EkRyIb3Q4Y0i3v6iPBcG7GY0r1iOf7lR2mD5ORNbvY5Cb_O0LPCTWsNZb1MKcrXTJUIVRnwtcvTDNuma4rcJ', 'width': 4208}]",-7.811680999999998,112.0611694
"Jl. Yos Sudarso No.148, Pakelan, Kec. Kota, Kota Kediri, Jawa Timur 64129, Indonesia",Kelenteng Tjoe Hwie Kiong,ChIJ____jxlXeC4RTRzFYAnwweo,4.6,"['tourist_attraction', 'place_of_worship', 'point_of_interest', 'establishment']",666.0,"[{'height': 4000, 'html_attributions': ['<a href=""https://maps.google.com/maps/contrib/105693939877907123261"">A Google User</a>'], 'photo_reference': 'AUGGfZlsuyM1QdTsklhouPC43vdel6q8P_z2MjDVCIvOst4WaMp0k2lD1HAvpSbEDYCjeEvEICWrWovHBArNtHpYs7iuTrVzEJpCBC0MKYAXSYu-tBP_qKKqPFxt3vD_3Wt7GpQpXihlqrNZKxdRJSmhW5MvR6qA65mHBUVdDZ-uXWgVaALU', 'width': 6000}]",-7.8200004,112.0096471
"52Q3+PJ9, Jl. Veteran, Mojoroto, Kec. Mojoroto, Kota Kediri, Jawa Timur 64112, Indonesia",Sekartaji Park,ChIJz5BqoSFXeC4RZdqSTJdzc64,4.5,"['tourist_attraction', 'park', 'point_of_interest', 'establishment']",7516.0,"[{'height': 3456, 'html_attributions': ['<a href=""https://maps.google.com/maps/contrib/103554152244215378418"">Ari Purnomoadikesira</a>'], 'photo_reference': 'AUGGfZkLp5AD_xtaZrLd0AJwlGGS_DmEToumyBJjentxn34pq7F1ujDecxRS9Iz-_JYCwXq9NpBmA4KYkzkDCAzAdqYAQSBCNic1KvwFwsshNn0fHCyToN29EiXueX10mLnNhjkoFylHMzbJLKp-8SezOTgStdQXLFb8fjKOY5WTh2XVBJ14', 'width': 4608}]",-7.8107051,112.0041194
"Jalan Ahmad Yani No. 98, Gurah, Tugurejo, Kec. Ngasem, Kabupaten Kediri, Jawa Timur 64181, Indonesia",Wisata Sejarah Gumul,ChIJm-PbjMRZeC4RjUiwFrc8F-A,4.6,"['museum', 'tourist_attraction', 'point_of_interest', 'establishment']",118.0,"[{'height': 1080, 'html_attributions': ['<a href=""https://maps.google.com/maps/contrib/102900603043385866132"">imron rosyadi</a>'], 'photo_reference': 'AUGGfZnt_lefj8eyltCrRUr4Oc8VaA4MOQDAzO87kkkch9bjulSUFb5AQPam6SvTthjjRqBW7LRIRWDblXbdqmYTNkQCJpGpDnOkxoFz81XKzi-f8l-MHVRdRlLR9XVnGC3ELDg9j41Rshlt12wc7rR-PbDC1bc_7I2MomkqstLyUcI2TLS1', 'width': 1620}]",-7.8158002,112.0623338
"Bolorejo, Tiru Lor, Gurah, Kediri Regency, East Java, Indonesia",MAKAM SAYYID ABDURAHMAN HUSAIN AL ASROR AZMATKHAN,ChIJ-1EWEqlZeC4RceIkqoQCFZ8,4.3,"['tourist_attraction', 'point_of_interest', 'establishment']",8.0,"[{'height': 1920, 'html_attributions': ['<a href=""https://maps.google.com/maps/contrib/112799621780898990657"">Firmansyah Surya Syahputra</a>'], 'photo_reference': 'AUGGfZlkkYt-XFSIeontaG0gQmVQQ5nTXlSYjiv4PgVzoC7DNha70x4Q5y1QMgz-9QaQ_3p8BuIwh1h7AXOaIyNLQnCjiDI0G4I2NENpdsvORcNVy7meV0j_3TfIB6lRgyPyYWTro3JIevhkDb7VKAnk0uTbGU2YkLfP7sMiafWzA0lcqsl4', 'width': 1080}]",-7.7977557,112.1369483
"Jl. Goa Selomangleng No.52, Pojok, Kec. Mojoroto, Kota Kediri, Jawa Timur 64115, Indonesia",Pura Penataran Agung Kilisuci,ChIJKVna8rhWeC4RmUyV03tfhsg,4.7,"['hindu_temple', 'tourist_attraction', 'place_of_worship', 'point_of_interest', 'establishment']",57.0,"[{'height': 2024, 'html_attributions': ['<a href=""https://maps.google.com/maps/contrib/104544592122796145145"">A Google User</a>'], 'photo_reference': 'AUGGfZmTPQkzCv8hDRbQuLZj3-jhsCyTDwwvCSy2L_ymAjIPg4se25Bx0PGb4eNnu_UIASOjb7xAotVLzvxwQlCkezCe2NmvbW0kfcYXBoh8_ljDZDjVVv_g5mqPYmZVcmP-gA2pi6BrHxCyDEARN3sFnPcdzRejtRUbREVM5-f7PueISVWc', 'width': 2024}]",-7.807685900000001,111.9744125
"Jl. Panglima Sudirman No.1, Kp. Dalem, Kec. Kota, Kota Kediri, Jawa Timur 64129, Indonesia",Visit Kediri,ChIJv0qtBABXeC4RcutEi6WgaKo,0.0,"['tourist_attraction', 'point_of_interest', 'establishment']",0.0,,-7.8266197,112.0109485
"Jl. Raya Kediri - Plosoklaten No.163, Dadapan, Sukorejo, Kec. Ngasem, Kabupaten Kediri, Jawa Timur 64182, Indonesia",SLG Green Garden,ChIJX1PetNxZeC4RYoFu0roufp0,4.5,"['park', 'tourist_attraction', 'point_of_interest', 'establishment']",6848.0,"[{'height': 1732, 'html_attributions': ['<a href=""https://maps.google.com/maps/contrib/118329435225957296778"">Chusen Fals</a>'], 'photo_reference': 'AUGGfZklbXUUitfOXSW6bonUJIe5ad8hhJYO-8NrJVhA9fYveXOLNifpDPXtkLp13l1Z07mKlcINtadHv53WGQwLXSNUO1hr-V_jlK1hzpOQ1_N0H0TNjUzi0YV7CHLsSbJ3R27yTSV2DaOnZKdGYvjhQ-VzSXfoTNPzKXL794C5ons9Xgft', 'width': 2309}]",-7.812484400000001,112.0600835
"6234+886, Jl. Inspeksi Brantas, Mojoroto, Kec. Kota, Kota Kediri, Jawa Timur, Indonesia",PANTAI DEWI KILISUCI,ChIJcV7tGwBXeC4Ron6aEPT1z5M,0.0,"['tourist_attraction', 'point_of_interest', 'establishment']",0.0,,-7.7967219,112.0057631
"Jl. Pahlawan Kusuma Bangsa No.93, Banjaran, Kec. Kota, Kabupaten Kediri, Jawa Timur 64129, Indonesia",Taman Kota,ChIJQfGLb2xXeC4R4aMRT8zmEdA,4.5,"['park', 'tourist_attraction', 'point_of_interest', 'establishment']",1107.0,"[{'height': 3120, 'html_attributions': ['<a href=""https://maps.google.com/maps/contrib/117069179626010977095"">Datik Setyoaji</a>'], 'photo_reference': 'AUGGfZkpvFxGFXs8PJ85g-H-bYR1wG36nLB3DcSYvYuUhfGgFGSrT3qwl53zbtozZEqKNYhU4LkOaN7LpORUBRYSQebsiPjECLm6cTzD86ZGBY41hC5_kXfV6K-vrOu8H4pmtSLY-szf2YB0K53Er4V3P3js0reQOb-izlANHYkpQbKCS_o', 'width': 3120}]",-7.8175399,112.0273334
"5XRG+59R, Jl. Selomangleng, Pojok, Kec. Mojoroto, Kota Kediri, Jawa Timur 64115, Indonesia",Sun Flower Park Kediri,ChIJ6QnUVL9WeC4RECE8dB6GOsU,4.2,"['park', 'tourist_attraction', 'point_of_interest', 'establishment']",167.0,"[{'height': 5344, 'html_attributions': ['<a href=""https://maps.google.com/maps/contrib/110197739971834037627"">pika iteza</a>'], 'photo_reference': 'AUGGfZkXNT6eJc6vTjVWks2cRkYs8XnUzFgE1YlgX-PHAJlMkkKAt-DzzpzU7eS41nDzP1L4gkBt16h17w2Oo42SYKGm0sMT7qQIS4HKi2qI4Miqfwe3T_HhQ5vKi_HsmqvhSbuukPeGZmKeOhiKMp61owexebbtcO89jyRh-NEKVvbGuQll', 'width': 3008}]",-7.8095158,111.975887
"6232+VCP, Ngampel, Mojoroto, Kediri Regency, East Java 64112, Indonesia",KAMPUNG HERBAL,ChIJZbVAluFXeC4RWRVjKxdXdlk,5.0,"['tourist_attraction', 'point_of_interest', 'establishment']",1.0,"[{'height': 2252, 'html_attributions': ['<a href=""https://maps.google.com/maps/contrib/108146560978445291858"">Mh Nuraziz</a>'], 'photo_reference': 'AUGGfZmBIQAgn1xQUDluWs2_Ngvd-H_noDDE7wunOAtm0gAl2wMTAs6aGjhkfoJ5hKSBa-A6WKnIMe2aizEfpcOo_4iqqdQfIyNR_e3FLAh68jGy38Jt1_gr4qIyC8VkAqgue8PMzVwNRngeTHHlkCG4PRoIYTS6D0bsi3KPm7bxyOsOmZIS', 'width': 4000}]",-7.7952992,112.0010729
"6282+CRC, Mrican, Mojoroto, Kediri Regency, East Java 64111, Indonesia",Pintu Air,ChIJbyPl9fNReC4R3EwbsY0_16s,5.0,"['tourist_attraction', 'point_of_interest', 'establishment']",1.0,"[{'height': 3048, 'html_attributions': ['<a href=""https://maps.google.com/maps/contrib/115760110054476515259"">kholil ibrahim</a>'], 'photo_reference': 'AUGGfZnhHgNOLx61oCtBzFpLjKpuFc11K6Xn-94sZAAlOYCGG6UnA_AtlwotzCLSHxGRhTb5sBZ5xvKxCpOxUtR1t7jsEw2n45UevLQBumoj6BN7ac7mkSI0dwUPS0cWk8vgNYF6GXTqJ1hU_aMAd5O9hkCaZv0La82bahlWtMkUsghPoH3f', 'width': 4064}]",-7.7839127,112.0024157
"4X3R+MMC, Ngadiluwih, Kediri Regency, East Java 64171, Indonesia",Taman Ngadiluwih,ChIJH0xFLvP4eC4RunHunFVxqVA,4.4,"['tourist_attraction', 'park', 'point_of_interest', 'establishment']",2023.0,"[{'height': 3000, 'html_attributions': ['<a href=""https://maps.google.com/maps/contrib/111904823900573929011"">A Google User</a>'], 'photo_reference': 'AUGGfZk7f2oMcNa7SZjqdO7Zf55WOs3YS7NVobNSb1aH2n8N6LwMbNiM3HcEieJ4AOgfEf3I19zmvrjtZBA4Llgtwx4eoqTtr4fB6pO_EpuGaZ_Vypm2EY4PQJSPFRas7S-khX5DhgB8NwrwRUYMQGaYgwmbLXB6yIy5FBY1WbbMl1PLgVwX', 'width': 4000}]",-7.8958117,111.9916275
"5XJ8+C74, Jl. Tembus Lb. Tumpang, Pojok, Kec. Mojoroto, Kota Kediri, Jawa Timur 64115, Indonesia",Situs Batu Tumpang (Watu Tumpang),ChIJn5gaRGlXeC4RzdoAuJUlS_Y,5.0,"['tourist_attraction', 'point_of_interest', 'establishment']",2.0,"[{'height': 1920, 'html_attributions': ['<a href=""https://maps.google.com/maps/contrib/112431737393700021495"">A Google User</a>'], 'photo_reference': 'AUGGfZmjB2sagDsSJV9Ak9L9LoxB_HjW1RwC9x5sFoyQVaJA2TGAPP0PvaGJn27oqHoIWBi-ShdWz7odVCYU8ckSbds9fHTEaeumKiSmQiQpr-S3zEs95uJDb6pJf6OGDcVo0Nn_bYZbnzbVJVkUJfwDsGUtT_AdBIP9DkNEwc7oRGiMEfbV', 'width': 1080}]",-7.8189974,111.965715
"5XVH+VPM, Jalan Lingkar Maskumambang, Gunung Klotok, Mojoroto, Sukorame, Kec. Kota, Kota Kediri, Jawa Timur 64114, Indonesia",Wisata Pendidikan Agro,ChIJU85QNMZWeC4RHbVDsPtMEsQ,4.5,"['tourist_attraction', 'point_of_interest', 'establishment']",46.0,"[{'height': 3000, 'html_attributions': ['<a href=""https://maps.google.com/maps/contrib/102258912442447001939"">mas sailupy</a>'], 'photo_reference': 'AUGGfZl52MtiDIuACNA5KyRZPjvj2BTcJF7yt22I3fxO7l79o-28TDrdKFa99yAe8bBpPVj_df0Au2rMO3Rd9sUIZNtqigqMSBIWwvRYz_GVPgFJYYLP0ATtCBuxvPoSkQZQn5EUHQ0OYV-M1lHpd5WLCITXOqCxt2ldiRCf6Km83edh-iZj', 'width': 4000}]",-7.805298,111.979289
"52MG+WF5, Banjaran, Kota, Kediri Regency, East Java 64129, Indonesia",Taman Bunga Tirtoyoso,ChIJfY_qOgBXeC4RTzmyaonVhtE,4.7,"['tourist_attraction', 'park', 'point_of_interest', 'establishment']",9.0,"[{'height': 2448, 'html_attributions': ['<a href=""https://maps.google.com/maps/contrib/101469743942801065811"">cicondro hadi</a>'], 'photo_reference': 'AUGGfZmBvPE_F_dHgsZdfQ1EApGDcWvQgthcZAUHajQaFx8D9uemvNwADrNe3hxRuZzyu6xhw8Mj0fnPmaukg1mhJyN2ppRg0LM39FKKo56mJXuoA8Szn0aUhHN8Pmr0gLdU7aRIq8UcGyqv9xmaEx9F1KMuQHFmi7-5Ogb_gImsmJLzkcAm', 'width': 3264}]",-7.81524,112.0262384
"52V4+XM2, Jl. Inspeksi Brantas, Mojoroto, Kec. Mojoroto, Kabupaten Kediri, Jawa Timur 64112, Indonesia",Pantai pinggir kali,ChIJ87UTOFZXeC4Rm1Zpw3Dfqxg,4.5,"['tourist_attraction', 'point_of_interest', 'establishment']",2.0,,-7.805103,112.0066449
"Jl. Panglima Sudirman No.160, Kp. Dalem, Kec. Kota, Kota Kediri, Jawa Timur 64126, Indonesia",Masjid Agung Kota Kediri,ChIJd79G6gVXeC4RX21t2g3Vt_8,4.8,"['mosque', 'tourist_attraction', 'place_of_worship', 'point_of_interest', 'establishment']",4998.0,"[{'height': 3264, 'html_attributions': ['<a href=""https://maps.google.com/maps/contrib/109034060052890631786"">A Google User</a>'], 'photo_reference': 'AUGGfZmAL60hDkSOAEMR_rs9HO453bW13ZLV4hRkaTc6zth3HQkhJMrpxk_E3XRmKsHC-8kPFzswK35K7id6g5p-0_guIDajFPJhbjef_BchFZ7lTQkn1u9hfUaXBhXltf5tFZ4ckjz-fDwTyv-PiIXs5n3lpQshM_FPeGRUXmvX2k-RoDvV', 'width': 2448}]",-7.82683,112.0100684
"524C+C6W, Jl. Perintis Kemerdekaan, Ngronggo, Kec. Kota, Kabupaten Kediri, Jawa Timur 64129, Indonesia",Sumber Ngronggo,ChIJ1WFiDJJXeC4RDK-_-ldbSWk,5.0,"['tourist_attraction', 'point_of_interest', 'establishment']",2.0,"[{'height': 1520, 'html_attributions': ['<a href=""https://maps.google.com/maps/contrib/112351847956775684680"">Mr Samoel</a>'], 'photo_reference': 'AUGGfZlUYs9-k2MPyOsCqI8EV-R3bsFPDpc_3GBa1mXRE4P02mrDyph5KWIT3vOXE5Adx-s3iOFiw5a6VlCZ_bAVfcnLDU6cu2Ci0acQ93915lfPL1qga-nK1Hh5lri35uO_Pm_rH4z6MWzF59juzcvPuMzxscNe9R2WBqYToIuE3JYelDYs', 'width': 720}]",-7.8438893,112.0205682
"4XPQ+6GV, Mondo Timur, Petok, Kec. Mojo, Kabupaten Kediri, Jawa Timur 64162, Indonesia",PANTAI KEMBANG PUCUNG,ChIJEdX-QwBXeC4R3C9NpD_X6-s,0.0,"['tourist_attraction', 'point_of_interest', 'establishment']",0.0,,-7.864392100000001,111.9888102
"6296+96H, Putih, Jongbiru, Kec. Gampengrejo, Kabupaten Kediri, Jawa Timur, Indonesia",Warung Kopi Pak Pri (Warung Pojok),ChIJ0StTDrJReC4R2QKW36ISgC4,4.5,"['tourist_attraction', 'point_of_interest', 'establishment']",4.0,"[{'height': 3264, 'html_attributions': ['<a href=""https://maps.google.com/maps/contrib/116246958777137921534"">rudi anto</a>'], 'photo_reference': 'AUGGfZkDbgp6AjL1_IdVEQ301jSzs2mnDnmkfAZa99Er1nCparvJ8ezf9M08njGsWmy7pw0N-PBKcpmK8xlUeifqg-DzF8pHsh_XNCGSKTiWasrXhHLmg2i8YaD9usjBIw54jMNAIL5PYfbs9-bdQWeGWETTeVpC73l-qYyLEWhXIsA8g3Sq', 'width': 2448}]",-7.781562600000001,112.0106151
"6278+7H6, Jongbiru, Kec. Gampengrejo, Kabupaten Kediri, Jawa Timur, Indonesia",Lokasi mancing ikan wader/baderan,ChIJHQOJpwdReC4R78ExiD0Untw,0.0,"['tourist_attraction', 'point_of_interest', 'establishment']",0.0,"[{'height': 3264, 'html_attributions': ['<a href=""https://maps.google.com/maps/contrib/116246958777137921534"">rudi anto</a>'], 'photo_reference': 'AUGGfZkdGve5bPSyB5PptIUW3BjMGq-yjLYsTAmkuYg6UqeDiDx3TeyIAHjVirrI3FDRNHJz0xyQaKkEUxxhmZP6LFbmwM2rxZmHlIOHCCv6KRURwOoEF2g5B5jC_5jNO4ARa5RmL-duW4jIToSYi8zsihXSFienWpPGRk-tGaLjTk6M7QLz', 'width': 2448}]",-7.786844499999999,112.0164001
"52MX+QG3, Doko, Kec. Ngasem, Kabupaten Kediri, Jawa Timur 64182, Indonesia",Dam Gorante,ChIJET02c_JZeC4R_NtGeH1QE2U,3.0,"['tourist_attraction', 'point_of_interest', 'establishment']",2.0,"[{'height': 3264, 'html_attributions': ['<a href=""https://maps.google.com/maps/contrib/116246958777137921534"">rudi anto</a>'], 'photo_reference': 'AUGGfZnl9uiokVjzjb5tbsN2NyF0rOvbO4s28D02YCJ9wC1JoOeWbFqhSTAbD_WQqMMLFJDTH5vMVRSHqQ-2wF20vua87p9jVzD7Jwh5WXMszisaqEo9xaUuPcZjhYZFH1zsaCAvNuJ2EI4KnyfCfjDHRMZFlkwjz_P5jgVeRv9_JXRJqr1I', 'width': 2448}]",-7.8156104,112.0487944
"4X48+MR4, Jl. Melati, Besi, Mlati, Kec. Mojo, Kabupaten Kediri, Jawa Timur 64162, Indonesia",Mas oblo,ChIJyYBgEgD5eC4RBWjDckFXN44,5.0,"['tourist_attraction', 'point_of_interest', 'establishment']",2.0,"[{'height': 3000, 'html_attributions': ['<a href=""https://maps.google.com/maps/contrib/108900111349622607443"">Fajarsodiq aja</a>'], 'photo_reference': 'AUGGfZmLqeSM3JvLabqAY22w2vlHmpq3l5FZZ5Rz3kNE0ECLdYq5x0d3pfsXxAEWYstOyDFMHYJc8zLntK4E5bj1udtLMbgtgd3fJsJJJnr9GoPXcRKt17xfmuz6ldg4hKFsPPqbchS1iGChnBhdFuK5jwz3egagYGpc805t1cJI7UbMipJJ', 'width': 4000}]",-7.8933602,111.9670817
"Jl. Raya Mojo No.43, Tulungrejo, Sukoanyar, Kec. Mojo, Kabupaten Kediri, Jawa Timur 64692, Indonesia",Petik jeruk,ChIJYzroEkr5eC4ReHDZWuqwqPs,4.0,"['tourist_attraction', 'point_of_interest', 'establishment']",4.0,"[{'height': 2448, 'html_attributions': ['<a href=""https://maps.google.com/maps/contrib/118268035304222680617"">Achmad Wahyudi</a>'], 'photo_reference': 'AUGGfZlqD0NhYx4YVgXDTmKHnp_JyPyeK_OXFSQ3NuNKQ21MBEPKIAAj26Ie5YIlr1kEtG5rEpU88In7EAhmHxMh48looKF_4oYKhTRqXIqZb_ncD9paPf6UkoXmwWzoXYUQsXOoTmSYp1AV8GFNCX2okZVJ6K4UVlCJBlLIBW5-5q7NRb_R', 'width': 3264}]",-7.8773836,111.9657935
"4X84+C9H, Kebumenggah, Surat, Kec. Mojo, Kabupaten Kediri, Jawa Timur 64162, Indonesia",Kebumenggah surat mojo kediri,ChIJKdBvbgD5eC4RAamoUXT4ARY,0.0,"['tourist_attraction', 'point_of_interest', 'establishment']",0.0,,-7.883936,111.9559753
"Cangkring 03/03, titik, Cangkring, Ploso, Kec. Mojo, Kabupaten Kediri, Jawa Timur 64162, Indonesia",Dam kulon cangkring,ChIJO6lBi8X_eC4RjhmVKAbouME,0.0,"['tourist_attraction', 'point_of_interest', 'establishment']",0.0,,-7.919952899999999,111.9510765
"Jl. Kalongan, Setonopundung, Ngadi, Kec. Mojo, Kabupaten Kediri, Jawa Timur 64162, Indonesia",Wisata Sor Pring Ngadi,ChIJe9Twtff_eC4RXEyN9UZn2t0,4.3,"['tourist_attraction', 'point_of_interest', 'establishment']",646.0,"[{'height': 4160, 'html_attributions': ['<a href=""https://maps.google.com/maps/contrib/114050381473918199902"">Kukuh Kediri</a>'], 'photo_reference': 'AUGGfZlSegqSPcPwoF84WdAKL2PFYmAM0yJzPgT7UGEHziWOkNj6dyiOhRh4Ur7BZJ0LTpxmcLhlZOeXH5IR37az_Nvg7ZcIcrttg50a7MMZZwFJ0igPt2UzfaqnksVzi3qHwEJcFj6jGYO6uJ0GLn6ReBspruCMy_5-a36mJz14LR6WnkHR', 'width': 3120}]",-7.954118599999999,111.9303726
"2WVJ+X7V, Jl. Kalongan, Babal, Ngadi, Kec. Mojo, Kabupaten Kediri, Jawa Timur 64162, Indonesia",Pasar Jajan Ndeso Sor Pring,ChIJtwWR3-z_eC4RLv6Et1QPqI4,4.3,"['tourist_attraction', 'point_of_interest', 'establishment']",64.0,"[{'height': 4160, 'html_attributions': ['<a href=""https://maps.google.com/maps/contrib/102702458471996211955"">raditya putra</a>'], 'photo_reference': 'AUGGfZl6ffoOqAkUk-FjiQIWm0EwW4eMinGG8YrbWjdzeXLpr48zvVGZtyq6lwAE-BdKdY-eCO3u4paM24q-ew71DUSpUaMLEdUho4RmTb5WPPA9Axc0FzuFQmgMWLZf5-J9PNUzi2xbsf5ZhrZYnzGNdf-qgdMzk779inFLYHbczxodwrKs', 'width': 3120}]",-7.955020599999999,111.9306839
"4RGW+PMP, Jl. Slamet, Hutan, Blimbing, Kec. Mojo, Kabupaten Kediri, Jawa Timur 64162, Indonesia",Wisata Air Terjun Parijotho Blimbing Mojo Kediri,ChIJ3TRbQXqreS4R4X9TvA94g-4,5.0,"['tourist_attraction', 'point_of_interest', 'establishment']",1.0,"[{'height': 4608, 'html_attributions': ['<a href=""https://maps.google.com/maps/contrib/108587674979368976972"">Johan Wahyu</a>'], 'photo_reference': 'AUGGfZn22LBhNeLTxDfO8ecDbbfExGTMnRpQ4PzTL0MstM4udGfvPQgMUfk-7NYjGHwdCiuvReDWsHv5iMZTzmY71INFA9IxPDEJE-PMTTbDuYPckwAQXsAlbKCK2pA5VFMNLzGH6GHeX32EfA1Di9nFeBQ17A5aUosBSess8RhQcueK7WBx', 'width': 3456}]",-7.873168,111.846715
"3WH7+54, Sawah, Kedawung, Kec. Mojo, Kabupaten Kediri, Jawa Timur 64162, Indonesia",Kebun sengon,ChIJF-IMWDf_eC4R3HEqSBLV4cQ,0.0,"['tourist_attraction', 'point_of_interest', 'establishment']",0.0,,-7.922041,111.912808
"4VMF+HVQ, Jugo, Kec. Mojo, Kabupaten Kediri, Jawa Timur 64162, Indonesia",Jugo,ChIJxS5jCXJVeC4Rsu3RugJBmKU,0.0,"['tourist_attraction', 'point_of_interest', 'establishment']",0.0,,-7.866031100000001,111.8747445
"4RPQ+GRJ, Jl. Slamet, Hutan, Blimbing, Kec. Mojo, Kabupaten Kediri, Jawa Timur 64162, Indonesia",Kediri Lagi View,ChIJW09bNDereS4ReeKlyMNHvfE,5.0,"['tourist_attraction', 'point_of_interest', 'establishment']",1.0,"[{'height': 3712, 'html_attributions': ['<a href=""https://maps.google.com/maps/contrib/102900603043385866132"">imron rosyadi</a>'], 'photo_reference': 'AUGGfZntHQ96WwZWNTVANbddg0HbVYPZMODbUcjYtqIku5b0BuXr80JQHUzGARGSBVD_ZIvEAj1b39zUFSZYalhXyJ7WzHUP5FxVWfvRH7Ap_cdXzLsXPmuDWuvLbG4QiTk9ZVm_OilwKqy28vaevr6sbDCXWy-Jfs3olkjIitY01eUrCcSU', 'width': 5568}]",-7.8636588,111.8395151
"Jl. Dukuh Kebomenggah No.2, Kebumenggah, Surat, Kec. Mojo, Kabupaten Kediri, Jawa Timur 64162, Indonesia",JEMBATAN GANTUNG SURAT,ChIJ_QJtYwD5eC4RKZ_oQbi18og,0.0,"['tourist_attraction', 'point_of_interest', 'establishment']",0.0,,-7.88578,111.95428
"3WMF+JG, Sawah, Kedawung, Kec. Mojo, Kabupaten Kediri, Jawa Timur, Indonesia",Sumber minong,ChIJ_VcBUyr_eC4RIZ8Z0gu8-yQ,0.0,"['tourist_attraction', 'point_of_interest', 'establishment']",0.0,,-7.9159599,111.9237519
"RT.002/RW.001, Besuki, Jugo, Mojo, Kediri Regency, East Java 64162, Indonesia",wisata Balekambang,ChIJlSok5ktVeC4RKfzoNVcJxVo,4.3,"['tourist_attraction', 'point_of_interest', 'establishment']",221.0,"[{'height': 3456, 'html_attributions': ['<a href=""https://maps.google.com/maps/contrib/104415206275591345000"">A Google User</a>'], 'photo_reference': 'AUGGfZkCVCBqRZFu7oLx8V9RjmVle6xjEC37mL5hiJSkUwBSOJUcak3OpxbIAyqpMrtQX5NzV30JqpF73SAwxXnsFTqQS21Xl-NmgWLfyhpv0w52ga3piaZfkF_Do5EYimzBNT6BaCtKFbassYPqOMykC7TZxYZWbR-uSAfoYULhenCsc8Nl', 'width': 4608}]",-7.8657828,111.8621064
"Jl. Kapten Tendean No.60/160, Ngronggo, Kec. Kota, Kota Kediri, Jawa Timur 64127, Indonesia",Kediri's Photograph Museum,ChIJk_hziJNXeC4R7m0wUI2jVD0,4.0,"['museum', 'tourist_attraction', 'point_of_interest', 'establishment']",80.0,"[{'height': 1366, 'html_attributions': ['<a href=""https://maps.google.com/maps/contrib/100521573339252141042"">A Google User</a>'], 'photo_reference': 'AUGGfZluU7HIneCb2fQZVDA2mSRsgHLGvvF4sBEOsUhZX5tB7r0Pv91_0uhYcDvh_SWBE1Oq116ZikHqDR2rshVQ-yC9N298mCEMSDgPSCDobqV0YtaLKy-GHq0QmC0Lp1DNH7parZhYNKyHkramstZo3MEdpqeQGt4xaSgRyAtwBAmKY1I', 'width': 2048}]",-7.8475162,112.0297879
"Unnamed Road, Hutan, Keniten, Mojo, Kediri Regency, East Java 64162, Indonesia",Agrowisata Keniten,ChIJXUfWXXdVeC4R_lJ3L3SaxFc,4.3,"['tourist_attraction', 'point_of_interest', 'establishment']",60.0,"[{'height': 2296, 'html_attributions': ['<a href=""https://maps.google.com/maps/contrib/102604655329873335034"">Anak Monyet</a>'], 'photo_reference': 'AUGGfZlEzZZ0A0dP3U-molDt59ISZMSE09PFp3AIq4hf6-NtXT4xHbyfqPbO3Hp-7wS8AQX5UGgdLP0aqFq3w9GHFHsgllZNaKZxeZ6FU5UMBJl2u_VsPZWVONesNS42ayUVvmqkQtx8Xyyd6HjQWN3V9Y9JHS4OAJ6bshN5xAWW9tzTsF5w', 'width': 4080}]",-7.860866,111.9467977
"4WMP+8G, Hutan, Keniten, Kec. Mojo, Kabupaten Kediri, Jawa Timur, Indonesia",Jati Sumber Dandang Keniten Kediri,ChIJI3MnirBVeC4R2C0_DbXQrI4,1.0,"['tourist_attraction', 'point_of_interest', 'establishment']",1.0,,-7.8666452,111.9363693
"Tapen, Tambibendo, Mojo, Kediri Regency, East Java 64162, Indonesia",TAMAN MINI JWK MOJO,ChIJbyO4WAT5eC4RStIQ_vomkVc,4.5,"['park', 'point_of_interest', 'establishment']",75.0,"[{'height': 2340, 'html_attributions': ['<a href=""https://maps.google.com/maps/contrib/112904897409474263152"">A Google User</a>'], 'photo_reference': 'AUGGfZnNOKNJpMEUQecztHuO1FaY-W23Anr2ineVw0YKhXoSs0WoCKrDQlG_NWygJxkKsUyJEmyqlGTME9NSYQ2-MwFWdLNX1pC39eT_fWRXiBcI8ax1dMMNxNEBp4-GNKz1899TGO5RRF68Pp6mw4ElJgCUvnIyvANJj0Sxeqwhsrfg2TLE', 'width': 4160}]",-7.9020565,111.9652118
"4V9V+49, Sugihan, Blimbing, Kec. Mojo, Kabupaten Kediri, Jawa Timur, Indonesia",street view candilung,ChIJK0NOYHH_eC4RkBp_qgPhhsg,0.0,"['tourist_attraction', 'point_of_interest', 'establishment']",0.0,,-7.882190499999998,111.8934905
"4RPQ+C44, Jl. Slamet, Hutan, Blimbing, Kec. Mojo, Kabupaten Kediri, Jawa Timur 64162, Indonesia",Jembatan jomblo,ChIJr1yj4dOreS4RrR_szrJ5aTc,3.5,"['tourist_attraction', 'point_of_interest', 'establishment']",2.0,"[{'height': 1600, 'html_attributions': ['<a href=""https://maps.google.com/maps/contrib/100634355610699096673"">A Google User</a>'], 'photo_reference': 'AUGGfZlaLRDRCrll3sh3GhaRDLB-oynCG2hKIm5FxyGm89cTztCVkGJa35hpZPEYFFGQKz9DUd0iW1bhklSBYs9AXiwtTrPsf5LOA_4whWa30d0ehfRQka4RXvuKYypIrcFaSwH0SyxrhDHSje-OZfz7VWuJQWnAivuoRf9SKeRbS6J0IrdY', 'width': 1200}]",-7.863976999999999,111.837826
"Jl. Tembus Lb. Tumpang No.18, Hutan, Kec. Mojoroto, Kabupaten Kediri, Jawa Timur 64115, Indonesia",Wisata View 138 Kediri,ChIJfz96a5dWeC4RkryLYXNG4kI,4.2,"['tourist_attraction', 'point_of_interest', 'establishment']",440.0,"[{'height': 2250, 'html_attributions': ['<a href=""https://maps.google.com/maps/contrib/111661865747954935528"">onny iman</a>'], 'photo_reference': 'AUGGfZmo9lRFfvUm671ujyqcQp52SlvcZisvFpSQGor-B3Cf76Cw2-UYskLw2pty561ScoRXJpTldayVVQglkG6NXItUR21NXtBFpyzZW6ONhDNZWA0QKU4urejXydWi6ayr9EUIA3oPAWzz25i52sXUVKooHmCZ9plA9QrMAgbsCO8Y4S2D', 'width': 4000}]",-7.819274399999999,111.9667891
"Jl. Ahmad Yani No.10, Tepus, Banjaran, Kec. Kota, Kota Kediri, Jawa Timur 64124, Indonesia",Taman Wisata Paggora,ChIJ3-t7b2lXeC4RsiyOgbISKTA,4.2,"['tourist_attraction', 'point_of_interest', 'establishment']",854.0,"[{'height': 3000, 'html_attributions': ['<a href=""https://maps.google.com/maps/contrib/108593803849524288860"">LhaiLy Lhely</a>'], 'photo_reference': 'AUGGfZlv6WLwhvFvk2mC_i8ouLHRDHPawSQPMx_7Y34emvoaW6Henb2bfY8e1Gnssik2p0ZpzBB_vOR6e_3Rgn7tBshN-B8BmVEWAx0nOm61U5706WjFddh4ibN9QP8t2xDetvfbu8rfnnVHxBgI4hjErk83GbO2xOhx5eVMUeKFPs7RT7R6', 'width': 4000}]",-7.8160392,112.0302862
"4VM2+MQX, Besuki, Jugo, Kec. Mojo, Kabupaten Kediri, Jawa Timur, Indonesia",GAZEBO RONGGOLO,ChIJua9xbKOreS4RVqbd4mIkPFQ,5.0,"['tourist_attraction', 'point_of_interest', 'establishment']",1.0,"[{'height': 1836, 'html_attributions': ['<a href=""https://maps.google.com/maps/contrib/110801269025917904474"">A Google User</a>'], 'photo_reference': 'AUGGfZnEo90v3yry6NuSYwaRBqcvY8Jz0ylM3yEMdWp1oj-dlo4ulHX8pbF8HEeS8xE8pJbloh4jvdaaof5I_WDdMZIjOjNQbXH4U1yYwXuPtzD80i6NcztHR2-ab6arxeqM0mgHB7H9JRY4e94-FzTmiM3S4ZbXAMLBZo07brP4fyJsJya1', 'width': 4080}]",-7.865757100000001,111.8519931
"3X73+VC7, Jalan, RT.02/RW.02, Kepet, Maesan, Mojo, Kediri Regency, East Java 64162, Indonesia",Kolam Bu Bad (Nyai Hj Lailatul Badriyah DJ),ChIJAUnblZ_5eC4R8yd4TzoWfgA,5.0,"['tourist_attraction', 'point_of_interest', 'establishment']",2.0,"[{'height': 3264, 'html_attributions': ['<a href=""https://maps.google.com/maps/contrib/117786175815406022954"">A Google User</a>'], 'photo_reference': 'AUGGfZlIIX-wivdciueDVQnSbykEt2-vCPbXSXPbYNsrnqrt-ma7ixZpaayalHHM2DRxSWAoLiWwjHV4MiYZ_MpNzqSWLRcLxOjYYP7FAPGDcIXKrHAakxQDR5sUHD8sLHneKrSiRWwqf8Z4U4IICC55PZ5upftz8cwpCzEm7EWaFch2ILdn', 'width': 1536}]",-7.935346699999999,111.9535617
"5XM5+57Q, Jl. Tembus Lb. Tumpang, Pojok, Kec. Mojoroto, Kabupaten Kediri, Jawa Timur 64115, Indonesia",Sumber Tretes Kota Kediri,ChIJcW8xy5hWeC4R1uhv6nUWYas,4.5,"['tourist_attraction', 'point_of_interest', 'establishment']",38.0,"[{'height': 2448, 'html_attributions': ['<a href=""https://maps.google.com/maps/contrib/105990498467003839522"">luluk kurnia setyorini</a>'], 'photo_reference': 'AUGGfZn88YMJIx5xRMb1UNo_x_GZPSCCIGgXDdiY_aDw62otVyQr825qFsKmLPoX0AB0Zp3RjTlITk_B1ZfUck1Df2KpvNhFt2tTOSJ4liJVhyA1_LhpGRtzJ3HD7WAM4N3UIznkcb_HOxNIaDAC_PvMaaYTtcFR3pwzyxlGGbhq1Ng8p-Ai', 'width': 3264}]",-7.8170457,111.9582374
"4RJM+X9Q, Jl. Slamet, Hutan, Blimbing, Kec. Mojo, Kabupaten Kediri, Jawa Timur 64162, Indonesia",Halaman Parkir Wisata Air Terjun Ndolo,ChIJofTZGr6qeS4RFJ5h7BV-vf4,4.3,"['tourist_attraction', 'point_of_interest', 'establishment']",185.0,"[{'height': 6936, 'html_attributions': ['<a href=""https://maps.google.com/maps/contrib/102754227605974108067"">A Google User</a>'], 'photo_reference': 'AUGGfZnlh1XSQctT9fEtVVg5y5yo1MdtupqhjB-_35Dug0JWhGhXG7c_mdpCn3B05Wpspf3mJYBK6PoeLNf4RhOW74cvQIS5HtO5xZvoxrWS-Sxtch5dsVS01ou7ez5j8D87czqbp04qLOqQbR21S_Kxk8tB4lKCZGiAD_eawqrWq0T84LNq', 'width': 9248}]",-7.867553999999999,111.8334521
"4VP3+JH9, Unnamed Road, Besuki, Jugo, Mojo, Kediri Regency, East Java 64162, Indonesia",Kelok 9 Besuki,ChIJCerp1AqreS4Rwgpnnx8FD00,4.5,"['tourist_attraction', 'point_of_interest', 'establishment']",65.0,"[{'height': 3000, 'html_attributions': ['<a href=""https://maps.google.com/maps/contrib/108593803849524288860"">LhaiLy Lhely</a>'], 'photo_reference': 'AUGGfZkpxfnRuCb7vKxfcJDRDOR808EPtHa-S9lnReK_-iYy3YVJIajbXb38dsw9B8DSMZ2RBjZZ-NbeGYufPQ8to-dZu3B3fBfBAZ6v4WYlxTvQFdwMG0eIyvyG-UAoADMZxlrShG36j1IybSYo_zq86nfsekov2VCzzNF6n2LtE_hxmtsh', 'width': 4000}]",-7.8634595,111.8539943
"Jl. Kediri Kertosono No.Km.7, Jabon, Gampeng, Kec. Gampengrejo, Kabupaten Kediri, Jawa Timur 64128, Indonesia",Bendungan Waru Turi Kediri,ChIJicw6zOxQeC4RE3c770FOcFw,4.2,"['tourist_attraction', 'point_of_interest', 'establishment']",3946.0,"[{'height': 2998, 'html_attributions': ['<a href=""https://maps.google.com/maps/contrib/116587633589286660598"">A Google User</a>'], 'photo_reference': 'AUGGfZn2PlbvJmBz6OiFszGQYYaopcOwDV-kjLLAluAYtP9lLWzSVieIRyrsPe9U0opMS1Bk5ITKIZLnR1-vhMxJuVGq78ow6KCYCw9xrAPQkJWetZvtp8QRDbOTiohUC4b44N8odwD76mLdngIfE3msrgtro5Sct4poEIcT9lnrfmwZsdpj', 'width': 3998}]",-7.7645092,112.0234513
"4RPP+2WJ, Jl. Slamet, Hutan, Blimbing, Kec. Mojo, Kabupaten Kediri, Jawa Timur 64162, Indonesia",Gazebo Wilis,ChIJP3Px0kmreS4RVaSSh7IBVrk,4.7,"['tourist_attraction', 'point_of_interest', 'establishment']",38.0,"[{'height': 2448, 'html_attributions': ['<a href=""https://maps.google.com/maps/contrib/105346485357954551219"">Didik Ardhani</a>'], 'photo_reference': 'AUGGfZkTZNU9tnUZ5bYc72h3YdE7WqxaJuAQaXyE3aE0AeSeHDT7dm6hOLurlxyfSJQnF0nbxR034QeFXv9p1lmW0PpRUx1OAHa-_ouJ3wn4gvb4bB7VC6cM_jojS5TmK5Wca4I6wmQGUWf4CBkrrCl_23Q4JPCpo1brNeTQdS4Lsn9iHtZY', 'width': 3264}]",-7.8649076,111.837263
"4V75+PV8, Sawah Dan Kebun, Pamongan, Kec. Mojo, Kabupaten Kediri, Jawa Timur 64162, Indonesia",Air Terjun Parijotho,ChIJKZE4eKj_eC4Ro6GS8aSH0mU,4.7,"['tourist_attraction', 'point_of_interest', 'establishment']",26.0,"[{'height': 3000, 'html_attributions': ['<a href=""https://maps.google.com/maps/contrib/107584635053826450167"">Habiibulloh Difa Putra Al-Kayyis</a>'], 'photo_reference': 'AUGGfZmqHq_hltUZy6_DCWsU17p00waqwTvFC1kLAMm8adi4ejU5_qyZm1mdNB98aZq_iI65vLeeva18lWvTD37ctoqgALY1zNM6LChPMALE7XszH90nitBoRnkTJcDe15KwHTHiAP6O8ORcRfVYCNZ1vAuMWfgPzK8R76XuS3ZYk4mLO5i9', 'width': 4000}]",-7.8857125,111.8597034
"4VP2+H4Q PARKIR AREA AIR TEJUN, Besuki, Jugo, Kec. Mojo, Kabupaten Kediri, Jawa Timur 64162, Indonesia",Ironggolo Waterfall,ChIJ7bMmc7aqeS4RA0_cWnsU6JQ,4.5,"['tourist_attraction', 'point_of_interest', 'establishment']",1071.0,"[{'height': 3120, 'html_attributions': ['<a href=""https://maps.google.com/maps/contrib/112306988982284831632"">A Google User</a>'], 'photo_reference': 'AUGGfZnKYOl-RdgdpK6-n1Eb9rFqcNnZARPq5-LyXgizHNcpLjq7dje2wQBXK2tweDnwbYZ5JxH8HJJuEMv1yEpMuX80I9qn4K9po3e6X8xsEqoB2Xsuwj0fVsmDfKMGzyHwMTAj_HiliJoxh9ICXYtUkaZvqy7UReHaEthfhbBm_pWoTwm_', 'width': 4160}]",-7.8635412,111.8503515
"4RQW+PVX, Hutan, Jugo, Kec. Mojo, Kabupaten Kediri, Jawa Timur 64162, Indonesia",Taman Langit Besuki,ChIJyw2ZT8iqeS4R_rE1_ANDkKE,4.5,"['tourist_attraction', 'point_of_interest', 'establishment']",47.0,"[{'height': 2048, 'html_attributions': ['<a href=""https://maps.google.com/maps/contrib/104770769968651385130"">Petouring Blitar</a>'], 'photo_reference': 'AUGGfZnyL2Nfwj6vON_7RwE99Q5qNeL8LtuhWzaDtXOkiRj2O9BvYbCeFNY9Ct5WeSxLIc2iZcPW9oGSSHs57wrJvT7WkC_HUpuVlCj4VY9XzfMrhfTVQY7O9q1mxO8D5ZOAkyRNbLHTqq4ASeNUbC07kxJZgLvbrlWhP6MyCOOHdjUo8ka1', 'width': 1536}]",-7.860635499999999,111.8472472
"4VX8+V42, Badut, Jugo, Kec. Mojo, Kabupaten Kediri, Jawa Timur 64161, Indonesia",Air Terjun Kedung Klewer,ChIJEaRwhuNVeC4R0G9oR_2WqIE,4.5,"['tourist_attraction', 'point_of_interest', 'establishment']",35.0,"[{'height': 4160, 'html_attributions': ['<a href=""https://maps.google.com/maps/contrib/105632724256439372354"">Firdous Redfish</a>'], 'photo_reference': 'AUGGfZkiGjfEYEWgY0d7FWjPbO21yleRjhJ_lkB4JoO1istQOUOxdMrMyyOfXb37bcWqHlQsh_VjljoVoODE73wXoFIL0HiUTDIZHqA_SxQlTGlZ9gnuJMixx4rPsL1Ao2g9mFWSdCKJaV2et0CFY5Ox8WoENpWcps2ufHEctdX_7fCMALxB', 'width': 3120}]",-7.850360999999999,111.8652683
"4VP5+529, Besuki, Jugo, Kec. Mojo, Kabupaten Kediri, Jawa Timur 64162, Indonesia",Pos Retribusi Kawasan Wisata Besuki,ChIJob0JEflVeC4RdpayaUQiX0M,4.8,"['tourist_attraction', 'point_of_interest', 'establishment']",5.0,"[{'height': 3024, 'html_attributions': ['<a href=""https://maps.google.com/maps/contrib/117434415881649210216"">Rizky Afreza Febryanto</a>'], 'photo_reference': 'AUGGfZl_d5xZmcVPyN_GVhSLeGUdcE_5t_sG8dCQpi08tmenLKW6csbTPJ33HF1jTqufmfn_0l5LUklhtKfQjLBUPEtcrhUdAZEWJYXS3cCmwDXyJGJUGZwT6C2zjq_jgouFV8n7p682oC35zuvEUEmBZXxUVMqWJvqEdnvyANh09QA2h3xZ', 'width': 4032}]",-7.864580800000001,111.8576012
"33FR+2G5, Pojok, Kec. Wates, Kabupaten Kediri, Jawa Timur 64174, Indonesia",Situs Ndalem Pojok,ChIJfcFl7x73eC4Rysu5q5EgoUw,4.6,"['tourist_attraction', 'point_of_interest', 'establishment']",550.0,"[{'height': 3016, 'html_attributions': ['<a href=""https://maps.google.com/maps/contrib/100257214141127648240"">anton pratama</a>'], 'photo_reference': 'AUGGfZlcvPbXkSA_oXvFrdqvreTCIPQcfGmfAxQT7cZ3miqngAVnAqViX5oF1dBw8wuh0J-2TqahTzaDtJzTitRowIqtbVBeR3iqDMOJkIAffuqA0SjlTUhn-_rSvXq2P4dVq2BJT6SIYYsC7-qxOGATiQLCpPW3VKLN5D8YKnIsrgKMD6rj', 'width': 4032}]",-7.927452799999999,112.0913594
"4VP4+VHQ, Besuki, Jugo, Kec. Mojo, Kabupaten Kediri, Jawa Timur 64162, Indonesia",Kawasan Wisata Besuki Kediri,ChIJRWFsf76reS4RCV4u7Kkr1pE,4.7,"['tourist_attraction', 'point_of_interest', 'establishment']",75.0,"[{'height': 2448, 'html_attributions': ['<a href=""https://maps.google.com/maps/contrib/106175350927334757165"">Edo Christianto</a>'], 'photo_reference': 'AUGGfZnod_4vUn5CW_4LnuqiJytbOZSc3ahhD8MufpSFt0mZa8b2XoV7HNfhABepjQGQg8BCH2RwoSN7aTrj1c7FgL6aD6UqnWRVk_gQiLLT-lCY9fWCcZRv3KXQwFL4p7pL9_gImsYK_Xs-sUH67XC0JMyN0Z8q7whT1qxGUJmh4mB7fTeL', 'width': 3264}]",-7.8627993,111.8564884
"4RHP+R4W, Dusun Besuki, Desa Jugo, Kecamatan Mojo, Hutan, Blimbing, Kediri, Kabupaten Kediri, Jawa Timur 64162, Indonesia",Air Terjun Dolo,ChIJRz1A5BlXeC4RSk-6oeJ5kXU,4.4,"['tourist_attraction', 'point_of_interest', 'establishment']",1407.0,"[{'height': 3000, 'html_attributions': ['<a href=""https://maps.google.com/maps/contrib/101318211741629083099"">Rifqi Fajarianto</a>'], 'photo_reference': 'AUGGfZkQQkag1rOUsKbiXsjCjGgFcUZfPxeq_8zOVemltuIMv0yFrpnfQcUBsbsKJUfoGFHFumezwqT6b8kS0WUfEY7KrlpXMwCGLmXOfC82C4J8tHFiJguNlRYhxc6GmDjB6gnlBW-XEAS2UBIxJMxaxhJRtNlVQoUspwBTye7QgTSt0ojE', 'width': 4000}]",-7.870375300000001,111.8353318
"4RQQ+23C, Hutan, Blimbing, Kec. Mojo, Kabupaten Kediri, Jawa Timur 64162, Indonesia",Tebing Prongos,ChIJOztop8CqeS4RHEPc4pUmswI,4.5,"['tourist_attraction', 'point_of_interest', 'establishment']",78.0,"[{'height': 3096, 'html_attributions': ['<a href=""https://maps.google.com/maps/contrib/115160572195750472502"">Jurnalisman Jurnal</a>'], 'photo_reference': 'AUGGfZloClku0KSaCGbvP8I8lozTLYoY6KuKv_T8GffJg3JAkUj638ga5B-mwOBrmBc1x-0mabRXExZTkSuXET1vPaHSImewSekMWYisD-Qfd1Iv9u_-j8nQGhfiMR6a9IIS7_3UbueDB6yGfblRE9MpftHCx4qVdR647wl3bQUISLLgYheF', 'width': 4128}]",-7.8624296,111.8376439
"Jl. Tegalan No.38, Ngasem, Kec. Ngasem, Kabupaten Kediri, Jawa Timur 62154, Indonesia",Koi Fish,ChIJWY312m9XeC4RZHlsz_BLFi4,0.0,"['tourist_attraction', 'point_of_interest', 'establishment']",0.0,,-7.794308000000001,112.0434458
"53M5+VXH, Jl. Kota Kediri, Tugurejo, Kec. Ngasem, Kabupaten Kediri, Jawa Timur 64182, Indonesia",Tugu 9 Simpang Lima Gumul,ChIJS1fCq01ZeC4RWGhhs1kD5gg,5.0,"['tourist_attraction', 'point_of_interest', 'establishment']",2.0,"[{'height': 4608, 'html_attributions': ['<a href=""https://maps.google.com/maps/contrib/103048929357422064622"">amin jaya</a>'], 'photo_reference': 'AUGGfZkMi0TBwU1Hn17xh2id3yPJkj8CjarCvSwRgZW0zcq8s-ryypjhg4dVOg5X-scO5E4F7ygvhk1r9PrTg3vDBQWirjUunJAUGBZFXOdtsuzMYBeYfv_rl-119dIdFmuZlIZCRHpOt9cQeSOUIwovZEVA8Uyal8RT5KYSy-TXAEc8v2LV', 'width': 3456}]",-7.815324099999999,112.0599903
"Ruko Baru Alun-Alun, Jl. Pamenang, Ngasem, Kec. Ngasem, Kabupaten Kediri, Jawa Timur, Indonesia",Alun-Alun Ruko Baru Ngasem,ChIJBda6SxhZeC4RJx7aCbyL6Wc,4.7,"['tourist_attraction', 'point_of_interest', 'establishment']",9.0,"[{'height': 6936, 'html_attributions': ['<a href=""https://maps.google.com/maps/contrib/106619177789580951833"">Gatra Mail</a>'], 'photo_reference': 'AUGGfZmi0J4q9V88iJlj4aknjoDhct7dhL3aUxa9LCztiYHYeQ6oXw59tyKTBB3k50EosssZB1LUzNu47k-fWCzzvivbvvYQGTMaPTw3oPU9vvUEdIAhLBt0QxCZY6TNr04xxRewuVwtSVX92-EA3qA0yxutwb8a7t8t0letCd_Za1Wr3oj4', 'width': 9248}]",-7.796514299999999,112.0487837
"53M8+Q3R, Joho, Sumberejo, Kec. Ngasem, Kabupaten Kediri, Jawa Timur, Indonesia",LOKALISASI DADAPAN,ChIJXw3N7DVZeC4RMzB8LQ1R1D0,5.0,"['tourist_attraction', 'point_of_interest', 'establishment']",2.0,"[{'height': 693, 'html_attributions': ['<a href=""https://maps.google.com/maps/contrib/105732706145199309754"">A Google User</a>'], 'photo_reference': 'AUGGfZl8juSuB2gyAftBS4U7IC1k47OHl0QntOlKto-7J3FoLZRE374gVxlwE-pYgCGFtMdCrLSYVlhDcXMqslbF-w40ktJEq4FGxa_vhlgmnasZoOt_WfLFhSMC5fzVU_9xXGmuOkF6UCR6i77ucLAFEucqxp3YzCAnxyuMhfQZkhZ07zrQ', 'width': 460}]",-7.815524399999999,112.0651531
"53M6+PQ5, Gerbang Utama Monumen SLG, Simpang Lima Gumul - KEDIRI, Jl. Raya Kediri - Plosoklaten, Tugurejo, Kec. Ngasem, Kabupaten Kediri, Jawa Timur 64182, Indonesia","Tagline ""KEDIRI BERBUDAYA""",ChIJh6TZoYhZeC4Rdm_po5oow6M,0.0,"['tourist_attraction', 'point_of_interest', 'establishment']",0.0,"[{'height': 3280, 'html_attributions': ['<a href=""https://maps.google.com/maps/contrib/113284182343332493427"">Erwit Pribadi</a>'], 'photo_reference': 'AUGGfZk4whHFhviv0JjVm-r6OMuCfcs86QekiGssjrgY4rxxl2_c3bkQ__GOfCNOdwMYANyhncSczAtF1RrrsQahDtTNKt1gC7WuivHN-UTm6XEwlhqXBA-zAAYn1dhSFR8OArebwgaSwHLA3cL5aOrwprnpyuErPGHQB6of0gU4jM7WXmQm', 'width': 1476}]",-7.8157469,112.0619889
"Jl. Tunggul Wulung No.1, Tepus, Karangrejo, Kec. Ngasem, Kabupaten Kediri, Jawa Timur 64182, Indonesia",Kolam Pemancingan Tirto Empul,ChIJAcm8HZRXeC4RwsjrZnUK3HA,4.2,"['tourist_attraction', 'point_of_interest', 'establishment']",11.0,"[{'height': 1080, 'html_attributions': ['<a href=""https://maps.google.com/maps/contrib/107536338946819972740"">arie bowo</a>'], 'photo_reference': 'AUGGfZn3nAs9v4-mefX9zx09E1frIZHjMfXpcex5JjCbissFhi2Tsw6o4OygAy4NJ6azj8A-QM6kbE9w-sa9eHdshFcfjyEPWWD4WGeo_NWhtoaFI7_TWWuDhbRrDMPdF2qLlCqimsv4FK29KsSb7p_g-rXv5Mrs0JOcO9iP5B-FTzELELA', 'width': 1920}]",-7.7998844,112.0305509
"Jl. Sumber Gundi, Tanjung, Kec. Pagu, Kabupaten Kediri, Jawa Timur 64183, Indonesia",Sumber Gundi,ChIJxQV5eopZeC4R9lTjWVbdfzU,4.5,"['tourist_attraction', 'point_of_interest', 'establishment']",1514.0,"[{'height': 2600, 'html_attributions': ['<a href=""https://maps.google.com/maps/contrib/104647212034017495835"">iziccoz</a>'], 'photo_reference': 'AUGGfZmA99M6njbkPi_z3j67FOQLqCQKz2w3r9S6pioZzbnNOnq2oJFylkvNwmW_No0obv4Z5e5I1fjrIIdRdNJudR950SsLFpQng9BdJWv_MgEmgAJ1kSYHUqb4HLJkRPD3hVKF9xP7ktlMK-IOqc1KLo11hkDiQv4PNyOVMIsiilNJZNVZ', 'width': 4624}]",-7.7894907,112.0751984
"53X9+V2C, Unnamed Road, Kunir, Bulupasar, Kec. Pagu, Kabupaten Kediri, Jawa Timur 64183, Indonesia",Sendang Jogo Towo,ChIJOZ7QzYlZeC4Rsg5s0R369DI,4.6,"['tourist_attraction', 'point_of_interest', 'establishment']",47.0,"[{'height': 1536, 'html_attributions': ['<a href=""https://maps.google.com/maps/contrib/115124945173132039436"">A Google User</a>'], 'photo_reference': 'AUGGfZkRGu9iyM3lDlfv9vi2k7I_AL4HWxBaGfuz76grl2hPyEXGMZvjo2_fqoCd4tdwZkJChWCJo_LosADGBIa9XAb05IurrsDkzue3LnMvxEgD2jZ1nYjw3TwiX9nXiltGdd6xQMzqVA0b22CQ8OdmmcJqYmiGZl39rbHHg8r7q0CD5Ezh', 'width': 2048}]",-7.8003028,112.0675267
"Menang, Pagu, Kediri Regency, East Java 64183, Indonesia",Sendang Tirto Kamandanu,ChIJo8wSpTtaeC4RO8zm2fzNtiQ,4.5,"['tourist_attraction', 'point_of_interest', 'establishment']",1385.0,"[{'height': 2998, 'html_attributions': ['<a href=""https://maps.google.com/maps/contrib/114014523191139897520"">usman Petualang</a>'], 'photo_reference': 'AUGGfZkVnEydgSGITTmNMJFcGQkCi4kRoB2_Cc9BZvUKHoqDnPWNbfROUiOObl5MhcCbjGdhLOwJtLhkOTuq4Z2XLXX9pbVo35C3_nYN48fQ2oVpeKoLTI8U51HSshDKj9Bg7W257FiNShuEbRHT7fp767ScNPteM-EfqgOgFcPeo-LK6ypH', 'width': 3998}]",-7.7753083,112.0795872
"Jl. Sumber Gundi, Balekambang, Tanjung, Kec. Pagu, Kabupaten Kediri, Jawa Timur 64183, Indonesia",Gundi Amerta Land,ChIJW2qOJABZeC4RXjkOfJh_EUI,4.7,"['tourist_attraction', 'point_of_interest', 'establishment']",3.0,"[{'height': 2336, 'html_attributions': ['<a href=""https://maps.google.com/maps/contrib/104416696446017393840"">A Google User</a>'], 'photo_reference': 'AUGGfZk7lYpo53F3aoOK483_hKSjvnH7_nW3mmop0Qupit357DkcmSH8sFBdBAnSYZzKgDXcMOO1DTAp_g2jxe22J0FCnklO2_APWpL0LiwgrdA8XWvm-58VRKHfiVgoKlMTLPFrrGB-YTmcFdsdlZVt7HYmNCHnHckZrheBIbpSUfapzHsW', 'width': 3552}]",-7.7889968,112.0754408
"62QX+V94, Ploso Kerep, Plosorejo, Kec. Gampengrejo, Kabupaten Kediri, Jawa Timur 64182, Indonesia",Arlong Park,ChIJQxKRFiNbeC4R0tnO240vpdk,5.0,"['tourist_attraction', 'point_of_interest', 'establishment']",1.0,,-7.760241,112.0481346
"63G7+5PP, Baron, Semen, Kec. Pagu, Kabupaten Kediri, Jawa Timur 64183, Indonesia",DERMAGA SORENGGONO,ChIJCUKDP6lbeC4Rrnq1KzHj5lQ,4.0,"['tourist_attraction', 'point_of_interest', 'establishment']",3.0,"[{'height': 4160, 'html_attributions': ['<a href=""https://maps.google.com/maps/contrib/118031133507366785736"">A Google User</a>'], 'photo_reference': 'AUGGfZkNzl1rhHz4GqZn6WHFa5TGqI6iYcLt6HDJPVmebPk2y0oTYB7hxpJ9nomqS1gJnezW4JLu0XNZgA7cfRlP29-G0a_Dydtu1JaVWCNtvR3QCLIxtcqYj8vbq54S52uLlev2oDdV4n8c4FDLZBytGNn_nUq9ipUeplsjy0i-Yze5gAM', 'width': 1920}]",-7.774520000000001,112.064368
"53M8+4F3, Ds, Kranggan, Kec. Gurah, Kabupaten Kediri, Jawa Timur 64161, Indonesia",Desa Wisata Kranggan,ChIJr-aa8HBZeC4RwJLjsOyr7_I,4.7,"['tourist_attraction', 'point_of_interest', 'establishment']",46.0,"[{'height': 3072, 'html_attributions': ['<a href=""https://maps.google.com/maps/contrib/108873619886693752223"">Agung Trilaksono</a>'], 'photo_reference': 'AUGGfZnRUVZOhtwrbe2B4GKORxyewnpf3EOcyatkyk9s0eLU4GBu3c7cyKbr388XTwPqPKeNGpJ2w-4mQKm4TYSkNWRJb8RSpYVTCeriL7U-4bQJYkUUKTHHMFo3eVq4YvF6RngIXS9Twcmfd2RqbSqKuFMaj1Qt1xakxpVvD2pXWrM_JqGN', 'width': 4080}]",-7.817085199999999,112.0662181
"639F+8HM, Menang, Kec. Pagu, Kabupaten Kediri, Jawa Timur 64183, Indonesia",Sumber Towo,ChIJlxNJ6RhbeC4REyDRQHSV__g,4.7,"['tourist_attraction', 'point_of_interest', 'establishment']",21.0,"[{'height': 2160, 'html_attributions': ['<a href=""https://maps.google.com/maps/contrib/114714020542505807371"">wn ardi</a>'], 'photo_reference': 'AUGGfZl8S4zvf6PWx5L3V8xK9ugBn2U6e8QdV9MZ7Dth0cmhulTod1YqBVtFENJBDeMcWg3skeNZ6jr_oaDY_zFkOUqh2gyVjvzq2YXf6i1V1V1kmkFORscdrP2jibxlweqZmIFmxX_NMp74PAMTxKjVlFHRIaLuo2EkrbASKRAkDnKxPp0Q', 'width': 3840}]",-7.781668,112.07392
"Jl. Kauman No.60, Gurah II, Gurah, Kec. Gurah, Kabupaten Kediri, Jawa Timur 64181, Indonesia",Kebun Edukasi Kediri,ChIJwVt1GWRZeC4RHoMgXkKO9gs,0.0,"['tourist_attraction', 'point_of_interest', 'establishment']",0.0,"[{'height': 1080, 'html_attributions': ['<a href=""https://maps.google.com/maps/contrib/113067600636437482090"">Aal Surplus</a>'], 'photo_reference': 'AUGGfZkw4AXumVukjmVLcHmde9Rfpb288VvS4vLjD9fcvw3SHkO6HbX8WVXSsH5Qw0PXuQ3wGKd266tiV6gYxcvKGFSU869C0Y3h9MfEJchhDoPcIQkjXbFRfBQ2WkpF34u_XlHVXkVp62VwzPW8khUynRKXuXaprgLowRQsQtc-nzV21R3c', 'width': 1920}]",-7.8104606,112.0868532
"5344+M9M, Ngletih, Pesantren, Kota Kediri, East Java 64137, Indonesia",Kolam pemancingan Tirto Djoyo ( pak nur ),ChIJN_T7PABZeC4RqUt1WY0pHzA,0.0,"['tourist_attraction', 'point_of_interest', 'establishment']",0.0,,-7.8430335,112.0555133
"Ketami, Pesantren, Kediri Regency, East Java 64139, Indonesia",Surya Taman Wisata,ChIJA2aWYi5YeC4R0g3teZCakJI,4.3,"['tourist_attraction', 'restaurant', 'food', 'point_of_interest', 'establishment']",1159.0,"[{'height': 3000, 'html_attributions': ['<a href=""https://maps.google.com/maps/contrib/115104371092744779804"">A Google User</a>'], 'photo_reference': 'AUGGfZmQTGSDe7R8_L6rCmfH_1n3e8rU5u5PM9X-V1y4DsgTnJ49Ml360uXORGL0pePU_oLRDdGkvdAMEXE0W4b9ELul4xNGb93gtAsBe9ctoRXdERJnFHIounk23RZzUtrjwtTVPyj1GfI8qIcsNK_fu02-mgHu10vnG_qjK2xJbWkk-Zm2', 'width': 3000}]",-7.836416300000001,112.0566448
"Jl. Mauni No.83, Bangsal, Kec. Pesantren, Kota Kediri, Jawa Timur 64131, Indonesia",Sinyal Tebeng Persimpangan Rel Kereta Api Jombang Kediri & Rel Lori Tebu PG Pesantren Lama,ChIJDb5L_ZdXeC4RgFnV1naDuv8,5.0,"['point_of_interest', 'establishment']",1.0,,-7.830581,112.0404884
"Jl. HOS. Cokroaminoto No.195, RT.002/RW.007, Burengan, Kec. Pesantren, Kabupaten Kediri, Jawa Timur 64131, Indonesia",Wali Barokah Islamic Boarding School Kediri ( LDII ),ChIJVWml73JXeC4RZkqYKsV2T9w,4.7,"['mosque', 'school', 'place_of_worship', 'point_of_interest', 'establishment']",3054.0,"[{'height': 3264, 'html_attributions': ['<a href=""https://maps.google.com/maps/contrib/106541700517347472967"">LDII Kediri</a>'], 'photo_reference': 'AUGGfZlw1kvwztI0nZYFYlDZoN8jvbKGF3ILw_4JgLTuvv_3r5i_OO-2cgN0baFHAYgJqI_y5N0vyr3lxbvyqNG82-wH09XsW1MV5VUCMvpGntu_KQgGOyXNDVIFap9JKbwkXDDssHcFTcPJmgoDEuqSGdWQUWDzD_jsHIUaB8XXWDhn6sMc', 'width': 4928}]",-7.823830399999999,112.0257188
"533P+QM9, Area Sawah/Kebun, Bogem, Kec. Gurah, Kabupaten Kediri, Jawa Timur 64181, Indonesia",Sumber Bogem,ChIJo-b4YHVZeC4R6c_ikQCpF5I,4.3,"['tourist_attraction', 'point_of_interest', 'establishment']",11.0,"[{'height': 2368, 'html_attributions': ['<a href=""https://maps.google.com/maps/contrib/116002387612134200642"">chiko shine</a>'], 'photo_reference': 'AUGGfZlImKKAwFuMgDGZb3fUsjfnr-2efe7Yu5rEBCLO7WEAw9uurFk_w35KAQHGvbVy-Qb1X6BOxoW9iuKNqujszpISzVaC0acnacR498qoUQ2H4gNdifZDCkU9zgkWOfdFCC_7guDQmD40TObdw6ENlNEqnBLLa4jDTIWOrprXT5DiAMRs', 'width': 4208}]",-7.845584300000001,112.086739
"43C5+M47, Joho, Kec. Wates, Kabupaten Kediri, Jawa Timur 64174, Indonesia",Sumber Tapan,ChIJm7BgF_v3eC4RHOhi1EJFG7o,4.3,"['tourist_attraction', 'point_of_interest', 'establishment']",209.0,"[{'height': 2446, 'html_attributions': ['<a href=""https://maps.google.com/maps/contrib/113194356816155257137"">A Google User</a>'], 'photo_reference': 'AUGGfZmq4xBA3DfuYoZNUHjmF_EAeUAEgF2IrEzRSKt03HQEr7IDbzMcS3PbPRDjKEatnwBa6xPCXpHPIl3AjUHB7L-1mG7G8qHsYA8C8fjwYu6cjVLxQSH8R97eOZB9zYRD5yaGnsOf0EhIehYjeC9ktbTezvJGDqdPCe3PEjuvlplclShO', 'width': 3262}]",-7.878329099999999,112.0577943
"Klodran, Sidomulyo, Semen, Kediri Regency, East Java 64161, Indonesia",PP. Murottilil Qur'an Kodran,ChIJBUH64U9WeC4RbWOAdyGvP1Q,4.9,"['lodging', 'school', 'point_of_interest', 'establishment']",61.0,"[{'height': 3456, 'html_attributions': ['<a href=""https://maps.google.com/maps/contrib/106780212471807544732"">A Google User</a>'], 'photo_reference': 'AUGGfZk3w3ZuA8zZn3cYqiWd2OeuTw5mJBN7kHK72Xbp-RljNOCHi_0ZjgDkQ5MbWfD-XeUKcBG3RQC4KC-09q22FI3iBIAb47o2n4BZJJ4kKqic52pi8xtiNfXTwZjUtEO8K-hRpy8pZnnZH2xlJmC-ZtYuCFjsRAssFcydoDJ3NQWby861', 'width': 4608}]",-7.844585800000001,111.9892478
"Jl. KDP Slamet No.43, Bandar Lor, Kec. Mojoroto, Kota Kediri, Jawa Timur 64114, Indonesia","Gereja Merah, Kediri",ChIJSx1w6yFXeC4RhbzXh-SY5XI,4.6,"['church', 'tourist_attraction', 'place_of_worship', 'point_of_interest', 'establishment']",271.0,"[{'height': 3000, 'html_attributions': ['<a href=""https://maps.google.com/maps/contrib/113396254201788012598"">Richard Vicky</a>'], 'photo_reference': 'AUGGfZlb4wTu3vZ0F8Bs3Bo4HGyzO73EDVTFAwPG42-KcKFBXIsUWONR7prUKaIXu0UyF05SVuBIhjlmP595-ISGhSd9ldwIO0bJ9ibcAVIwTdUs0QVHMV0EB13ZgwC2TsSWcJQOl-TFDRwHBlEDks0ARBcJk3spYbTXoJHqpXasWY-c6HdB', 'width': 4000}]",-7.811853999999999,112.004793
"Jl. Sumber Jiput No.5 B. Ds. Rejomulyo RT 01/01, East Java 64129, Indonesia",pesantren TrainQu (Trainerpreneur Dan Qur'an),ChIJ7dWX-2xXeC4RULaF-qsrBNg,5.0,"['lodging', 'point_of_interest', 'establishment']",4.0,"[{'height': 798, 'html_attributions': ['<a href=""https://maps.google.com/maps/contrib/100523044045905609988"">Imam Masyrur</a>'], 'photo_reference': 'AUGGfZnoyUrpgUJ2GqpszvDGw1Bsl8X5Ga3UBGQDMY7WsiiGz3PTzIMYJU1BguvlVXZk3G4GFD7QAmYYfcHp0wZFlErveDEtg5jdFa_QlsihypRo0zcjgI0Jmh4-zyvNNe4t7HeO1sJXy6tKj7HZxnnID3VrFoMiqBoW6hLv9zgQY7zOcWXe', 'width': 1074}]",-7.8460497,112.0205533
"Jl. Masjid Al Huda No.194, Ngadirejo, Kec. Kota, Kota Kediri, Jawa Timur 64122, Indonesia",Pondok Pesantren AL HUDA KOTA KEDIRI,ChIJM3N4GEBXeC4RfU6sXomeCAo,4.8,"['school', 'point_of_interest', 'establishment']",15.0,"[{'height': 3120, 'html_attributions': ['<a href=""https://maps.google.com/maps/contrib/110767658057913505799"">faizal rizal</a>'], 'photo_reference': 'AUGGfZnfbMKUOb3mnz8XNIsO9s8SVwNKpOJGWIp20SI0y2IrgRUs8QvSIghQYO3psfChORpNsxaCHvXrK9P59hGOM0UssbOOKhD_lL72e_JGuqsDelrrz20hqVR2sVx2SzwzoIjs-74jl4aKuSRE2iLGSV9b7G4ounFqI6VEuDU3MVSt9WgM', 'width': 4160}]",-7.811428500000001,112.0253195
"43MG+P8P, Jalan Raya, Sidomulyo, Wates, Kediri Regency, East Java 64174, Indonesia",Sumber Air Bendo,ChIJZeAPc3RYeC4RxKuoajI7j30,4.1,"['tourist_attraction', 'point_of_interest', 'establishment']",93.0,"[{'height': 2448, 'html_attributions': ['<a href=""https://maps.google.com/maps/contrib/106175350927334757165"">A Google User</a>'], 'photo_reference': 'AUGGfZlGmjYOD66LA906i5VPOPGIjbrnV94BsGpbXrY9kOlsx0fi525GyxsHPKvA5jV5qm1cEGaAV6r4lORnF55Gisks_4v0jnU8uGUyYNBaaUem9KjSh2B0mMrlJhKEdQLdYYqiWsRfhUBn1n-g2CVRsxZtiouXTFkszTr4yayiWf0a0m8n', 'width': 3264}]",-7.865673099999999,112.0758143
"Jl. Sersan Suharmaji Gang Usman Ali, RT.03 RW04/RW.No 8B, Manisrenggo, Kec. Kota, Kota Kediri, Jawa Timur 64128, Indonesia",Pondok Pesantren ULUL ALBAB KOTA KEDIRI,ChIJD86PlppXeC4RWQvQxlb4Ybo,4.8,"['school', 'point_of_interest', 'establishment']",8.0,"[{'height': 608, 'html_attributions': ['<a href=""https://maps.google.com/maps/contrib/117569669758096774284"">A Google User</a>'], 'photo_reference': 'AUGGfZkYoUrPh-HRV1MPbLHHCGL0rVUcH19gKsomgFTBREozdAdOlZ_LdiRYvd8NyI2R9myNUAcuHK2Ztr5CodGGslmIIZFzSmis41xEkbdoVJ-3QkXZTtlvxBYXwOeuVnr-S6QBbTPUQU-Oyh1utMY1jpQqG2L3UVgvm8m-4vDvyCWEhY1S', 'width': 1080}]",-7.8518178,112.0061275
"Tempurejo, Pesantren, Kediri Regency, East Java 64138, Indonesia",NURUL HUDA ISLAMIC BOARDING SCHOOL KEDIRI (LDII),ChIJ9z7k-TtYeC4RmwmpLiLdlfo,4.7,"['school', 'lodging', 'point_of_interest', 'establishment']",57.0,"[{'height': 2322, 'html_attributions': ['<a href=""https://maps.google.com/maps/contrib/110816146682913224848"">Fatkhul Ghoni</a>'], 'photo_reference': 'AUGGfZm7y_LeAiCyRJy0BcoE5fyecEYmcyKh52pcy7t8FIXpBsYCC2FDj6Arfs4opWcGd2wmelHRrfDcuFvapIStw26vyC-lqATGHeDulpxzmL2Td1MpNw18SHxOm747iS479VJ1VtgJIcM8UGxMTVT77wHUsXk6NV_nBl3-RrleGQp-2DHn', 'width': 4128}]",-7.8453415,112.0647298
"632C+R46, Jl. Totok Kerot, Bulu Ps., Bulupasar, Kec. Pagu, Kabupaten Kediri, Jawa Timur 64183, Indonesia",Arca Totok Kerot,ChIJtQakwPJZeC4R9fDMW1u5UEg,4.4,"['hindu_temple', 'tourist_attraction', 'place_of_worship', 'point_of_interest', 'establishment']",443.0,"[{'height': 3024, 'html_attributions': ['<a href=""https://maps.google.com/maps/contrib/101815349742049350814"">Dedy Ghustav</a>'], 'photo_reference': 'AUGGfZmY3FuCOx5GdSIDlZv1IUzcIZZwllGS4K4KMAMERWTS7jLjyUX4Q5YLI-QiJgyqw77cIdbK2l57q3btj2hDLNcKX5JeAsfTvft7Syqm4cvuvSaRpnP5T-9bNCejSlKOuHctBINMqJtvVsAOn7EB9gMzNi7UebtFvqKQ_PC5zhGlS8QD', 'width': 4032}]",-7.797962999999998,112.0702513
"Lirboyo, Mojoroto, Kota Kediri, East Java 64116, Indonesia",Pondok Pesantren Lirboyo Kediri,ChIJobNkAuRWeC4RCubhguLNLQs,4.6,"['school', 'point_of_interest', 'establishment']",1217.0,"[{'height': 1067, 'html_attributions': ['A Google User'], 'photo_reference': 'AUGGfZkQkrscT705HtSIqc8TELhPQqKGC_hCsgROQNN2a_fog6_FNt8yRIYgE7c9HDC8OpYCXhHQcvy4L4xQTrv6OOlkqbTlWDY7djlFvSaf9vnXDNLNRgnot_4gdEisWhp41ODZxvtRTb0-HWmk879f74yb90byv-ZFzIc3gcCVNzrkwaae', 'width': 1600}]",-7.8180431,111.9903246
"Jl. Kh. Hasyim Asy'ari No.1, Bandar Kidul, Kec. Mojoroto, Kota Kediri, Jawa Timur 64118, Indonesia",Al Ishlah ISlamic Boarding School Bandar Kidul (NU),ChIJ3ZC99QNXeC4RwhPe22ilGmQ,4.5,"['school', 'point_of_interest', 'establishment']",63.0,"[{'height': 4608, 'html_attributions': ['<a href=""https://maps.google.com/maps/contrib/100295348613139037758"">dony kristiawan</a>'], 'photo_reference': 'AUGGfZlWNrnvoHXgNExgkNhfrOVjP-tcsUihIS-zp7TnWAVLbYnzHn32e2-eWcjmnSyshcadfnDQUq4-FJGROW-nFUkqlDLpAXvqyvYIC_LcFdxPu1023edifFz1HnDKs1sJPhq_dv6SEnUoELNCpA98vFMIq9JLQBWREadTiFivHeOoBt16', 'width': 3456}]",-7.8276428,112.0057922
"Pocanan, Kota, Kediri Regency, East Java 64129, Indonesia",Brantas Park,ChIJMQnMfSJXeC4RkoNZRatx_xw,4.5,"['park', 'point_of_interest', 'establishment']",7339.0,"[{'height': 4000, 'html_attributions': ['<a href=""https://maps.google.com/maps/contrib/105693939877907123261"">A Google User</a>'], 'photo_reference': 'AUGGfZlIX2xLBfzAorFVxGJmDd9vkYo5PZKd1z4M7186KerfdPVH9o3HGG0vIPyvXTPdXoi3dbn_bWSxYWMxTxwESXxIER7uW_0jSTSIRKKbNk38bQAGUP-xjIa0fDbFKD_PcojJLgR5QkLpY0-YPwh2yTHbF2kdGrIEzX3SsCfkTcQNPm4F', 'width': 6000}]",-7.812370800000001,112.0085808
"Jl. Sunan Ampel No.10, Ngronggo, Kec. Kota, Kota Kediri, Jawa Timur 64127, Indonesia",Pondok Pesantren Al-Qur'an ATH-THOLI'AH,ChIJdfsTQHNXeC4RBVFJsiimO6A,5.0,"['lodging', 'point_of_interest', 'establishment']",1.0,"[{'height': 1200, 'html_attributions': ['<a href=""https://maps.google.com/maps/contrib/105900716091520101514"">Ilman Fahmi</a>'], 'photo_reference': 'AUGGfZnzc2865i3pIdJGAe-Qx5NDwkOU6XqKuwrl_azUiY_pYIvFpYaqRV3ozEgLUR7kUBrOflStpYUlUyZRKrMtEfsl_38NujAMK9Qp0uVRbU0AMycB68HiZATnfir4a-4pJas9mvUVQIvyGgY55CqjARLB4i4dmhBOKtutmlCWvgYDBnb0', 'width': 1600}]",-7.8452727,112.0250777
"Jl. Padang Padi No.9, Kaliombo, Kec. Kota, Kabupaten Kediri, Jawa Timur 64126, Indonesia",Pondok Pesantren Imam Muslim Al-Atsariy Kediri,ChIJsWtoGKFXeC4RyA5t55IRR5g,4.6,"['school', 'point_of_interest', 'establishment']",50.0,"[{'height': 2592, 'html_attributions': ['<a href=""https://maps.google.com/maps/contrib/108141239164679223437"">misbachul choirudin</a>'], 'photo_reference': 'AUGGfZmQ22GLsiS8Ma7JOXq0phy0-WoMa0_ZAcTxEV7HDy0gjmvSsSAFaVZFE2MVE-UZTHvJRnQOnJRHpIX3Oh5bhRhhqoC2aGzZhuSQKIJyfpuEiqGT0j9Y_3z65x1pBzBvK36NEg4A4yqcWRukjgnWowMVOmtAZAL-QA5geLQt4-mvfMQ8', 'width': 4608}]",-7.8364263,112.0190537
"Jalan Desa, Putih, Kec. Gampengrejo, Kabupaten Kediri, Jawa Timur 64182, Indonesia",Pondok Pesantren Al Ihsan Jampes,ChIJeQsYCbZQeC4RgrmLT4ic-PY,4.7,"['school', 'point_of_interest', 'establishment']",83.0,"[{'height': 1908, 'html_attributions': ['<a href=""https://maps.google.com/maps/contrib/111189795935525549711"">A Google User</a>'], 'photo_reference': 'AUGGfZnkOB-s9GVLkePQ1_o3l1Vz2MKBFsdIORqlkNyPiwv3y1hqT7d_Y6UEUjsxHHsyCY4Ry0p6M4ADwwKuONtSgVai7JdIrmenFrW1PRR7NeP3yWyHeydkD71CjjvwoBb687ladKYJ823WK0qZHCCZ4TBbX_9RiMAYZ8O7MjPYUckhYTxH', 'width': 3342}]",-7.7760905,112.0203403
"Jl. Tosaren II No.39A, RT.19/RW.07, Tosaren, Kec. Pesantren, Kabupaten Kediri, Jawa Timur 64133, Indonesia",SAUNG D'PRABU,ChIJxXnV6eNXeC4RNMgfN-375_M,0.0,"['lodging', 'point_of_interest', 'establishment']",0.0,"[{'height': 1200, 'html_attributions': ['<a href=""https://maps.google.com/maps/contrib/115489920838930031361"">A Google User</a>'], 'photo_reference': 'AUGGfZmh8GsUERGgVH15-09h2w80nobxxY8eOSO3dA3fwg-XUoE5Vnxqmk_k5Ucml3MOOplX3A-DyiZuAyWmMBvFdvGe2srhlqphM2M0eZdK4LQuno9YqCZPb74RpoynT-S9mpzluztEdX3qyym1vsBG2ojCYwh4z4uc97Zx6suC_unFS7mz', 'width': 1600}]",-7.836901699999999,112.0185617
"Dsn. Gondang RT 06/RW01, Keroncong, Purworejo, Kec. Kandat, Kabupaten Kediri, Jawa Timur 64173, Indonesia",Complang Park,ChIJDXLMeN33eC4RCvb6WcGLHNc,4.4,"['tourist_attraction', 'point_of_interest', 'establishment']",301.0,"[{'height': 4640, 'html_attributions': ['<a href=""https://maps.google.com/maps/contrib/115450518711292676917"">gifari azalia</a>'], 'photo_reference': 'AUGGfZmTV1ToIPvSxNIfCbCdVwoAnMNZ4NsVyMBZ0pet2WqrytZMXFDw2FIv1csoJUDnM9xdTCM5T5o24dOK00qNty2MkEMUCJ-KjYWZFIAQXUIpz7BgYWRz-iIQaa4yirrjJGQYk5fARI10FjwiTBJyr0DeUIAqDgJU-a6wSM3aETHjTqeK', 'width': 3472}]",-7.912098200000001,112.0562861
"5362+C6P, Jamsaren, Pesantren, Kediri Regency, East Java 64132, Indonesia",kecamatan pesantren kota kediri,ChIJ58Qu3xhZeC4RsxYrH4GcW5E,0.0,"['school', 'point_of_interest', 'establishment']",0.0,,-7.8389053,112.0505673
"Parang, Banyakan, Kediri Regency, East Java 64157, Indonesia",Niagara Ngleyangan,ChIJ7bycTV1TeC4RK7rhFLLOeAY,4.5,"['tourist_attraction', 'point_of_interest', 'establishment']",203.0,"[{'height': 3000, 'html_attributions': ['<a href=""https://maps.google.com/maps/contrib/108785991602675165863"">Ardiean Syah</a>'], 'photo_reference': 'AUGGfZk1_6X2nOliD39d3Ks7sIkQOngTMfNH7eDuy7fCEl0HMkFwnN91Yqp932RlCecSeotmiXukfrzL-gMz7xYyUA567rbSYtxZumsdKvMVRCamQM9ENnmFX9kP5ltflNaznJOwE-nzAck94Bozb5fuAnN-0UHbMWZ3xz8P9jryBLOEUYdJ', 'width': 4000}]",-7.7999271,111.8466461
