formatted_address,name,photos,place_id,rating,types,user_ratings_total,lat,lng
"XJPC+XR6 Lapangan Andi Makkasau, Jl. Karaeng Burane, Mallusetasi, Ujung, Parepare, South Sulawesi 91111, Indonesia",Eternal Love Monument of Habibie-Ainun,"[{'height': 3024, 'html_attributions': ['<a href=""https://maps.google.com/maps/contrib/106598979367779559472"">A Google User</a>'], 'photo_reference': 'AUGGfZlG66qkHiOkTvwQHVj-IpfVRCLnwyUIUnid3Qa40fGDGPbrEy1husZjhcRPPXB0quPb6f56IXjgVI2x0Kxdehs7X_A__v-Mvq3oczswvzHAwR2NPS5k80KcBM54z9bwQ_EwXktrrkzg2WAM2BObueuDMPS4c_nlacdms9N-QVIxW10g', 'width': 4032}]",ChIJEc_1KyO7lS0RHz-h0O__gDo,4.6,"['tourist_attraction', 'park', 'point_of_interest', 'establishment']",4544.0,-4.012588399999999,119.6220022
"XJHF+Q2X, Jl. Bau Massepe, Labukkang, Kec. Ujung, Kota Parepare, Sulawesi Selatan, Indonesia",Taman Mattirotasi,"[{'height': 3506, 'html_attributions': ['<a href=""https://maps.google.com/maps/contrib/101551746360350933239"">Kades Asmat</a>'], 'photo_reference': 'AUGGfZnodaXLPlUC1UBMndYIpshClb3T3WXNxT3kqc952xJL5P76qSxHeM6inNXcTje5RbeCLRgSky90V6ObiBzDdPgsB-_nRm52KIuIHfHU3fPXP0dtNRqJ41HP8JAYBY-HMCOkCRJcAP2HLBksG4NLrzF4J32IDctrOFzpglOehKXd6KVs', 'width': 7127}]",ChIJHURmFD-7lS0R-487EGfExYQ,4.4,"['park', 'tourist_attraction', 'point_of_interest', 'establishment']",1862.0,-4.0205145,119.6226191
"XJ3G+PG2 Ruang Terbuka Hijau, Sumpang Minangae, Bacukiki Barat, Parepare, South Sulawesi 91123, Indonesia",Parepare Kota Cinta Habibie Ainun,"[{'height': 4080, 'html_attributions': ['<a href=""https://maps.google.com/maps/contrib/109754824293484504523"">A Google User</a>'], 'photo_reference': 'AUGGfZmcaxVwPSFheMKoAqkFsOX7KDZKgnzOO0-dsQgibBMH_am7H5Zcm4fgHX5qsUrwwh6BKhkBeHxd7AwveHBAHENyRdTTWp-087ZWOlQ1ADgl35ZIn33d94NmRdeuBgcN1zwbIqj9v0Ero_9W4tnCFcWdeSjVabHaAGWCilMvvaywR-5s', 'width': 2296}]",ChIJScbzSW29lS0RkOluompdxVI,4.8,"['tourist_attraction', 'point_of_interest', 'establishment']",12.0,-4.0459839,119.6266739
"XJ3G+292, Lumpue, Bacukiki Barat, Parepare, South Sulawesi 91123, Indonesia",Tonrangeng River Side,"[{'height': 2592, 'html_attributions': ['<a href=""https://maps.google.com/maps/contrib/114631890566684393699"">Baso Rajiman</a>'], 'photo_reference': 'AUGGfZmSvqTUQZpkF_Bzqx9jO3_b9VcYYGQXT1EKnmxguonOc7KUdnerMWcEKjJdu7lpM-bbQcco4YlBrpiB1YMH_1_NE9YK4jHKwfK3W8mV1gVd1ZqOfqrES1WMue-s-_SqSutq9QQ27y7GmXnhSiMyO52pg2p_XyBjX6W0std7WJuq-kZl', 'width': 3872}]",ChIJuVDWk6K8lS0RDwcHlQKt0VY,4.4,"['park', 'tourist_attraction', 'point_of_interest', 'establishment']",2265.0,-4.0474996,119.6259005
"Watang Soreang, Soreang, Parepare, South Sulawesi 91132, Indonesia",Anjungan Cempae,"[{'height': 2268, 'html_attributions': ['<a href=""https://maps.google.com/maps/contrib/102927235184973432191"">Ansar Ancur</a>'], 'photo_reference': 'AUGGfZlPiYT0lr3c8GeHF1h7xwAx3Buycy6ObPxS47WaBXnYdIScY-zuK1CovmGb_r1ROWHZisDMcJxXHnq6HeDxwDjNFi7XJYKbDQe6dNUV90POjgW9OViBMTGINa2xWcbi14_FJC0iI39doaOQVAbWdoc46GeESySXKTvP51L8ixYfF_O6', 'width': 4032}]",ChIJe0tQtOa7lS0R2GAIPAytN54,4.6,"['tourist_attraction', 'point_of_interest', 'establishment']",505.0,-3.993069,119.63313
"Jl. Lappa anging, WT. Bacukiki, Kec. Bacukiki, Kota Parepare, Sulawesi Selatan 91121, Indonesia",Wisata Alam Mannessa Camp Baths and Fishing,"[{'height': 759, 'html_attributions': ['<a href=""https://maps.google.com/maps/contrib/109553691737201996133"">A Google User</a>'], 'photo_reference': 'AUGGfZkV_evyXMiqy4GHtZL21nl3c4ROp8hZRpF2pVTChaVp_ENuJjGZFyZ2Jc0fUmpvsKurLEUMxnR9ztBVZ_QD7Ks_BtVWjfg_zeM0x29GY0uPHQPf40pVhm4ifGFmylvVL1iDdF9jePxq85UYdM1nKIcTdGx-yevpx7P4Xb7s4V4Y-rzm', 'width': 1079}]",ChIJ5w_iafu9lS0RB5Dwe3yWmeE,5.0,"['tourist_attraction', 'point_of_interest', 'establishment']",3.0,-4.0534925,119.6632487
"XM96+PWF, Jl. MP. Remmang, Lemoe, Kec. Bacukiki, Kota Parepare, Sulawesi Selatan 91121, Indonesia",Bukit Marezo,"[{'height': 1152, 'html_attributions': ['<a href=""https://maps.google.com/maps/contrib/101968808453484121133"">isma kamaruddin</a>'], 'photo_reference': 'AUGGfZlTO3cv3vo-Ab_EDmryb0SCcyS-mcKcvIgT_9B-ArFbnq623mpVBXX_e1RGHaHFh7Bp4ZF05R3iaRBuMrb-aq8BW_tR30UWsYDL8sS-uQZWx326ZEjsh8LBBb5H3lR3o2swbAfkgCSYU9LlgWhIXbPLDFEXcVrI5pXN8TbxMlv_-joU', 'width': 864}]",ChIJr5I8Cgq7lS0R_20Q3ANI2fA,4.4,"['tourist_attraction', 'point_of_interest', 'establishment']",94.0,-4.0306875,119.6622813
"Jl. Pinggir Laut No.18, Lumpue, Kec. Bacukiki Bar., Kota Parepare, Sulawesi Selatan 91123, Indonesia",Lumpue Beach,"[{'height': 2304, 'html_attributions': ['<a href=""https://maps.google.com/maps/contrib/103150355384804520346"">irawan agung hidayat</a>'], 'photo_reference': 'AUGGfZlPBEdnCk3eKrO60_2i3zm8YkTVMiem2iDHXG9gjDj4hImcDUruFwE1Rxsn0_vh7W15CwuCZlmUbMvPOW-SvbM321mLwbyT4y2yHTLgROEPVwVEcWeHwrU_NbfRayu-L6Yt5us4gRB3-aHRXUk-ucREroFF_L0FyWZ3ElxqB1LD1VuK', 'width': 4096}]",ChIJtezan8C8lS0RHuRG8Fw7kMg,4.0,"['tourist_attraction', 'point_of_interest', 'establishment']",810.0,-4.057028799999999,119.622249
"XM3F+4F5, WT. Bacukiki, Bacukiki, Parepare, South Sulawesi 91121, Indonesia",Wisata Mannessa Lappa Angin,"[{'height': 759, 'html_attributions': ['<a href=""https://maps.google.com/maps/contrib/110790750432530614696"">A Google User</a>'], 'photo_reference': 'AUGGfZlRt1UV_7Zal3GYvRj2dcp1B13J3h9GgU-DE7TF_f3J-FO9Wx3zEUAk20REJpkQXO87ajzRA-08arkccsqbdmCsMSobcvCJ5rscWc_3XDbkP7VizsDsInt4JvLAdk2xqxGKYsBp5illDyV1-KQ4HuHDxHk0uPuh4r3kKKEgSQBP-hfT', 'width': 1079}]",ChIJMWXKUlm9lS0RU3UGWL31714,4.3,"['tourist_attraction', 'point_of_interest', 'establishment']",18.0,-4.0472396,119.6737453
"WJX9+3JV Paputo Beach, Jl. Latassakka, Lumpue, Kec. Bacukiki Bar., Kota Parepare, Sulawesi Selatan 91123, Indonesia",Paputo Beach,"[{'height': 4032, 'html_attributions': ['<a href=""https://maps.google.com/maps/contrib/113887475140870142754"">bayu prabudi</a>'], 'photo_reference': 'AUGGfZn2bje2_tN4WZqUZ2_ZU0tbA9XuF0CJQrTH9N4QINwM6adZTXwWNU2OzLch2qNqvofLYMqj9R3w_8fn9TZkFdFFv75QA8WIg0DhM6fL9lPKm-GcpwMwv0-547eAZAoR8TLpbsLPV5N_yuOu_uHffk3_sU4q9OCR98l9E1cMgyAEWRUK', 'width': 3024}]",ChIJ7V06kiC9lS0RJT6UYzXVasc,5.0,"['tourist_attraction', 'point_of_interest', 'establishment']",4.0,-4.052265,119.6190357
"XJ9F+JHW, Cappa Galung, Bacukiki Barat, Parepare, South Sulawesi, Indonesia",Taman Lamario (Monumen Perahu Phinisi),"[{'height': 3120, 'html_attributions': ['<a href=""https://maps.google.com/maps/contrib/110052422118685451187"">A Google User</a>'], 'photo_reference': 'AUGGfZmAX7C7RuMQ_yEaBk0LKRfpxGDctev0SwCcFNDiW0-KnAjckYImeET2k4ydQYXPbVarhIAV1YOZxQLemZaRRPHNWWR2NvCOOAZ1UVPgIjcJI7gzTZ95ep64mp4RAxIjI-cjd8qz7mrHlvgKWxpOWNDsnWk5AUhoDM9pd04DqbGaRbJa', 'width': 4160}]",ChIJRzeh1UK7lS0RaojWzeqhexs,4.1,"['tourist_attraction', 'point_of_interest', 'establishment']",28.0,-4.030888099999999,119.6239475
"XJQG+F5G, Jl. Ganggawa, Ujung Sabbang, Kec. Ujung, Kota Parepare, Sulawesi Selatan 91114, Indonesia",Taman Syariah,"[{'height': 3000, 'html_attributions': ['<a href=""https://maps.google.com/maps/contrib/100531967445279746792"">A Google User</a>'], 'photo_reference': 'AUGGfZnkCUD0ftYFUui-AIBHFCwepQLKwa20o9GB1DKXqKRd0JoN45cXRsBgU7H-VpN7S_3SD9BEvvjlgfdQL5XFwu7ftjg_4Y1nghMNfJ0qH2OGalFO9HMn1gVr87RqZrZopD6kmszIWwj7704ygPOHb1rfwWde3J2YytuELOvHVzyepgim', 'width': 4000}]",ChIJAQRd7SK7lS0RPqgOJVFOqis,4.3,"['park', 'point_of_interest', 'establishment']",297.0,-4.0113188,119.6254438
"XJ5R+F54, Jl. Swaka Alam Lestari, Bumi Harapan, Kec. Bacukiki Bar., Kota Parepare, Sulawesi Selatan 91121, Indonesia",Jalur lingkar tengah,,ChIJLbIFrQq9lS0RHeZjET-u1aQ,4.5,"['tourist_attraction', 'point_of_interest', 'establishment']",2.0,-4.0413643,119.6404501
"XJ2V+XW5, Bumi Harapan, Bacukiki Barat, Parepare, South Sulawesi, Indonesia",Rise and Shine (abanggzham),"[{'height': 4032, 'html_attributions': ['<a href=""https://maps.google.com/maps/contrib/116300906779771450736"">Yobelindo Amendo</a>'], 'photo_reference': 'AUGGfZk133gbVBKlbCVmTD8cXhYmyR2WincGY5xoUNr52Uv118A6Uh_sA3GQ7Qx3DZoiyLNFspbYQO1dwFF9OlQ2YwyRQBkmBV4XDWRfrG_kdig2CUdjuQ5WvyGMDoADTTWNaklsle3Hvt7hyZhchtE84CjtNRvFkSZrWH1X7mIS8jvJEMkp', 'width': 2268}]",ChIJl0bKPC69lS0R_dtt1dc5t3w,5.0,"['tourist_attraction', 'point_of_interest', 'establishment']",3.0,-4.047616,119.644858
"Jl. M. Yusuf,No 169 Kullangnge, Lumpue, Kec. Bacukiki Bar., Kota Parepare, Sulawesi Selatan 91123, Indonesia",Gerbang Utama,"[{'height': 3120, 'html_attributions': ['<a href=""https://maps.google.com/maps/contrib/111635861987693075790"">Wisly Paniie</a>'], 'photo_reference': 'AUGGfZlRCCCZ-Ig2CAsA-mv8zuTlXtjt_RPd0pg1VPI3_vXxG7r6NGq-CINNw1v-jQEXo1ONx22i5XrQ9J2VL1w9qTmgN5hFV0NoWuuuEC8V6pBNa2pQyBokVtqmH0nIaw06pIGLQMH_FfXj4C036zP9NxMb9UO2cC6aRPABypgNuW3UjZba', 'width': 4160}]",ChIJDdbYFqO9lS0RrorBDZc8vjg,5.0,"['tourist_attraction', 'point_of_interest', 'establishment']",4.0,-4.0523333,119.6360851
"XM87+Q89, Jl. MP. Remmang, Lemoe, Kec. Bacukiki, Kota Parepare, Sulawesi Selatan 91121, Indonesia",FORTUNA Garden,"[{'height': 2088, 'html_attributions': ['<a href=""https://maps.google.com/maps/contrib/112825499303263000238"">A Google User</a>'], 'photo_reference': 'AUGGfZl73ZM9ahzEKjLSWshP2GMVyWR0N34suiuZ9GH-usrFpB7VvwlkCm_X04o8doSODlyswwf5n8CAGKsVlR43i05Ym-Ht9FNg4Xx-wIRHJzBQ5bkq8gJmtsQCWh9zuAxTGXuyTiFvA5fqGwK4LMy4Gm9NBBOpZADqLdg_hA-fRqJG7KXN', 'width': 4640}]",ChIJ2zLP3xS7lS0Rxgu6CJc4-Zg,5.0,"['tourist_attraction', 'point_of_interest', 'establishment']",1.0,-4.0328848,119.6642882
"XJ2V+8W2, Bumi Harapan, Bacukiki Barat, Parepare, South Sulawesi 91123, Indonesia",Bukit Bulu' Batu,"[{'height': 3120, 'html_attributions': ['<a href=""https://maps.google.com/maps/contrib/101443658117063106008"">Andi Arga Batara Herdin</a>'], 'photo_reference': 'AUGGfZkaSSJAr2xIlsM455XWCuE3YTnzVU64xEPhJXWVZX1eFe8-_EwgyNjDJ0A8IzRn0Xa5N1PFCneZ6vNtxR2fK1Vl-U3tlI9L8VyQo8lsnHmu-tJbsHDwpIe12XEgXe1_y2YrWD_PEKUgNMtYMjF-jrv5kwW3GkKDGAZ2elNLNYnhwN0M', 'width': 4160}]",ChIJicLcJgi9lS0RIHKlkIdYDqU,4.8,"['point_of_interest', 'establishment']",14.0,-4.049234,119.644775
"XM4F+XRX, Unnamed Road, Lemoe, Kec. Bacukiki, Kota Parepare, Sulawesi Selatan 91121, Indonesia",Embung Marilaleng,"[{'height': 2080, 'html_attributions': ['<a href=""https://maps.google.com/maps/contrib/117558649471023117951"">Nasrul Ihsan</a>'], 'photo_reference': 'AUGGfZkDMZE0FtgcN8ZQ_z_CUvEkKby0siC6GNxwvBPauK1Lh-3pmJNNpxnYl3PYnuR4Vn2dpMm4L1VYg69RIZUxAkg09JW6YehzMHHDCRU5tHfcRxzDeER-fz2988AT8fK7zHpr4kDiVvIEvopn1KiXbdARyHB7dyoSL7ZEWXcJ6ekv_y0i', 'width': 4624}]",ChIJU3zS4I29lS0RXbhvKePqTfQ,4.2,"['tourist_attraction', 'point_of_interest', 'establishment']",9.0,-4.0425221,119.6746168
"2J3R+6X2, Jl. Industri Kecil, Bukit Harapan, Kec. Soreang, Kota Parepare, Sulawesi Selatan 91100, Indonesia",Kebun Raya Jompie Kota Parepare,"[{'height': 1108, 'html_attributions': ['<a href=""https://maps.google.com/maps/contrib/109675766728898847862"">inchi syafitriana</a>'], 'photo_reference': 'AUGGfZl7utEZOgtsFgMYsPzeizoRP7Z_Mupsv78YAP4EwCUV4MvzoDWV-hiA2ZxH7e_J4j5_C9i3OVXOuww2DF9WmRVp_4OiPT7gYYpCZ8nEKDgHzGCqGkHocwJr1ftasqO1mv-c-4hAFBB0Ljs_4e5pXI1Ad9_9t9p2js6595-LPrCrp1lD', 'width': 1477}]",ChIJJ-oTHJ-7lS0RJ5kYA1C2CEg,4.4,"['park', 'point_of_interest', 'establishment']",1043.0,-3.996984,119.6423786
"XJ3V+3QC, Bumi Harapan, Bacukiki Barat, Parepare, South Sulawesi, Indonesia",Dimitri,"[{'height': 1920, 'html_attributions': ['<a href=""https://maps.google.com/maps/contrib/114457178661841124505"">Mr. mistis_007</a>'], 'photo_reference': 'AUGGfZmeNNZTArCt_wkGEB27siplOdiVIstgK8o57j4WFon0nQiz3QOXYM558bhYEE3DsAPIut2Bd-CoocjDKdDzhCnRcrZbipGThqF7O91wf9rBeNuh1DyNr296KisWI5HBtCvh1pmN5MWjtt8Lg7an8pnqgCbPcPjIRaHx_VzpJqPjl0sz', 'width': 1080}]",ChIJpSIaMIO9lS0RIy18qq63qb8,0.0,"['tourist_attraction', 'point_of_interest', 'establishment']",0.0,-4.0473056,119.6444023
"XJ3F+JP8, Sumpang Minangae, Bacukiki Barat, Parepare, South Sulawesi, Indonesia",Rumah tmn Toke,,ChIJD-Qordm9lS0Ra264TxSRUnQ,0.0,"['tourist_attraction', 'point_of_interest', 'establishment']",0.0,-4.045951,119.6243237
"XMJ2+FRQ, Jl. H. Mukaddas, Lompoe, Kec. Bacukiki, Kota Parepare, Sulawesi Selatan 91125, Indonesia",Rumah om,,ChIJLVo2FwC7lS0RujzPqyxF_nI,0.0,"['tourist_attraction', 'point_of_interest', 'establishment']",0.0,-4.0195563,119.6517526
"Jl. Atletik No.328, Kp. Baru, Kec. Bacukiki Bar., Kota Parepare, Sulawesi Selatan 91111, Indonesia",T. Yohan,,ChIJccr4vLy7lS0Rk__EDq5tsXw,0.0,"['tourist_attraction', 'point_of_interest', 'establishment']",0.0,-4.0175379,119.6291764
"WJQH+XVC, Lumpue, Bacukiki Barat, Parepare, South Sulawesi 91123, Indonesia",Pare pare Sulawesi selatan,"[{'height': 1081, 'html_attributions': ['<a href=""https://maps.google.com/maps/contrib/106451445625286172777"">A Google User</a>'], 'photo_reference': 'AUGGfZkotjExAltqjzJnD5B65ojzihcplbYbmJgScCVlG4pagnj0RF2aCk0ETcfEv932wj78Y4lWga6UZ17avti2np6nu-CPESibpNa-2aJIbBNb1_KHs3s-e5pwqdWvlbZ8IftCmIOct9ng8NBHOEIhZ-wVTi3lRPdiwoMW_UI8qgSwCP81', 'width': 1573}]",ChIJjasBRr-9lS0RH9UtnHAG8H0,3.3,"['tourist_attraction', 'point_of_interest', 'establishment']",3.0,-4.060052499999999,119.6296326
"Lorong Maspul No.25 C, Ujung Baru, Kec. Soreang, Kota Parepare, Sulawesi Selatan 91131, Indonesia",Pucak Lorong Maspul,"[{'height': 1920, 'html_attributions': ['<a href=""https://maps.google.com/maps/contrib/101530616893040151158"">A Google User</a>'], 'photo_reference': 'AUGGfZmFXycPc3iRXFE52ORnKaM-JIWDfIQqfO0G-7YsfQ6pq7zfNjsUVJbDXmeyj6O2na_7qTQt-Siej_E34sToYtC0rvNP2Dz3HuEKJ1fafcmPG53s8mhIPflMUetTgUcuu6DDucKODcrl4bCcSplp5dBpUoW6jKmRi5k_SWMzt4Qkulrj', 'width': 1080}]",ChIJP3lVJKW7lS0RANJ1JJv0Q8k,0.0,"['tourist_attraction', 'point_of_interest', 'establishment']",0.0,-4.008761,119.634029
"XJRH+824, Jl. Muh Arsyad, Ujung Baru, Kec. Soreang, Kota Parepare, Sulawesi Selatan 91131, Indonesia",Rumah sengat lebah asy-syifa,,ChIJr9i6VAC7lS0Rea3l9CRSfWA,0.0,"['tourist_attraction', 'point_of_interest', 'establishment']",0.0,-4.0090314,119.627573
"Jl. Pinggir Laut No.2, Ujung Sabbang, Kec. Ujung, Kota Parepare, Sulawesi Selatan 91111, Indonesia",Muthmainnah Rusli,,ChIJ-7PpWgC7lS0RSyLeOokuaWU,0.0,"['tourist_attraction', 'point_of_interest', 'establishment']",0.0,-4.0101803,119.6208197
"XJWF+328, Jl. Nusantara, surung, Kec. Ujung, Kota Parepare, Sulawesi Selatan 91114, Indonesia",SUHARTO.SY,,ChIJt9lmeQC7lS0RT9x2G9Q6QEk,0.0,"['tourist_attraction', 'point_of_interest', 'establishment']",0.0,-4.0048328,119.622586
"Unga Jalan Petta Unga, Kota Parepare, Sulawesi Selatan 91132, Indonesia",Pantai Cempae,"[{'height': 2656, 'html_attributions': ['<a href=""https://maps.google.com/maps/contrib/117577083317614387833"">Muh Takbir</a>'], 'photo_reference': 'AUGGfZlzggANUaSBvnPLPXwBdVWtI8Kiml0G51eSEe2f117w2LAOs5LJ9sS7etEYDriElozruRyRxEeSpbSscK6WpEH_0tkQ4IJlxAhL4jy_1T25JXI1heL8H3OC6cw6W6uXhzVAACXCqje5FVvPtCVvmOu7nBDbqzCr27XRyrQaqgiqOClu', 'width': 3984}]",ChIJ-xHD3-K7lS0RPuZvMWeMiTU,5.0,"['tourist_attraction', 'point_of_interest', 'establishment']",7.0,-3.9961614,119.6322233
"XJF9+77, Cappa Galung, Parepare, South Sulawesi, Indonesia",Laut,,ChIJQQG_MQC7lS0RHmf9oSMNddk,0.0,"['tourist_attraction', 'point_of_interest', 'establishment']",0.0,-4.0267965,119.6181787
"Jl. Pinggir Laut, Ujung Sabbang, Kec. Ujung, Kota Parepare, Sulawesi Selatan, Indonesia",Monumen Telapak Tangan B.J. Habibie,"[{'height': 3936, 'html_attributions': ['<a href=""https://maps.google.com/maps/contrib/117577083317614387833"">Muh Takbir</a>'], 'photo_reference': 'AUGGfZnUgvRNZUKyvPyTZXdjygE7ZJIcDA2Mm_Y9IZlSi-hKCuxwG4liyeRDrMUjlfPo2mWktUD9kNiyWBQvhXoNqGsGqhK0DUxPpKmK8Y_UeWeW2ImHx5tq90DzZEbKHU7sXhb7LYF0upvLPquEfy8VdI3t1pXvbVHa9Romof04uoqK4IT5', 'width': 2624}]",ChIJm_gCJBy7lS0RckMX2hJgf6o,5.0,"['tourist_attraction', 'point_of_interest', 'establishment']",2.0,-4.011008299999999,119.6209087
"XMCP+4C7, Lemoe, Bacukiki, Parepare, South Sulawesi 91121, Indonesia",Planning Windiey cottage,,ChIJnf-5C_27lS0Rs4SeuyiD5uc,0.0,"['tourist_attraction', 'point_of_interest', 'establishment']",0.0,-4.0297005,119.6860353
"2M87+6J, Lapadde, Ujung, Parepare, South Sulawesi, Indonesia",Bukit Teletubbies,"[{'height': 3840, 'html_attributions': ['<a href=""https://maps.google.com/maps/contrib/102944903203691231414"">syafruddin uding</a>'], 'photo_reference': 'AUGGfZkPHNcMITyKsaSA7g-UXO3Ocbybl0od_monRFCHyy5BIYvHjgss42TS6jehYcup7Mnanw2TM_G0aKcz82avdWQblgHu01khTB4-VisvQZPL6629Ldcb0rXxD2mWykwdIr2sOB1s79vEQYL_xizjpiEsykt5AuD9JcL41vF6CaKFcGBl', 'width': 2160}]",ChIJ44Dk3cS7lS0RYp1aOUK6c9Q,0.0,"['tourist_attraction', 'point_of_interest', 'establishment']",0.0,-3.9844061,119.6640743
"VJV5+574, Kupa, Mallusetasi, Barru Regency, South Sulawesi 90753, Indonesia",Pantai Indah Parepare,"[{'height': 458, 'html_attributions': ['<a href=""https://maps.google.com/maps/contrib/107496140100219145649"">endih herawandih</a>'], 'photo_reference': 'AUGGfZnUDRzOJsALLGcMEHcY5hCwnxi-eIhf8xTOXz1OCIVLeuIye7Y7KCvfva8ZAuCfE1BKGIIaf0JChyDRrtIGRQgQXUnCrj6cCUMml1FZu1rTxvlaI8gyxMfN0DQaiNkYQpG3rj9Wjg5FBJyTZw8KDZdbgexS5xCaDfwG8ZIUHqGk6EZg', 'width': 720}]",ChIJ20cncsm9lS0RNkkCdoXlqCg,0.0,"['tourist_attraction', 'point_of_interest', 'establishment']",0.0,-4.107108,119.6082056
"WMR9+9Q, WT. Bacukiki, Bacukiki, Parepare, South Sulawesi 91121, Indonesia",Gunung bacukiki,"[{'height': 1920, 'html_attributions': ['<a href=""https://maps.google.com/maps/contrib/109606364409170238164"">International Jr</a>'], 'photo_reference': 'AUGGfZkeAeiED2GfbHfrUh0ACvwxb4nFpHplxZwRoUf7e3flcqtbMXy2q4THcp8hsLWM7WhHk_0ZqkzFLMJYif8VxEUbvrL0ND5zm4v0kYnhVG1U-VjNY6RSg5aQjrD6eyR8lTNHDAF4OI9ZZ2wSFmTkDv_9HFGRAB8I5AxdI72vZtiH531y', 'width': 1536}]",ChIJAWVKF3K9lS0RhTWjveEdSfI,5.0,"['park', 'point_of_interest', 'establishment']",2.0,-4.0591183,119.6694243
"XJJG+63V, Jl. H. Agussalim, Kp. Baru, Kec. Ujung, Kota Parepare, Sulawesi Selatan 91111, Indonesia",Rumah Abbi,,ChIJeemKyRq7lS0Rc-Vvhpyz8NE,0.0,"['campground', 'lodging', 'park', 'point_of_interest', 'establishment']",0.0,-4.0193867,119.62516
"WJXH+7JG, Lumpue, Bacukiki Barat, Parepare, South Sulawesi 91123, Indonesia",Lokasi Pare,,ChIJgaGTQgC9lS0RZD1_VJLeeTg,0.0,"['point_of_interest', 'establishment']",0.0,-4.052073399999999,119.6291852
"XJCH+QGM, Cappa Galung, Bacukiki Barat, Parepare, South Sulawesi 91122, Indonesia",Klenteng Kwan Kong Parepare,"[{'height': 2851, 'html_attributions': ['<a href=""https://maps.google.com/maps/contrib/114413226624159617544"">Monica Lingrat</a>'], 'photo_reference': 'AUGGfZlgKz80FA9FHXJd_zRORavCZuXK1YOZdHIXa0LFCVb94vwaDE8V-NdIfYWqTD3KJTnfHlCCnCc4RpYPP_Ri6peSPOYP0H3ncttHdcdzCqVKtM0aDkJtgHeVyYgtAwqEArQf4DUqp7sb0GIIqq3-g6uKuUvCD-ePWGXZJaYvqKkn3Wji', 'width': 3802}]",ChIJmREyVGm7lS0RrHrHNX1k6IU,5.0,"['place_of_worship', 'point_of_interest', 'establishment']",19.0,-4.0280439,119.6288384
"WMW5+2RR, WT. Bacukiki, Bacukiki, Parepare, South Sulawesi 91121, Indonesia",Batu MakikkiE,"[{'height': 3120, 'html_attributions': ['<a href=""https://maps.google.com/maps/contrib/100104694682074376012"">Edhorutt Edhorutt</a>'], 'photo_reference': 'AUGGfZnmw88QTEEMnsQu9PE6E5UtnhM2AFtSPeiogriS9oDaMr_q8xsTMf_Xg62woTTTQIPJX1jxDYR1YGiE8hPZRSdOjyUD5LlvPtSCLTr2a5Dsbj2bMQE0cbQTdlhznZYFv5gxS1uu_ucKkUbKYZrCdOD62-DfVXCTd_YZDmNUkP_CqH9z', 'width': 4160}]",ChIJIdH1w-K9lS0R7MnIMlyNpc4,3.6,"['museum', 'point_of_interest', 'establishment']",5.0,-4.0549121,119.65952
"XJRC+CRJ, Ujung Sabbang, Ujung, Parepare, South Sulawesi 91114, Indonesia",Monumen Korban 40.000 jiwa,"[{'height': 4128, 'html_attributions': ['<a href=""https://maps.google.com/maps/contrib/112617016043575927639"">hayunda azmi</a>'], 'photo_reference': 'AUGGfZkDKO4BiegYj0d01c4z9PH_T13Z4syNlm0D7DVQ11WKgkNm30emM3SesRfOEEzUJB1iWBUPVd_7g8fYYW--btmsCRCveVMI3bhfkr0J7lUuCys_9S_qcIexjd4tNJiBsNo90HV3kcR6CmNIRlR5K4vD56VcLkxAJqqSRvHp6pUcorTt', 'width': 2322}]",ChIJbcRJq7G7lS0REUTQNX7ujMI,4.6,"['point_of_interest', 'establishment']",20.0,-4.0089211,119.6220307
"WJ38+75R, Bojo, Mallusetasi, Barru Regency, South Sulawesi 90753, Indonesia",Eduwisata Aqualife UNHAS,"[{'height': 3000, 'html_attributions': ['<a href=""https://maps.google.com/maps/contrib/113000590531795196146"">Yuni Salempa</a>'], 'photo_reference': 'AUGGfZk5gxQ1RtHNrNcKjNVN7A8PchZj_qkVxkOm75d-0px0eE1qXrP4FE6ys5bbcG4KvHJt35YZajgBeMgVJIwZ77eDk9OObjHbBX7z71fCcA2YgKaZ_T41L8zTuv5Ldaz4QvkGz6nlcTCzecZ9S4Gc0elfEEoUWPSA5dWbmYl6qleiqlUa', 'width': 4000}]",ChIJw7R8nwm9lS0Rl7H8y08PfWQ,4.6,"['tourist_attraction', 'point_of_interest', 'establishment']",17.0,-4.0967594,119.6153976
"XJ7H+WRV, Bumi Harapan, Bacukiki Barat, Parepare, South Sulawesi 91122, Indonesia",DINAS OPP KOTA PAREPARE,"[{'height': 3264, 'html_attributions': ['<a href=""https://maps.google.com/maps/contrib/101552928428170071533"">Andi Muhammad Yusuf Usman</a>'], 'photo_reference': 'AUGGfZnmtaNEKEK9Ot-3nr1_Tnl3MteZnXX4Ab6B8nCoQrRlMkGYVd_d8x315aw94H_TV3WrPMQSyj7_BKoXuTMNs5A_vGcEPPuDJTRmgcORDeU-icEsPn5mwwoBD3mELWgOqGeDZr0qlRYF1yr80CImXLpVxZsxt3M1BM8XtV8bde8F0nPr', 'width': 1836}]",ChIJZd2gL2G7lS0RtFABMiIuGHU,4.8,"['point_of_interest', 'establishment']",5.0,-4.035203399999999,119.6294769
"Jl. Chalik No.14, Sumpang Minangae, Kec. Bacukiki Bar., Kota Parepare, Sulawesi Selatan 91121, Indonesia",KONTRAKAN ATIRAH,,ChIJSePoc3a9lS0RnMlRaLT5oB0,5.0,"['lodging', 'point_of_interest', 'establishment']",1.0,-4.0427176,119.6281847
"XJ6H+JFV, Bumi Harapan, Bacukiki Barat, Parepare, South Sulawesi 91121, Indonesia",Pondok Bening,,ChIJowh0LYy7lS0RLfa0l6NWyIQ,0.0,"['lodging', 'point_of_interest', 'establishment']",0.0,-4.0384073,119.6286814
"Jl. Jenderal Sudirman No.121, Tiro Sompe, Kec. Bacukiki Bar., Kota Parepare, Sulawesi Selatan 91121, Indonesia",Rumah Klowi,,ChIJz0LsdrW7lS0R1gdB8avxL2k,0.0,"['point_of_interest', 'establishment']",0.0,-4.021979000000001,119.631854
"2J4W+865, Jl. Manunggal, Bukit Harapan, Kec. Soreang, pakenya, Sulawesi Selatan 91131, Indonesia",Pemancingan ikan putra chenya,"[{'height': 3120, 'html_attributions': ['<a href=""https://maps.google.com/maps/contrib/109584585956768876359"">A Google User</a>'], 'photo_reference': 'AUGGfZn0H1sGQytz-Qd5sYogp6Kd6Sxqt9Gf0vfIdilAMg96aV3CGQwKXytdHzVCtMwzqZXg4cwZnff6mh6w26cBcsis3a1p5sCdyRGu8E9UM3tAqPAve_nC-N_1NxKXUQq6wg5XVtsvSdJC8x0C9HiFU2OUcgqgLJ39W-L9RDf_MBhtyny2', 'width': 4160}]",ChIJoQ6CgIy7lS0RPe_hj5OVqnI,0.0,"['tourist_attraction', 'point_of_interest', 'establishment']",0.0,-3.9942286,119.6456181
"2MVR+FC, Lainungan, Watang Pulu, Sidenreng Rappang Regency, South Sulawesi, Indonesia",Kincir Highland,"[{'height': 4032, 'html_attributions': ['<a href=""https://maps.google.com/maps/contrib/103025047900026567606"">Sultan B1</a>'], 'photo_reference': 'AUGGfZlNnu7C276mqssKFMbczbtvupg1i3c0ydpzWmTj2eE4ubYX04ehrY1Qe87zux3fuIw104335AMtemjdYgPzyQyHooxaqs5wtK1EncBGkyA2P68h6c3ZiDlbdywNRHPjKOpteXDtzWlNXMmOE0HI3gLmhLAPAKlmNLaSj5dZbUkDtMZE', 'width': 2268}]",ChIJ1zk8ySixlS0R_Y3toEhPtN0,5.0,"['tourist_attraction', 'point_of_interest', 'establishment']",1.0,-3.956366,119.6910959
"2MFG+V9P, Mattirotasi, Watang Pulu, Sidenreng Rappang Regency, South Sulawesi, Indonesia",matiro tasie,,ChIJt6U8bAC7lS0R7jTXD4rWxWE,0.0,"['tourist_attraction', 'point_of_interest', 'establishment']",0.0,-3.9752798,119.6759455
"3M4V+4G3, Lainungan, Watang Pulu, Sidenreng Rappang Regency, South Sulawesi 91661, Indonesia",sumur 7 bidadari,"[{'height': 1024, 'html_attributions': ['<a href=""https://maps.google.com/maps/contrib/103636983388693642765"">amiruddin kara</a>'], 'photo_reference': 'AUGGfZnXrGEMwsN3HzejvLGs6R0BMlO3kBKvNH0YhM1m9gdBU5mMi-j2cLk87p47s6UfZIHogg52dxvIuMlmawualMlJ-Kb7hhiUSlQx18SRSNgvhZe_fTTT0Ax_1tk8IJjf6cnLZKvqHrGm8sL7ln-JYaOzexZvYZtBCOofjG1D5JCOU2I_', 'width': 768}]",ChIJxVFm9hixlS0RK0c33KScYKI,0.0,"['tourist_attraction', 'point_of_interest', 'establishment']",0.0,-3.9447428,119.6938102
"3MGW+RJ9, Jl. Pare-Pare - Sidrap, Lainungan, Kec. Watang Pulu, Kabupaten Sidenreng Rappang, Sulawesi Selatan 91661, Indonesia",Waduk Rest Area DataE,"[{'height': 2084, 'html_attributions': ['<a href=""https://maps.google.com/maps/contrib/106768542637417594193"">nasri nasrief</a>'], 'photo_reference': 'AUGGfZkPZB1ELmAwqqFy333BR0_SkVhxhAHCLkOYlLvDQ_dN1pdqYtwG_lj2AJDeiffF8fKjsvIw5XcElciTKOhy9UPMKj4fd1V9INA65vPOqgOVH-T7Q9xYhyMfnBMWp-N8v4s4cvtKJGtlH7jqhvad3Y5wrk-wNM97G3qAZbKQOvdK8h16', 'width': 4624}]",ChIJCxuiyBi3lS0RyPffqNsvc80,4.0,"['tourist_attraction', 'point_of_interest', 'establishment']",4.0,-3.9229567,119.6966011
"2JVP+Q75, Tellumpanua, Suppa, Pinrang Regency, South Sulawesi 91272, Indonesia",Padangnge,,ChIJ8Yi96X-xlS0RnOhYsEr3aPI,3.0,"['tourist_attraction', 'point_of_interest', 'establishment']",1.0,-3.955617,119.6357342
"Cijengkol Selarwi, Sadu, Kec. Soreang, Kabupaten Bandung, Jawa Barat 40913, Indonesia",Love Soreang Park,"[{'height': 2304, 'html_attributions': ['<a href=""https://maps.google.com/maps/contrib/113262651368433199637"">fery xtrada 6</a>'], 'photo_reference': 'AUGGfZl9OHg4aQdB7f0Pt1DO2-eVWvIebHNB2mCyo6RfNGQxXZTZOBJ-sBjrcrfYUKfTW2ayQs5yCvXhbDVqPxD5L-zMzw-J21ELOyix-c38vuyFQ-tgrRjFhekNYuwxCHgrsqTZmB7-98QoXiLpLuWxTeXaLcfv0Aorpzc9oOMyTNBsnbYh', 'width': 4608}]",ChIJBUW2Wr3taC4RHSWxQw75mmM,4.1,"['restaurant', 'tourist_attraction', 'cafe', 'food', 'point_of_interest', 'establishment']",3580.0,-7.0449031,107.5039119
"XGMX+72V, Jl. Raya Soreang Kopo, Cingcin, Kec. Katapang, Kabupaten Bandung, Jawa Barat 40921, Indonesia",Tugu Strawberry,"[{'height': 4160, 'html_attributions': ['<a href=""https://maps.google.com/maps/contrib/105894938299954769455"">jajang setiawan</a>'], 'photo_reference': 'AUGGfZk3co_fEuRAfwPpfy3uah5S3VDw8drrDyq-raQ8wjGznol4rzSRriMjMk8KSH5NWmIb2pOKTq8wOKNmy4myFmr3LKfJqHRqKGId7R6eVOOxjqrfxPt2w8oe-xWyTcZoM4ojxSexCc8WAbaAaUIje41WUZziojTjQPqx-E8xGbrrd-25', 'width': 3120}]",ChIJHUsTYZ_uaC4RFs7jhiDB5kk,4.5,"['tourist_attraction', 'point_of_interest', 'establishment']",1484.0,-7.016764999999999,107.5475516
"2J3P+65W, Watang Soreang, Soreang, Parepare, South Sulawesi 91132, Indonesia",Lapangan Kavaleri Soreang Parepare,"[{'height': 3024, 'html_attributions': ['<a href=""https://maps.google.com/maps/contrib/101164995248190253672"">Yayat Hidayat</a>'], 'photo_reference': 'AUGGfZnVKUG2ru9775lhyUUSZbuN_VN0fOUORtAzym4o9bvQ6awIAlnR0nkvVT1BI_TEYRM5It7Vz-Wt5ea10qB69EXzwK6jCyrQl9tNrm8Nmvs4bw_XA5I6bkFAc8e4FlTzHmgiwYtYbL7d9XimqlLQoDr7H-Vb8OiDJ840JPUX6lCipmFN', 'width': 4032}]",ChIJj-4Up-W6lS0RFJMnheGvEnE,4.2,"['point_of_interest', 'establishment']",66.0,-3.9968798,119.6354522
"XG5H+FC9, Kampung Legok Jeunjing Desa Panyirapan, Jl. Terusan Cibako, Panyirapan, Kec. Soreang, Kabupaten Bandung, Jawa Barat 40915, Indonesia",Pesona Nirwana Waterpark,"[{'height': 768, 'html_attributions': ['<a href=""https://maps.google.com/maps/contrib/116944669258474210618"">Sabrina Tono</a>'], 'photo_reference': 'AUGGfZnJmDGjKXEYzG-9INxgM0bgHIXGGztk8q8qG2vFWVTeHYZqQhK51QpUPjckS_-7U7-3ahClwG6XlW8Z1xFvu5btL2tMu2sOkIA-feJvJeEt5q73uOltdFrKYk-uL-tG8V9wPsYv1CLbphcK4yXohOaZSnEn5rPCiQYp-tmQ1WcWqa0X', 'width': 1280}]",ChIJ_xWz4FHsaC4RcSL8vAov3L0,4.2,"['tourist_attraction', 'amusement_park', 'point_of_interest', 'establishment']",2150.0,-7.040915399999999,107.5269156
"Jalan Raya Soreang - Ciwidey No.Km.25, Cukanggenteng, Pasirjambu, Bandung Regency, West Java 40972, Indonesia",Driam Riverside Resort,"[{'height': 1019, 'html_attributions': ['<a href=""https://maps.google.com/maps/contrib/102566126364666372782"">d&#39;riam Riverside Resort</a>'], 'photo_reference': 'AUGGfZnjHLE5qq6zO6XBDAZ-NfIBrhXOaOGR_xcaBoapWIdSdM0IARReRwWSJZsn_jPjKjMrMK0B2hTGzI1bka46aDepo1EKpgVcO_LQbv8C6gaRrLEC4sugPt45Ttd-txuyEpdJvwFaQLUWXD27W4NHRHahgwFBU0ew7qozKAGzMpSrrA-k', 'width': 1326}]",ChIJl8A9nertaC4RYWfiuhcaMBI,4.4,"['tourist_attraction', 'lodging', 'park', 'restaurant', 'food', 'point_of_interest', 'establishment']",4161.0,-7.0687034,107.4903399
"XG65+4P2, Karamat Mulya, Karamatmulya, Kec. Soreang, Kabupaten Bandung, Jawa Barat 40914, Indonesia",Gapura Guha sumurbandung,"[{'height': 4160, 'html_attributions': ['<a href=""https://maps.google.com/maps/contrib/101840597182708976164"">A Google User</a>'], 'photo_reference': 'AUGGfZmRXILziXtSGMPRJpMZGvotfz2QHqvQk5ACYmDGGOPlrtBwMJIoFL_j7nQ0tj06Z5rG98DchMkR0QYnkxaeN9ms4qfTIgJPgjaA_iEw41IXPII6qcg_vBd4XyRrFcvE9UsJJRWz_0ogh66QS-6tVnlF1kSGbNM2Frna0MknPuVN_-_w', 'width': 3120}]",ChIJg2KiiAXtaC4RdcbOoBjsi_c,5.0,"['tourist_attraction', 'point_of_interest', 'establishment']",1.0,-7.0394615,107.5091592
"3HC5+32C, Lotang Salo, Suppa, Pinrang Regency, South Sulawesi 91272, Indonesia",Lawere Beach Bonging Ponging,"[{'height': 3120, 'html_attributions': ['<a href=""https://maps.google.com/maps/contrib/103330042543229880400"">Karman Boegyss</a>'], 'photo_reference': 'AUGGfZl5N9Y_JwwRu-yxDp6hlCCD3gUtRTGmRvfEzop-Pe-M2kxsvBQ8rmypMvtPr5hSJTyFHpyMUbfEMCVn2ueLAvEaUSwUO6UmAmZBt4vwC22DbzvJvCx8CMhWYUAOIZvcv3-Engm4MMLbGNOWiifJOv-IzMU2-ffdwmO1ZWc90ODq_QDl', 'width': 4160}]",ChIJV1JYGV2vlS0RNCencJT20_o,4.4,"['tourist_attraction', 'point_of_interest', 'establishment']",204.0,-3.9298165,119.5575118
"XGHJ+W2J, Jl. Al-Fathu, Pamekaran, Kec. Soreang, Kabupaten Bandung, Jawa Barat 40912, Indonesia",Sabilulungan Park,"[{'height': 3456, 'html_attributions': ['<a href=""https://maps.google.com/maps/contrib/100403497571798963335"">Arif Setiawan</a>'], 'photo_reference': 'AUGGfZmTgIsclV9zioXKhw2A3HhxGLSXLvcD5OcXpYapfm6wpEYC0aHr-ljn6VhG-Ix4I8x05mXxHwiTz0LajyneQdYYfO8XXtXG_EKFCRAGYG5-MbY3Fi9dOP7cAEP4QYAG_deB63qtUGKP4I-U69C3w_RvcGoJ6tMH3LMAL7JSHUSYimUO', 'width': 4608}]",ChIJdwBiWCzsaC4RyO9ty3He9pE,4.4,"['park', 'point_of_interest', 'establishment']",1805.0,-7.020157299999999,107.5300065
"XF6W+69V, Sadu, Soreang, Bandung Regency, West Java 40913, Indonesia",IRIGASI,"[{'height': 2851, 'html_attributions': ['<a href=""https://maps.google.com/maps/contrib/117469006214768697075"">dedi supriyadi</a>'], 'photo_reference': 'AUGGfZkz-XUr3_pnSGYQKh0KQr-_3oyBYqZKrnlakWw8x6jKZJ66a8kwbw4ZQlcuNmwraKNzgX1mnPZ2nT4m3CTM2LJYbwZChoBAFsXpg4EztdVgRfkqQoKDLdV2fKR1-gUIAypPFp05PMB8ia23vXRbF-_R96w08Kd0nAnKgpUtjrKBi8oE', 'width': 4266}]",ChIJ1-ITThTtaC4RPSRcmBCqf_4,4.5,"['tourist_attraction', 'point_of_interest', 'establishment']",4.0,-7.0393755,107.4959225
"XJRH+5J3, Ujung Baru, Soreang, Parepare, South Sulawesi, Indonesia",Erra,,ChIJgY9sy4u7lS0R_Soj1tURrEs,0.0,"['lodging', 'point_of_interest', 'establishment']",0.0,-4.009543,119.629064
"Dusun Menralo, Wiringtasi, Suppa, Pinrang Regency, South Sulawesi 91272, Indonesia",Menralo Beach & Resort,"[{'height': 3000, 'html_attributions': ['<a href=""https://maps.google.com/maps/contrib/113000590531795196146"">Yuni Salempa</a>'], 'photo_reference': 'AUGGfZkOruf_VbPPl5AFZ3_1QbIY1MBvdMcbfmLUqbIrxQc-Zoh3cukpLPs4KnZzLpTDCAeRKwYsIwz7QXbF3AlOB3UoTKNjSy8dHWWtFA1EWJiEkzaC7t36KakwKDv2GO_qGn0upUMCkI4LNcjxDk11ODJl6MYWgaBQ7_RnLZq1Bnb1GK8g', 'width': 4000}]",ChIJ-zKCTWCllS0Rjb3yVvau-vo,4.3,"['tourist_attraction', 'store', 'restaurant', 'food', 'point_of_interest', 'establishment']",449.0,-3.9993282,119.5895162
"Cilentik, Sukajadi, Kec. Soreang, Kabupaten Bandung, Jawa Barat 40911, Indonesia",Saber Sky Walk,"[{'height': 3264, 'html_attributions': ['<a href=""https://maps.google.com/maps/contrib/110022051916642963572"">FAHRIAN ARYASA</a>'], 'photo_reference': 'AUGGfZloU2cpqpw0emCEkY9n2DXVefKzE4Tu5ady9lM16_eXD6NPFnRg5k29WXBtkMTyqRUiL14OqxvFos4HSGL9VNqQhLcLVjnYazpO7PcWHJu-P2zRnsoCn6j_SytAPGMyfr_sZxvSKDAY0mJEkvkX2pRLq_C9tGPm02v3Vp_Pi7w1T28R', 'width': 2448}]",ChIJt1RsTq3taC4Rl39-_KrfLTA,4.6,"['park', 'point_of_interest', 'establishment']",19.0,-7.052391,107.503517
"3PM5+V8G, Lawawoi, Watang Pulu, Sidenreng Rappang Regency, South Sulawesi 91661, Indonesia",Taman Rekreasi Datae,"[{'height': 2448, 'html_attributions': ['<a href=""https://maps.google.com/maps/contrib/101216251503408497615"">A Google User</a>'], 'photo_reference': 'AUGGfZmC-4_m4HP5cag4c6rBm0q7XGfctsJvXTCpFE5_y6AcCR24iZaB5YdlllzVxb6B4e-1WDPjovUbWMxg2cUb394OAbFfdVfJJrZQZ9Cq8OJ65nHN5vQPD5z4Mx79z9mJaUuX1o1P0yXbI-mTrRISPApnCBCNf-AWa6epuLJ7we73123P', 'width': 3264}]",ChIJbSVe4MW2lS0RcTNTNV8q_UE,4.1,"['tourist_attraction', 'park', 'point_of_interest', 'establishment']",157.0,-3.9153183,119.708317
"2J2M+4P3, Watang Soreang, Soreang, Parepare, South Sulawesi 91131, Indonesia",Alfamidi Soreang,"[{'height': 3096, 'html_attributions': ['<a href=""https://maps.google.com/maps/contrib/115540530692015303124"">A Google User</a>'], 'photo_reference': 'AUGGfZnzuQCF0c7yRLENpO0nmVWR30HV-lzvkA3Q0w4ftQgMwcPLl5MWUWciilAD4T95JeStfmhcnVCouF_6_wZKdgA8vU6w42G6n5lsbwB6kPD8u-xO_iNofdJ85nIg008-_K9SzpJMyoGKqgNRkOILHSbeP8sxo5tyAYpz-JiiQPFQf54d', 'width': 4128}]",ChIJ0TCXjeO6lS0ROHvixcjYkhQ,4.5,"['supermarket', 'atm', 'finance', 'grocery_or_supermarket', 'store', 'food', 'point_of_interest', 'establishment']",80.0,-3.9997324,119.6342898
"Jln. Terusan Al Fathu No. 68. Kp. Peundeuy, Soreang, Kec. Soreang, Kabupaten Bandung, Jawa Barat 40911, Indonesia",de NGASO,"[{'height': 3468, 'html_attributions': ['<a href=""https://maps.google.com/maps/contrib/104283238665693304022"">Aam Nurtaqwani</a>'], 'photo_reference': 'AUGGfZl2B2iPOX-dsT8XsWorMuGrx6BDZ1YgC3moKOj-UhSIFcwNW14DUq6L4XP75wtL5Vx5WvAhyFrQhgYfV8bB07hiR00Hnx1PqZ76T5JvdAY4nRp9LltGzGObNhHYOvWO4CmtQ3muY5fVZ8Gfy5qJn4OoSY5zwLAbPGnbRJG3RZikZslY', 'width': 4624}]",ChIJycOOoHLtaC4RNrVjYsTCgJs,4.6,"['gas_station', 'point_of_interest', 'establishment']",40.0,-7.0314882,107.5279816
"Jl. Panti Asuhan No.5, Ujung Lare, Kec. Soreang, Kota Parepare, Sulawesi Selatan 91131, Indonesia",WISMA THAYYIBAH ABADI,,ChIJIZhjlTC7lS0Rrgv4UKVQKHY,0.0,"['lodging', 'point_of_interest', 'establishment']",0.0,-4.005828,119.6313981
"XH7W+GGH, Ujung Labuang, Pinrang Regency, South Sulawesi, Indonesia",Dermaga Ikkon,"[{'height': 960, 'html_attributions': ['<a href=""https://maps.google.com/maps/contrib/102891322951919332452"">Edy Mp</a>'], 'photo_reference': 'AUGGfZlUjEJWCoUMuLDFRavocxObevJaOqfmKQ76L9iaPvZxQZuFmuQUOhhGHxfVp0oE78nToHUf_porXEniQwWkOc0ExPAqGxkE5qf0sQCXoN40wDcI1hMJNw_07wPUInH1xKdqwmaF7wnDwd5JdQbEzVmb7wNDqwz0u9gejuNvWOhE-O7I', 'width': 1280}]",ChIJMVW7LACllS0Re4YISGGU1bs,3.0,"['tourist_attraction', 'point_of_interest', 'establishment']",1.0,-4.0364302,119.5967972
"XH4W+W4V, Lero, Suppa, Pinrang Regency, South Sulawesi, Indonesia",Reklamasi pantai ujung Lero,,ChIJz0alY3KjlS0RvC36XxzuyKE,5.0,"['tourist_attraction', 'point_of_interest', 'establishment']",2.0,-4.0439907,119.5956083
"2H2W+JV, Watang Suppa, Pinrang Regency, South Sulawesi, Indonesia",Pulau Zhimaru,,ChIJnTwhFN-llS0R1g8T037_PqY,5.0,"['tourist_attraction', 'point_of_interest', 'establishment']",1.0,-3.9984542,119.5972002
"2HFH+448, Jl. Poros Ujung Lero, Tasiwalie, Kec. Suppa, Kabupaten Pinrang, Sulawesi Selatan 91272, Indonesia",Elle' Kalukue Beach,"[{'height': 3000, 'html_attributions': ['<a href=""https://maps.google.com/maps/contrib/108785735201857697446"">A Google User</a>'], 'photo_reference': 'AUGGfZlFEcBRdApOMDwi-bPwU5_cZM_THKSpGOjMNTY-_BNl1uR9EdgGE7hrohXxgdWNN8jdw4nH4xYwQY9-hH-8K7u6852Rv8DGhiGizFTTgDDJg-LIMfvdgbHq3p8Spb3KCh3tIbkXxT-4GNjQLF88efG9vDwhiiQhjG-s5N57bCZCpxO-', 'width': 4000}]",ChIJB9jur3-llS0RIzyCZ_16HpE,0.0,"['tourist_attraction', 'point_of_interest', 'establishment']",0.0,-3.9783067,119.5781946
