[{"formatted_address":"Q7CJ+QJ, Long Penaneh II, Long Apari, Kutai Barat, East Kalimantan, Indonesia","name":"Liu mulang","place_id":"ChIJqXVvRgDJBjIR-sDn4QDEyHE","rating":0.0,"types":"['tourist_attraction', 'point_of_interest', 'establishment']","user_ratings_total":0,"photos":null,"lat":0.771956,"lng":114.2815511},{"formatted_address":"6MQ2+56, Long Isun, Long Pahangai, Kutai Barat, East Kalimantan, Indonesia","name":"Tepai-Jangau Campsite","place_id":"ChIJZ3nZfgAlBDIRzqBLVJQaSAk","rating":4.0,"types":"['tourist_attraction', 'point_of_interest', 'establishment']","user_ratings_total":1,"photos":"[{'height': 2880, 'html_attributions': ['<a href=\"https:\/\/maps.google.com\/maps\/contrib\/111365650871638450704\">anthony yeo<\/a>'], 'photo_reference': 'AUGGfZmiPmIMdfuhZbiXRSxrJDl7uO0Oyi9mDhPdmKyjdztSGGDB2EwZICLOxVaFUTHu4XFZFjaFbwKtw7iJhSIGZTjepWpAZc_CFp3V0xpohbJ5Tjm8_b5Cx2R77MPc5GlaBRZPq4MKpq22N_YzVomCBt-QkqNXfVnY2du3gLOoiy95WxSg', 'width': 7712}]","lat":1.237912,"lng":114.6505478},{"formatted_address":"C65V+H7G, Long Apari, Mahakam Ulu Regency, East Kalimantan, Indonesia","name":"Start S. Mahakam","place_id":"ChIJK4jukQBzBDIRmbBrc0mLCjo","rating":5.0,"types":"['park', 'point_of_interest', 'establishment']","user_ratings_total":3,"photos":null,"lat":1.4089432,"lng":114.2432058},{"formatted_address":"WRP8+3R, Long Tuyoq, Long Pahangai, Mahakam Ulu Regency, East Kalimantan, Indonesia","name":"Tepai River","place_id":"ChIJHazdOACJBjIR8Iem3bYQwY8","rating":5.0,"types":"['tourist_attraction', 'point_of_interest', 'establishment']","user_ratings_total":2,"photos":null,"lat":0.9352486,"lng":114.8171169},{"formatted_address":"CHGC+8J7, Lidung Payau, South Kayan, Malinau Regency, North Kalimantan, Indonesia","name":"Dual point (kayaknya)","place_id":"ChIJI1keFgBBBDIRjpYDDPCozD8","rating":0.0,"types":"['tourist_attraction', 'point_of_interest', 'establishment']","user_ratings_total":0,"photos":null,"lat":1.4257936,"lng":114.5715455},{"formatted_address":"WR96+QXJ, Sungai Tepai, Long Tuyoq, Long Pahangai, Mahakam Ulu, Kalimantan Timur 75768, Indonesia","name":"Sungai Tepai","place_id":"ChIJeXAFi1-JBjIRAGDB86WvbV0","rating":0.0,"types":"['tourist_attraction', 'point_of_interest', 'establishment']","user_ratings_total":0,"photos":null,"lat":0.919459,"lng":114.8123984},{"formatted_address":"M776+J2F, Batu Majang, Long Bagun, Mahakam Ulu Regency, East Kalimantan 75767, Indonesia","name":"Batu Besar","place_id":"ChIJDZjYHABJBjIRmmrUth1CJ98","rating":0.0,"types":"['tourist_attraction', 'point_of_interest', 'establishment']","user_ratings_total":0,"photos":null,"lat":0.6640691,"lng":115.2600506},{"formatted_address":"H52X+8G, Long Bagun Ulu, Long Bagun, Mahakam Ulu Regency, East Kalimantan, Indonesia","name":"Wisata Kahang Hunge Buyang","place_id":"ChIJn0MKIMJLBjIRrge3qJSF8DA","rating":5.0,"types":"['tourist_attraction', 'point_of_interest', 'establishment']","user_ratings_total":4,"photos":"[{'height': 4000, 'html_attributions': ['<a href=\"https:\/\/maps.google.com\/maps\/contrib\/108589303804986248968\">innal<\/a>'], 'photo_reference': 'AUGGfZkWJ9iEjSvAcn-RWAuylfwBtXlGT4lGef5iIuzdW34Q_tcCpYHL8YSKT10hbObhPzWGVb4LRW3gzwQVnVcYYfv4VSXrqJm4qj-fGpwv8OR1Lz3G57szV2lcRlUNVPOp2GJEtjeYs9JHT8pGKe1W_OvzjvniyrSxMX_sqhMRYGBRyAFN', 'width': 2250}]","lat":0.5508566,"lng":115.1987998},{"formatted_address":"F7CJ+JF, Ujoh Bilang, Long Bagun, Mahakam Ulu Regency, East Kalimantan, Indonesia","name":"Batu Dinding Long Melaham","place_id":"ChIJX2IBomK3BzIRV0xUAh1iCXQ","rating":5.0,"types":"['tourist_attraction', 'point_of_interest', 'establishment']","user_ratings_total":10,"photos":"[{'height': 540, 'html_attributions': ['<a href=\"https:\/\/maps.google.com\/maps\/contrib\/115854061222221497884\">A Google User<\/a>'], 'photo_reference': 'AUGGfZnRhUr3nGrv2V-oIy7QAaP8eakMIXfB7GS3ItIJi5VLAjUrHchN02qI3OwDxfoFWnJ7dIlTy3q6mh33lxuUwJW-L717V4S3q9Z0pHQPyy31qGiMWisWk_G-ndgGOPogfoA0QFNLtKl3xu8Hj-LJP2Q9zui5CUH9oATrThXilLcYfPbf', 'width': 720}]","lat":0.4715625,"lng":115.2811875},{"formatted_address":"H49G+77, Long Bagun Ulu, Long Bagun, Mahakam Ulu Regency, East Kalimantan, Indonesia","name":"Jantur Jangau","place_id":"ChIJUdKHGgtNBjIR20aQvRuD01w","rating":5.0,"types":"['tourist_attraction', 'point_of_interest', 'establishment']","user_ratings_total":4,"photos":"[{'height': 1600, 'html_attributions': ['<a href=\"https:\/\/maps.google.com\/maps\/contrib\/117660700283516593237\">SAPAR WADI<\/a>'], 'photo_reference': 'AUGGfZlL0IIkepmWEBjlAaS8BYz5v4vW_lKwqWmijE-_FSLtc_rW0LSOy8Sx_ubzAVakaPKQcJwIrdTROzKzToMOGNsWuqu8TcxPFrGvTRFp9zJbJM_nhic_826tCADMqlnSIcnPWc-XQeyVLnUKU6rXf67SIxcx6mLUsXCfkOExJynrr_vE', 'width': 899}]","lat":0.5681875,"lng":115.1256875},{"formatted_address":"F7Q2+94, Ujoh Bilang, Long Bagun, Mahakam Ulu Regency, East Kalimantan, Indonesia","name":"Berburu","place_id":"ChIJi6NseAC1BzIRKVzCURim_co","rating":0.0,"types":"['park', 'point_of_interest', 'establishment']","user_ratings_total":0,"photos":null,"lat":0.488426,"lng":115.250356},{"formatted_address":"G72C+CQR, RT.14\/RW.Tikah, Ujoh Bilang, Kec. Long Bagun, Mahakam Ulu, Kalimantan Timur, Indonesia","name":"Rumah Budayawan Art","place_id":"ChIJd7Ok3V21BzIRHtPBog5AP6Q","rating":0.0,"types":"['park', 'point_of_interest', 'establishment']","user_ratings_total":0,"photos":null,"lat":0.5011153,"lng":115.2719048},{"formatted_address":"F6RC+WC, Long Bagun Ilir, Long Bagun, Kabupaten Kutai Barat, East Kalimantan 75767, Indonesia","name":"Air Terjun Kelekup","place_id":"ChIJYz2jRwC1BzIR8Cx7XdK7zAw","rating":4.5,"types":"['tourist_attraction', 'point_of_interest', 'establishment']","user_ratings_total":2,"photos":"[{'height': 2352, 'html_attributions': ['<a href=\"https:\/\/maps.google.com\/maps\/contrib\/113553687204052982075\">mukhlis san<\/a>'], 'photo_reference': 'AUGGfZlv_IumFhNgE80AkNp9MubPK07mtb2lj2e2990Cu5DxLTjYxBiVi5ba40wPgWFBU0M0f8OrB-I4hsExnt24g7DoMAWU0sVK6i1i8sq1RphSZIITai9W8xpJemltmH0APqY7hRKmzwmvX73iC4DIUHZ2dcNZXQbxlKj2FoBIO9B-LAjK', 'width': 4160}]","lat":0.4923497,"lng":115.2210307},{"formatted_address":"Ujoh Bilang, Long Bagun, Mahakam Ulu Regency, East Kalimantan, Indonesia","name":"Hutan belantara","place_id":"ChIJ336PBfC1BzIRUJKaQyjDNFQ","rating":0.0,"types":"['park', 'point_of_interest', 'establishment']","user_ratings_total":0,"photos":"[{'height': 1792, 'html_attributions': ['<a href=\"https:\/\/maps.google.com\/maps\/contrib\/101277995698402212837\">A Google User<\/a>'], 'photo_reference': 'AUGGfZnKlO4UxqAFr290BJOfI2vxzIPQqJyu_1fBVsMN2EWpaDsBvGPoaRkld2I11n8x7qngpi5V3G6LwzPD05o5q1k4ptKqJB4SNL5OrZC0Rr3t5mZyrbPENe4PRuXq16kCH6DI8y1UcwPsxDz1ctyOHVcCAci73nEcqrjLs8dq8BzQCZv3', 'width': 828}]","lat":0.5011153,"lng":115.2719048},{"formatted_address":"P27X+W9, Long Bagun Ulu, Long Bagun, Mahakam Ulu Regency, East Kalimantan, Indonesia","name":"Riam Udang","place_id":"ChIJ9VdScwBbBjIRyZKpOkoA0e0","rating":5.0,"types":"['point_of_interest', 'establishment']","user_ratings_total":1,"photos":null,"lat":0.7148223,"lng":115.0483822},{"formatted_address":"4GW7+2P, Memahak Teboq, Long Hubung, Mahakam Ulu Regency, East Kalimantan, Indonesia","name":"Batoq Ba'ang","place_id":"ChIJiRAhyXjlBzIRIRWskprAWg0","rating":0.0,"types":"['tourist_attraction', 'point_of_interest', 'establishment']","user_ratings_total":0,"photos":null,"lat":0.1450152,"lng":115.5142571},{"formatted_address":"39M2+RFQ, Lutan, Long Hubung, Mahakam Ulu Regency, East Kalimantan, Indonesia","name":"Sungai Bentian","place_id":"ChIJwbCebwDzBzIRin4TdUCoNhE","rating":4.0,"types":"['tourist_attraction', 'point_of_interest', 'establishment']","user_ratings_total":1,"photos":"[{'height': 4032, 'html_attributions': ['<a href=\"https:\/\/maps.google.com\/maps\/contrib\/114396778257996217713\">A Google User<\/a>'], 'photo_reference': 'AUGGfZmLRw9cLNJghC35XGYtuffhlZnd2Fw5IZZBTTvbi8kAGl9COfSkHYN6FOAdioXu7WvjOt-RMN_5yCQY2K1HmC3A9EXaqitCd7dJ_ED5PcX4zpTq3EflE0B18Dh6UCTTqgB74_33WGok2HpcEsUSXgZr2xBszZ8KPFjyVTdgKK7qdNnX', 'width': 3024}]","lat":0.0845864,"lng":115.3512365},{"formatted_address":"4364+WMJ, Unnamed Road, Nyaribungan, Laham, Mahakam Ulu, Kalimantan Timur 75576, Indonesia","name":"Riam Buraq","place_id":"ChIJ_zxq15qFBzIRNRVgk_IYHPw","rating":5.0,"types":"['tourist_attraction', 'point_of_interest', 'establishment']","user_ratings_total":2,"photos":"[{'height': 1872, 'html_attributions': ['<a href=\"https:\/\/maps.google.com\/maps\/contrib\/110360361180867224842\">Rahmad Supri<\/a>'], 'photo_reference': 'AUGGfZkueemcoH7ZIZQIaGJ4o2-GKWH292ou4jLTWgHjfjzvk_w8y-U8mWMVyUqNGLbTKBzcW_5drnjj3t4O7ijXGSUKs6Z3deLJRYjIE8r7vlRDDVZbTF1a680Pg_DnrB_2Ovmkfi84UFi2e3nMmOpqUgRkfQLdju8o7DT1yG4q83JPEkeX', 'width': 4032}]","lat":0.112339,"lng":115.056642},{"formatted_address":"7VRM+5CJ, Long Beleh Haloq, Kembang Janggut, Kutai Kartanegara Regency, East Kalimantan, Indonesia","name":"Sepan guang","place_id":"ChIJvcjp7p1tCDIRr-E-asy-hZk","rating":0.0,"types":"['tourist_attraction', 'point_of_interest', 'establishment']","user_ratings_total":0,"photos":null,"lat":0.2904589,"lng":115.8835058},{"formatted_address":"2G55+9H6, Kelian Luar, Long Iram, West Kutai Regency, East Kalimantan, Indonesia","name":"Jantur Tenginan Biha","place_id":"ChIJrZaeadj5BzIRmTxuDRvbcxU","rating":4.0,"types":"['tourist_attraction', 'point_of_interest', 'establishment']","user_ratings_total":2,"photos":"[{'height': 3728, 'html_attributions': ['<a href=\"https:\/\/maps.google.com\/maps\/contrib\/101722476229302061371\">A Google User<\/a>'], 'photo_reference': 'AUGGfZm4IlyN2jbpF0Plzs84cC5GtErBSiOZQoVF2t1tg_wRZQqEb2VnBlUiWTv2iqBUir-hMoQvGh8szrDA_7J7zbsW1qHz5j9kB390zz-BknoWZcjIEMGVrOa9Zjr_I5j6VmDjocTWMb82VQQaGlqQcmGNPh3zpk1yyqOxNcvB18rM8y_s', 'width': 2788}]","lat":0.0084174,"lng":115.5088914}]